<?xml version="1.0" encoding="UTF-8"?>
<kml xmlns="http://www.opengis.net/kml/2.2">
  <Document>
    <name>FLC - Chatham NC - Ben (Tier 1 Part 1)</name>
    <Style id="tier1"><IconStyle><color>ff0000ff</color><Icon><href>http://maps.google.com/mapfiles/kml/paddle/wht-blank.png</href></Icon></IconStyle></Style>
    <Style id="tier2"><IconStyle><color>ff00ffff</color><Icon><href>http://maps.google.com/mapfiles/kml/paddle/wht-blank.png</href></Icon></IconStyle></Style>
    <Style id="tier3"><IconStyle><color>ff00ff00</color><Icon><href>http://maps.google.com/mapfiles/kml/paddle/wht-blank.png</href></Icon></IconStyle></Style>
    <Placemark><name>Reives William</name><styleUrl>#tier1</styleUrl><description><![CDATA[<b>Tier 1</b> | Score: 98<br>Owner: Reives William<br>Address: Glosson Rd, Hanahan, NC<br>Acreage: 12.0<br>APN: 13504<br><a href="https://landportal.com/?property=Zmlwcz0zNzAzNyZsbF91dWlkPTk1OTUwMjcwJmFwbj0wMDEzNTA0">&#128279; View on LandPortal</a>]]></description><Point><coordinates>-79.46183718890919,35.68582332612726,0</coordinates></Point></Placemark>
    <Placemark><name>Bower Douglas, Bower Teresa</name><styleUrl>#tier1</styleUrl><description><![CDATA[<b>Tier 1</b> | Score: 98<br>Owner: Bower Douglas, Bower Teresa<br>Address: Hadley Mill Rd, Pittsboro, NC<br>Acreage: 40.0<br>APN: 12351<br><a href="https://landportal.com/?property=Zmlwcz0zNzAzNyZsbF91dWlkPTk1OTM2OTIwJmFwbj0wMDEyMzUx">&#128279; View on LandPortal</a>]]></description><Point><coordinates>-79.2928746057124,35.70409707668601,0</coordinates></Point></Placemark>
    <Placemark><name>Fiedler Brenda G</name><styleUrl>#tier1</styleUrl><description><![CDATA[<b>Tier 1</b> | Score: 98<br>Owner: Fiedler Brenda G<br>Address: Clarence Mckeithan Rd, South Bend, NC<br>Acreage: 35.83<br>APN: 10133<br><a href="https://landportal.com/?property=Zmlwcz0zNzAzNyZsbF91dWlkPTk1OTU1NjM4JmFwbj0wMDEwMTMz">&#128279; View on LandPortal</a>]]></description><Point><coordinates>-79.27045049920822,35.53839872788635,0</coordinates></Point></Placemark>
    <Placemark><name>Buckner Steven Randall, Buckner Lori Lynn</name><styleUrl>#tier1</styleUrl><description><![CDATA[<b>Tier 1</b> | Score: 98<br>Owner: Buckner Steven Randall, Buckner Lori Lynn<br>Address: Jessie Bridges Rd, Pittsboro, NC<br>Acreage: 26.0<br>APN: 71459<br><a href="https://landportal.com/?property=Zmlwcz0zNzAzNyZsbF91dWlkPTk1OTU2MTcyJmFwbj0wMDcxNDU5">&#128279; View on LandPortal</a>]]></description><Point><coordinates>-79.42616829826962,35.776207189142646,0</coordinates></Point></Placemark>
    <Placemark><name>Bryan George R</name><styleUrl>#tier1</styleUrl><description><![CDATA[<b>Tier 1</b> | Score: 98<br>Owner: Bryan George R<br>Address: Gilmore Rd, Chapel Hill, NC<br>Acreage: 38.14<br>APN: 2178<br><a href="https://landportal.com/?property=Zmlwcz0zNzAzNyZsbF91dWlkPTk1OTQ5Nzc5JmFwbj0wMDAyMTc4">&#128279; View on LandPortal</a>]]></description><Point><coordinates>-79.13272660423792,35.859330162760855,0</coordinates></Point></Placemark>
    <Placemark><name>Smythe Robert, Smythe Marianne</name><styleUrl>#tier1</styleUrl><description><![CDATA[<b>Tier 1</b> | Score: 98<br>Owner: Smythe Robert, Smythe Marianne<br>Address: 2 Mill Rd, Pittsboro, NC<br>Acreage: 12.009<br>APN: 5871<br><a href="https://landportal.com/?property=Zmlwcz0zNzAzNyZsbF91dWlkPTk1OTQwMDk3JmFwbj0wMDA1ODcx">&#128279; View on LandPortal</a>]]></description><Point><coordinates>-79.24513673974857,35.737995941212425,0</coordinates></Point></Placemark>
    <Placemark><name>Revocable Trust Of Patricia Weldon Feigley, Feigley</name><styleUrl>#tier1</styleUrl><description><![CDATA[<b>Tier 1</b> | Score: 98<br>Owner: Revocable Trust Of Patricia Weldon Feigley, Feigley<br>Address: Old Graham Rd, Columbia, NC<br>Acreage: 22.0<br>APN: 66671<br><a href="https://landportal.com/?property=Zmlwcz0zNzAzNyZsbF91dWlkPTk1OTQzNzM2JmFwbj0wMDY2Njcx">&#128279; View on LandPortal</a>]]></description><Point><coordinates>-79.22600270225888,35.81098141656179,0</coordinates></Point></Placemark>
    <Placemark><name>Greene Armental Bynum</name><styleUrl>#tier1</styleUrl><description><![CDATA[<b>Tier 1</b> | Score: 98<br>Owner: Greene Armental Bynum<br>Address: Bynum Perrell Rd, Bear Creek, NC<br>Acreage: 15.133<br>APN: 8922<br><a href="https://landportal.com/?property=Zmlwcz0zNzAzNyZsbF91dWlkPTk1OTM0MTE1JmFwbj0wMDA4OTIy">&#128279; View on LandPortal</a>]]></description><Point><coordinates>-79.35737834520805,35.62487557644666,0</coordinates></Point></Placemark>
    <Placemark><name>Foxx Henry Thomas</name><styleUrl>#tier1</styleUrl><description><![CDATA[<b>Tier 1</b> | Score: 98<br>Owner: Foxx Henry Thomas<br>Address: Harrison Price Rd, Pittsboro, NC<br>Acreage: 12.22<br>APN: 87071<br><a href="https://landportal.com/?property=Zmlwcz0zNzAzNyZsbF91dWlkPTk1OTcyMjI4JmFwbj0wMDg3MDcx">&#128279; View on LandPortal</a>]]></description><Point><coordinates>-79.42295689444883,35.68476550311278,0</coordinates></Point></Placemark>
    <Placemark><name>Holt Rheta W</name><styleUrl>#tier1</styleUrl><description><![CDATA[<b>Tier 1</b> | Score: 98<br>Owner: Holt Rheta W<br>Address: H Lochwood Dr, Indianapolis, NC<br>Acreage: 19.42<br>APN: 66133<br><a href="https://landportal.com/?property=Zmlwcz0zNzAzNyZsbF91dWlkPTk1OTY2ODE3JmFwbj0wMDY2MTMz">&#128279; View on LandPortal</a>]]></description><Point><coordinates>-79.07637700344648,35.74279619802577,0</coordinates></Point></Placemark>
    <Placemark><name>Mckinnish Family Trust, Mckinnish</name><styleUrl>#tier1</styleUrl><description><![CDATA[<b>Tier 1</b> | Score: 98<br>Owner: Mckinnish Family Trust, Mckinnish<br>Address: Lewis Dr, Monroe, NC<br>Acreage: 12.669<br>APN: 70913<br><a href="https://landportal.com/?property=Zmlwcz0zNzAzNyZsbF91dWlkPTk1OTQ2NDY1JmFwbj0wMDcwOTEz">&#128279; View on LandPortal</a>]]></description><Point><coordinates>-79.45441816715532,35.81858985644945,0</coordinates></Point></Placemark>
    <Placemark><name>Gomez Evelyn, Gomez Bernardo</name><styleUrl>#tier1</styleUrl><description><![CDATA[<b>Tier 1</b> | Score: 98<br>Owner: Gomez Evelyn, Gomez Bernardo<br>Address: Castle Rock Farm Rd, Plainview, NC<br>Acreage: 12.08<br>APN: 69037<br><a href="https://landportal.com/?property=Zmlwcz0zNzAzNyZsbF91dWlkPTk1OTQ1NDAwJmFwbj0wMDY5MDM3">&#128279; View on LandPortal</a>]]></description><Point><coordinates>-79.25470456358474,35.80561289154893,0</coordinates></Point></Placemark>
    <Placemark><name>Fauntleroy Charles, Fauntleroy Dolles</name><styleUrl>#tier1</styleUrl><description><![CDATA[<b>Tier 1</b> | Score: 98<br>Owner: Fauntleroy Charles, Fauntleroy Dolles<br>Address: St Luke Church Rd, Goldston, NC<br>Acreage: 36.251<br>APN: 9788<br><a href="https://landportal.com/?property=Zmlwcz0zNzAzNyZsbF91dWlkPTk1OTU0ODY1JmFwbj0wMDA5Nzg4">&#128279; View on LandPortal</a>]]></description><Point><coordinates>-79.29884629809467,35.58934695883441,0</coordinates></Point></Placemark>
    <Placemark><name>Ralph Reid Knight Jr Trust, Knight</name><styleUrl>#tier1</styleUrl><description><![CDATA[<b>Tier 1</b> | Score: 98<br>Owner: Ralph Reid Knight Jr Trust, Knight<br>Address: Walter Bright Rd, Pittsboro, NC<br>Acreage: 19.57<br>APN: 68452<br><a href="https://landportal.com/?property=Zmlwcz0zNzAzNyZsbF91dWlkPTk1OTY0ODU4JmFwbj0wMDY4NDUy">&#128279; View on LandPortal</a>]]></description><Point><coordinates>-79.19847641448047,35.59051964422228,0</coordinates></Point></Placemark>
    <Placemark><name>Degraffenreidt Ashton Keisha, Degraffenreidt Peter Ashton</name><styleUrl>#tier1</styleUrl><description><![CDATA[<b>Tier 1</b> | Score: 98<br>Owner: Degraffenreidt Ashton Keisha, Degraffenreidt Peter Ashton<br>Address: Old Siler City Rd, Pittsboro, NC<br>Acreage: 27.37<br>APN: 6076<br><a href="https://landportal.com/?property=Zmlwcz0zNzAzNyZsbF91dWlkPTk1OTQxNDY4JmFwbj0wMDA2MDc2">&#128279; View on LandPortal</a>]]></description><Point><coordinates>-79.22511832742862,35.72722897339529,0</coordinates></Point></Placemark>
    <Placemark><name>Hogan Linda, Hogan Edwin</name><styleUrl>#tier1</styleUrl><description><![CDATA[<b>Tier 1</b> | Score: 98<br>Owner: Hogan Linda, Hogan Edwin<br>Address: 897 Laura Johnson Rd, Pittsboro, NC<br>Acreage: 10.13<br>APN: 82241<br><a href="https://landportal.com/?property=Zmlwcz0zNzAzNyZsbF91dWlkPTk1OTM5NTQ4JmFwbj0wMDgyMjQx">&#128279; View on LandPortal</a>]]></description><Point><coordinates>-79.31732631399797,35.75138302465439,0</coordinates></Point></Placemark>
    <Placemark><name>Hensler Suzanne Marie H</name><styleUrl>#tier1</styleUrl><description><![CDATA[<b>Tier 1</b> | Score: 98<br>Owner: Hensler Suzanne Marie H<br>Address: Fall Creek Church Rd, Pittsboro, NC<br>Acreage: 17.0<br>APN: 64566<br><a href="https://landportal.com/?property=Zmlwcz0zNzAzNyZsbF91dWlkPTk1OTQyMzQ3JmFwbj0wMDY0NTY2">&#128279; View on LandPortal</a>]]></description><Point><coordinates>-79.51392224588226,35.52467188088478,0</coordinates></Point></Placemark>
    <Placemark><name>Marshburn Robert White</name><styleUrl>#tier1</styleUrl><description><![CDATA[<b>Tier 1</b> | Score: 98<br>Owner: Marshburn Robert White<br>Address: Hanks Chapel Rd, Pittsboro, NC<br>Acreage: 14.24<br>APN: 7538<br><a href="https://landportal.com/?property=Zmlwcz0zNzAzNyZsbF91dWlkPTk1OTUzNzgxJmFwbj0wMDA3NTM4">&#128279; View on LandPortal</a>]]></description><Point><coordinates>-79.10602765778157,35.711869096704206,0</coordinates></Point></Placemark>
    <Placemark><name>Bryan George R</name><styleUrl>#tier1</styleUrl><description><![CDATA[<b>Tier 1</b> | Score: 98<br>Owner: Bryan George R<br>Address: Poythress Rd, Chapel Hill, NC<br>Acreage: 20.0<br>APN: 60543<br><a href="https://landportal.com/?property=Zmlwcz0zNzAzNyZsbF91dWlkPTk1OTYxMzY3JmFwbj0wMDYwNTQz">&#128279; View on LandPortal</a>]]></description><Point><coordinates>-79.13040592668551,35.861895212187605,0</coordinates></Point></Placemark>
    <Placemark><name>Dekker David Jason</name><styleUrl>#tier1</styleUrl><description><![CDATA[<b>Tier 1</b> | Score: 98<br>Owner: Dekker David Jason<br>Address: Indian Orchard Rd, Tallahassee, NC<br>Acreage: 10.02<br>APN: 69991<br><a href="https://landportal.com/?property=Zmlwcz0zNzAzNyZsbF91dWlkPTk1OTY1NDQ3JmFwbj0wMDY5OTkx">&#128279; View on LandPortal</a>]]></description><Point><coordinates>-79.22155228448631,35.84131262983172,0</coordinates></Point></Placemark>
    <Placemark><name>Carrington Glen C Oppie Bynum Jones Testamentary Trust C</name><styleUrl>#tier1</styleUrl><description><![CDATA[<b>Tier 1</b> | Score: 98<br>Owner: Carrington Glen C Oppie Bynum Jones Testamentary Trust C<br>Address: Bynum Perrell Rd, Bear Creek, NC<br>Acreage: 15.133<br>APN: 8917<br><a href="https://landportal.com/?property=Zmlwcz0zNzAzNyZsbF91dWlkPTk1OTM0MTExJmFwbj0wMDA4OTE3">&#128279; View on LandPortal</a>]]></description><Point><coordinates>-79.36025186797211,35.629214606579026,0</coordinates></Point></Placemark>
    <Placemark><name>Fogleman Barbara Henry</name><styleUrl>#tier1</styleUrl><description><![CDATA[<b>Tier 1</b> | Score: 98<br>Owner: Fogleman Barbara Henry<br>Address: Albright Rd, Siler City, NC<br>Acreage: 13.35<br>APN: 71806<br><a href="https://landportal.com/?property=Zmlwcz0zNzAzNyZsbF91dWlkPTk1OTY1ODc3JmFwbj0wMDcxODA2">&#128279; View on LandPortal</a>]]></description><Point><coordinates>-79.53882817967146,35.824071226439486,0</coordinates></Point></Placemark>
    <Placemark><name>Dudley James C, Dudley Valinda</name><styleUrl>#tier1</styleUrl><description><![CDATA[<b>Tier 1</b> | Score: 98<br>Owner: Dudley James C, Dudley Valinda<br>Address: Sandy Branch Church Rd, Siler City, NC<br>Acreage: 46.89<br>APN: 11656<br><a href="https://landportal.com/?property=Zmlwcz0zNzAzNyZsbF91dWlkPTk1OTU2MTAzJmFwbj0wMDExNjU2">&#128279; View on LandPortal</a>]]></description><Point><coordinates>-79.37891598709376,35.64836707483944,0</coordinates></Point></Placemark>
    <Placemark><name>Johnson Ben</name><styleUrl>#tier1</styleUrl><description><![CDATA[<b>Tier 1</b> | Score: 98<br>Owner: Johnson Ben<br>Address: Walter Lambert Rd, Bear Creek, NC<br>Acreage: 10.125<br>APN: 10124<br><a href="https://landportal.com/?property=Zmlwcz0zNzAzNyZsbF91dWlkPTk1OTU1NjA2JmFwbj0wMDEwMTI0">&#128279; View on LandPortal</a>]]></description><Point><coordinates>-79.31004952947043,35.60177470586218,0</coordinates></Point></Placemark>
    <Placemark><name>Marsh Jerry</name><styleUrl>#tier1</styleUrl><description><![CDATA[<b>Tier 1</b> | Score: 98<br>Owner: Marsh Jerry<br>Address: Laura Johnson Rd, Bronx, NC<br>Acreage: 21.829<br>APN: 80754<br><a href="https://landportal.com/?property=Zmlwcz0zNzAzNyZsbF91dWlkPTk1OTYzMDc4JmFwbj0wMDgwNzU0">&#128279; View on LandPortal</a>]]></description><Point><coordinates>-79.31836146961697,35.74983621808883,0</coordinates></Point></Placemark>
    <Placemark><name>Fauntleroy Charles, Fauntleroy Dollester</name><styleUrl>#tier1</styleUrl><description><![CDATA[<b>Tier 1</b> | Score: 98<br>Owner: Fauntleroy Charles, Fauntleroy Dollester<br>Address: St Luke Church Rd, Goldston, NC<br>Acreage: 10.344<br>APN: 63899<br><a href="https://landportal.com/?property=Zmlwcz0zNzAzNyZsbF91dWlkPTk1OTYyNzQ3JmFwbj0wMDYzODk5">&#128279; View on LandPortal</a>]]></description><Point><coordinates>-79.29610336705261,35.59224506278746,0</coordinates></Point></Placemark>
    <Placemark><name>Cockman Bonnie Caroline, Cockman Jeffrey Russell</name><styleUrl>#tier1</styleUrl><description><![CDATA[<b>Tier 1</b> | Score: 98<br>Owner: Cockman Bonnie Caroline, Cockman Jeffrey Russell<br>Address: Alston Chapel Rd, Pittsboro, NC<br>Acreage: 35.83<br>APN: 12292<br><a href="https://landportal.com/?property=Zmlwcz0zNzAzNyZsbF91dWlkPTk1OTM2NzQ2JmFwbj0wMDEyMjky">&#128279; View on LandPortal</a>]]></description><Point><coordinates>-79.27323105701899,35.70516231806965,0</coordinates></Point></Placemark>
    <Placemark><name>Boling James Keith</name><styleUrl>#tier1</styleUrl><description><![CDATA[<b>Tier 1</b> | Score: 98<br>Owner: Boling James Keith<br>Address: S Second Ave, Siler City, NC<br>Acreage: 18.93<br>APN: 16389<br><a href="https://landportal.com/?property=Zmlwcz0zNzAzNyZsbF91dWlkPTk1OTM2OTQ3JmFwbj0wMDE2Mzg5">&#128279; View on LandPortal</a>]]></description><Point><coordinates>-79.45504813369163,35.715891671030704,0</coordinates></Point></Placemark>
    <Placemark><name>Hall Lois M</name><styleUrl>#tier1</styleUrl><description><![CDATA[<b>Tier 1</b> | Score: 98<br>Owner: Hall Lois M<br>Address: Laster Rd, New Hill, NC<br>Acreage: 12.45<br>APN: 5230<br><a href="https://landportal.com/?property=Zmlwcz0zNzAzNyZsbF91dWlkPTk1OTUyNDc1JmFwbj0wMDA1MjMw">&#128279; View on LandPortal</a>]]></description><Point><coordinates>-79.03244138445493,35.65558699281732,0</coordinates></Point></Placemark>
    <Placemark><name>Moore Robin Gaines, Czawlytko Joy Rae</name><styleUrl>#tier1</styleUrl><description><![CDATA[<b>Tier 1</b> | Score: 98<br>Owner: Moore Robin Gaines, Czawlytko Joy Rae<br>Address: Bear Creek Church Rd, Forest Hill, NC<br>Acreage: 15.24<br>APN: 9443<br><a href="https://landportal.com/?property=Zmlwcz0zNzAzNyZsbF91dWlkPTk1OTM1MjI0JmFwbj0wMDA5NDQz">&#128279; View on LandPortal</a>]]></description><Point><coordinates>-79.34240870603242,35.59651898475484,0</coordinates></Point></Placemark>
    <Placemark><name>Huddleston Richard F</name><styleUrl>#tier1</styleUrl><description><![CDATA[<b>Tier 1</b> | Score: 98<br>Owner: Huddleston Richard F<br>Address: Crestmont Dr, Siler City, NC<br>Acreage: 22.85<br>APN: 371<br><a href="https://landportal.com/?property=Zmlwcz0zNzAzNyZsbF91dWlkPTk1OTQ1Mjc3JmFwbj0wMDAwMzcx">&#128279; View on LandPortal</a>]]></description><Point><coordinates>-79.47947004792758,35.78861040976109,0</coordinates></Point></Placemark>
    <Placemark><name>Hamlet Billy Curtis</name><styleUrl>#tier1</styleUrl><description><![CDATA[<b>Tier 1</b> | Score: 98<br>Owner: Hamlet Billy Curtis<br>Address: 1230 Rosser Rd, Bear Creek, NC<br>Acreage: 38.697<br>APN: 10153<br><a href="https://landportal.com/?property=Zmlwcz0zNzAzNyZsbF91dWlkPTk1OTU1Njk2JmFwbj0wMDEwMTUz">&#128279; View on LandPortal</a>]]></description><Point><coordinates>-79.23208428409777,35.612987789009125,0</coordinates></Point></Placemark>
    <Placemark><name>Ebert Bradley A</name><styleUrl>#tier1</styleUrl><description><![CDATA[<b>Tier 1</b> | Score: 98<br>Owner: Ebert Bradley A<br>Address: Us 64 W, Siler City, NC<br>Acreage: 30.274<br>APN: 62903<br><a href="https://landportal.com/?property=Zmlwcz0zNzAzNyZsbF91dWlkPTk1OTY0MTQ4JmFwbj0wMDYyOTAz">&#128279; View on LandPortal</a>]]></description><Point><coordinates>-79.39544758883889,35.73561417915622,0</coordinates></Point></Placemark>
    <Placemark><name>Fiori Melissa Loraleigh</name><styleUrl>#tier1</styleUrl><description><![CDATA[<b>Tier 1</b> | Score: 98<br>Owner: Fiori Melissa Loraleigh<br>Address: Woody Dam Rd, Sanford, NC<br>Acreage: 17.67<br>APN: 60281<br><a href="https://landportal.com/?property=Zmlwcz0zNzAzNyZsbF91dWlkPTk1OTYwOTkzJmFwbj0wMDYwMjgx">&#128279; View on LandPortal</a>]]></description><Point><coordinates>-79.2128614728126,35.63792259640192,0</coordinates></Point></Placemark>
    <Placemark><name>Genise Irrevocable Trust, Genise</name><styleUrl>#tier1</styleUrl><description><![CDATA[<b>Tier 1</b> | Score: 98<br>Owner: Genise Irrevocable Trust, Genise<br>Address: Carillon Dr, Pittsboro, NC<br>Acreage: 10.01<br>APN: 74851<br><a href="https://landportal.com/?property=Zmlwcz0zNzAzNyZsbF91dWlkPTk1OTYwNDUwJmFwbj0wMDc0ODUx">&#128279; View on LandPortal</a>]]></description><Point><coordinates>-79.26818233319844,35.69710171939525,0</coordinates></Point></Placemark>
    <Placemark><name>Womble Essex, Rogg Oskar</name><styleUrl>#tier1</styleUrl><description><![CDATA[<b>Tier 1</b> | Score: 98<br>Owner: Womble Essex, Rogg Oskar<br>Address: Goldston Glendon Rd, Goldston, NC<br>Acreage: 39.96<br>APN: 4614<br><a href="https://landportal.com/?property=Zmlwcz0zNzAzNyZsbF91dWlkPTk1OTMzNDUxJmFwbj0wMDA0NjE0">&#128279; View on LandPortal</a>]]></description><Point><coordinates>-79.41869348501177,35.51770833187342,0</coordinates></Point></Placemark>
    <Placemark><name>Larry B Fearrington Trust, Susan C Fearrington Trust</name><styleUrl>#tier1</styleUrl><description><![CDATA[<b>Tier 1</b> | Score: 98<br>Owner: Larry B Fearrington Trust, Susan C Fearrington Trust<br>Address: Burnett Cir, Oxford, NC<br>Acreage: 11.29<br>APN: 70010<br><a href="https://landportal.com/?property=Zmlwcz0zNzAzNyZsbF91dWlkPTk1OTY1NDc2JmFwbj0wMDcwMDEw">&#128279; View on LandPortal</a>]]></description><Point><coordinates>-79.17438537308747,35.85513978995451,0</coordinates></Point></Placemark>
    <Placemark><name>Offei Joseph R</name><styleUrl>#tier1</styleUrl><description><![CDATA[<b>Tier 1</b> | Score: 98<br>Owner: Offei Joseph R<br>Address: 911 Emily Ln, Chapel Hill, NC<br>Acreage: 10.058<br>APN: 79048<br><a href="https://landportal.com/?property=Zmlwcz0zNzAzNyZsbF91dWlkPTk1OTYyODcwJmFwbj0wMDc5MDQ4">&#128279; View on LandPortal</a>]]></description><Point><coordinates>-79.16324145310267,35.85761913994628,0</coordinates></Point></Placemark>
    <Placemark><name>Sidhwaney Brij, Sidhwaney Jaishri B</name><styleUrl>#tier1</styleUrl><description><![CDATA[<b>Tier 1</b> | Score: 98<br>Owner: Sidhwaney Brij, Sidhwaney Jaishri B<br>Address: Alston Chapel Rd, Pittsboro, NC<br>Acreage: 32.65<br>APN: 60898<br><a href="https://landportal.com/?property=Zmlwcz0zNzAzNyZsbF91dWlkPTk1OTYxMzE2JmFwbj0wMDYwODk4">&#128279; View on LandPortal</a>]]></description><Point><coordinates>-79.25387987940763,35.71011769409727,0</coordinates></Point></Placemark>
    <Placemark><name>Blackburn Martha B, Blackburn Gilmer W</name><styleUrl>#tier1</styleUrl><description><![CDATA[<b>Tier 1</b> | Score: 98<br>Owner: Blackburn Martha B, Blackburn Gilmer W<br>Address: Mclaurin Rd, Bear Creek, NC<br>Acreage: 50.0<br>APN: 11908<br><a href="https://landportal.com/?property=Zmlwcz0zNzAzNyZsbF91dWlkPTk1OTU2NjE0JmFwbj0wMDExOTA4">&#128279; View on LandPortal</a>]]></description><Point><coordinates>-79.3581744841935,35.65918668828393,0</coordinates></Point></Placemark>
    <Placemark><name>Dixon L M</name><styleUrl>#tier1</styleUrl><description><![CDATA[<b>Tier 1</b> | Score: 98<br>Owner: Dixon L M<br>Address: Bennett Siler City Rd, Pittsboro, NC<br>Acreage: 37.381<br>APN: 68988<br><a href="https://landportal.com/?property=Zmlwcz0zNzAzNyZsbF91dWlkPTk1OTQ0NzQ0JmFwbj0wMDY4OTg4">&#128279; View on LandPortal</a>]]></description><Point><coordinates>-79.53653410092093,35.61488322063529,0</coordinates></Point></Placemark>
    <Placemark><name>Steadman Vivian</name><styleUrl>#tier1</styleUrl><description><![CDATA[<b>Tier 1</b> | Score: 98<br>Owner: Steadman Vivian<br>Address: Henry Oldham Rd, Goldston, NC<br>Acreage: 11.4<br>APN: 9753<br><a href="https://landportal.com/?property=Zmlwcz0zNzAzNyZsbF91dWlkPTk1OTM1OTAwJmFwbj0wMDA5NzUz">&#128279; View on LandPortal</a>]]></description><Point><coordinates>-79.27523280679723,35.585434632704256,0</coordinates></Point></Placemark>
    <Placemark><name>Baldwin Vincent Geneva, Baldwin Douglas Vincent</name><styleUrl>#tier1</styleUrl><description><![CDATA[<b>Tier 1</b> | Score: 98<br>Owner: Baldwin Vincent Geneva, Baldwin Douglas Vincent<br>Address: Russell Chapel Ch Rd, Pittsboro, NC<br>Acreage: 24.0<br>APN: 6729<br><a href="https://landportal.com/?property=Zmlwcz0zNzAzNyZsbF91dWlkPTk1OTUzMDEwJmFwbj0wMDA2NzI5">&#128279; View on LandPortal</a>]]></description><Point><coordinates>-79.18023388766261,35.762255931328085,0</coordinates></Point></Placemark>
    <Placemark><name>Cockman Bonnie Caroline, Foote Christopher L</name><styleUrl>#tier1</styleUrl><description><![CDATA[<b>Tier 1</b> | Score: 98<br>Owner: Cockman Bonnie Caroline, Foote Christopher L<br>Address: Alex Cockman Rd, Pittsboro, NC<br>Acreage: 37.699<br>APN: 12337<br><a href="https://landportal.com/?property=Zmlwcz0zNzAzNyZsbF91dWlkPTk1OTM2ODYxJmFwbj0wMDEyMzM3">&#128279; View on LandPortal</a>]]></description><Point><coordinates>-79.27579081263661,35.70543809797892,0</coordinates></Point></Placemark>
    <Placemark><name>Rao Sreenivasa, Rao Nakirikanti Shailaja</name><styleUrl>#tier1</styleUrl><description><![CDATA[<b>Tier 1</b> | Score: 98<br>Owner: Rao Sreenivasa, Rao Nakirikanti Shailaja<br>Address: Us 64 W, Malvern, NC<br>Acreage: 11.127<br>APN: 69002<br><a href="https://landportal.com/?property=Zmlwcz0zNzAzNyZsbF91dWlkPTk1OTQ0ODE0JmFwbj0wMDY5MDAy">&#128279; View on LandPortal</a>]]></description><Point><coordinates>-79.28139036810532,35.73411680429963,0</coordinates></Point></Placemark>
    <Placemark><name>Piedmont Southern Wood</name><styleUrl>#tier1</styleUrl><description><![CDATA[<b>Tier 1</b> | Score: 98<br>Owner: Piedmont Southern Wood<br>Address: R Jordan Rd, Goldston, NC<br>Acreage: 49.44<br>APN: 9869<br><a href="https://landportal.com/?property=Zmlwcz0zNzAzNyZsbF91dWlkPTk1OTU1MDU0JmFwbj0wMDA5ODY5">&#128279; View on LandPortal</a>]]></description><Point><coordinates>-79.27681854203003,35.5604256876899,0</coordinates></Point></Placemark>
    <Placemark><name>Jerry And Patricia White Irrevocable Trust, White</name><styleUrl>#tier1</styleUrl><description><![CDATA[<b>Tier 1</b> | Score: 98<br>Owner: Jerry And Patricia White Irrevocable Trust, White<br>Address: Foxfire Trace Rd, Pittsboro, NC<br>Acreage: 15.024<br>APN: 7569<br><a href="https://landportal.com/?property=Zmlwcz0zNzAzNyZsbF91dWlkPTk1OTUzODc2JmFwbj0wMDA3NTY5">&#128279; View on LandPortal</a>]]></description><Point><coordinates>-79.12956403427506,35.7194484930819,0</coordinates></Point></Placemark>
    <Placemark><name>Crumley Robin Coker, Crumley Michael David</name><styleUrl>#tier1</styleUrl><description><![CDATA[<b>Tier 1</b> | Score: 96<br>Owner: Crumley Robin Coker, Crumley Michael David<br>Address: Edwards Hill Church Rd, Bear Creek, NC<br>Acreage: 14.1<br>APN: 60419<br><a href="https://landportal.com/?property=Zmlwcz0zNzAzNyZsbF91dWlkPTk1OTYxMTY3JmFwbj0wMDYwNDE5">&#128279; View on LandPortal</a>]]></description><Point><coordinates>-79.4346363472934,35.60792133302442,0</coordinates></Point></Placemark>
    <Placemark><name>Eaves Ada Renee, Degraffenreidt Leon</name><styleUrl>#tier1</styleUrl><description><![CDATA[<b>Tier 1</b> | Score: 96<br>Owner: Eaves Ada Renee, Degraffenreidt Leon<br>Address: 87 North Dr, Moncure, NC<br>Acreage: 18.0<br>APN: 79191<br><a href="https://landportal.com/?property=Zmlwcz0zNzAzNyZsbF91dWlkPTk1OTY4OTkwJmFwbj0wMDc5MTkx">&#128279; View on LandPortal</a>]]></description><Point><coordinates>-79.2459075637131,35.773187826261655,0</coordinates></Point></Placemark>
    <Placemark><name>Gunn Rebekah M</name><styleUrl>#tier1</styleUrl><description><![CDATA[<b>Tier 1</b> | Score: 96<br>Owner: Gunn Rebekah M<br>Address: Us 64 E, Apex, NC<br>Acreage: 10.02<br>APN: 72032<br><a href="https://landportal.com/?property=Zmlwcz0zNzAzNyZsbF91dWlkPTk1OTU3MzM1JmFwbj0wMDcyMDMy">&#128279; View on LandPortal</a>]]></description><Point><coordinates>-79.07217936088873,35.736648699639886,0</coordinates></Point></Placemark>
    <Placemark><name>London William L, London Lisa V</name><styleUrl>#tier1</styleUrl><description><![CDATA[<b>Tier 1</b> | Score: 96<br>Owner: London William L, London Lisa V<br>Address: Pete Roberson Rd, Pittsboro, NC<br>Acreage: 42.268<br>APN: 74704<br><a href="https://landportal.com/?property=Zmlwcz0zNzAzNyZsbF91dWlkPTk1OTU5NjQ1JmFwbj0wMDc0NzA0">&#128279; View on LandPortal</a>]]></description><Point><coordinates>-79.2244741755423,35.664981465196945,0</coordinates></Point></Placemark>
    <Placemark><name>Horner Gary Wayne</name><styleUrl>#tier1</styleUrl><description><![CDATA[<b>Tier 1</b> | Score: 96<br>Owner: Horner Gary Wayne<br>Address: New Elam Church Rd, New Hill, NC<br>Acreage: 17.25<br>APN: 5608<br><a href="https://landportal.com/?property=Zmlwcz0zNzAzNyZsbF91dWlkPTk1OTM1ODYzJmFwbj0wMDA1NjA4">&#128279; View on LandPortal</a>]]></description><Point><coordinates>-79.02097670765,35.64229827681522,0</coordinates></Point></Placemark>
    <Placemark><name>Eisner Joel</name><styleUrl>#tier1</styleUrl><description><![CDATA[<b>Tier 1</b> | Score: 96<br>Owner: Eisner Joel<br>Address: Lystra Rd, Moncure, NC<br>Acreage: 10.02<br>APN: 78284<br><a href="https://landportal.com/?property=Zmlwcz0zNzAzNyZsbF91dWlkPTk1OTUwNTcxJmFwbj0wMDc4Mjg0">&#128279; View on LandPortal</a>]]></description><Point><coordinates>-79.0466035341866,35.82651766119451,0</coordinates></Point></Placemark>
    <Placemark><name>Horton Barbara Lee, Haith Lealer L</name><styleUrl>#tier1</styleUrl><description><![CDATA[<b>Tier 1</b> | Score: 96<br>Owner: Horton Barbara Lee, Haith Lealer L<br>Address: Old Graham Rd, Pittsboro, NC<br>Acreage: 13.78<br>APN: 6599<br><a href="https://landportal.com/?property=Zmlwcz0zNzAzNyZsbF91dWlkPTk1OTUyNjU1JmFwbj0wMDA2NTk5">&#128279; View on LandPortal</a>]]></description><Point><coordinates>-79.18158632824964,35.74220531043815,0</coordinates></Point></Placemark>
    <Placemark><name>Thompson Kenneth H</name><styleUrl>#tier1</styleUrl><description><![CDATA[<b>Tier 1</b> | Score: 96<br>Owner: Thompson Kenneth H<br>Address: 663 Vernie Phillips Rd, Bear Creek, NC<br>Acreage: 34.19<br>APN: 82287<br><a href="https://landportal.com/?property=Zmlwcz0zNzAzNyZsbF91dWlkPTk1OTM5NjI1JmFwbj0wMDgyMjg3">&#128279; View on LandPortal</a>]]></description><Point><coordinates>-79.328050823762,35.61282286424955,0</coordinates></Point></Placemark>
    <Placemark><name>Hardy James Warren, Hardy Teresa Gooodwin</name><styleUrl>#tier1</styleUrl><description><![CDATA[<b>Tier 1</b> | Score: 96<br>Owner: Hardy James Warren, Hardy Teresa Gooodwin<br>Address: Tom Stevens Rd, Pittsboro, NC<br>Acreage: 10.35<br>APN: 76176<br><a href="https://landportal.com/?property=Zmlwcz0zNzAzNyZsbF91dWlkPTk1OTYwMDE1JmFwbj0wMDc2MTc2">&#128279; View on LandPortal</a>]]></description><Point><coordinates>-79.42004411894709,35.81392294088395,0</coordinates></Point></Placemark>
    <Placemark><name>Crumley Michael D, Coker Robin</name><styleUrl>#tier1</styleUrl><description><![CDATA[<b>Tier 1</b> | Score: 96<br>Owner: Crumley Michael D, Coker Robin<br>Address: Edwards Hill Church Rd, Bear Creek, NC<br>Acreage: 14.1<br>APN: 60310<br><a href="https://landportal.com/?property=Zmlwcz0zNzAzNyZsbF91dWlkPTk1OTYxMDM0JmFwbj0wMDYwMzEw">&#128279; View on LandPortal</a>]]></description><Point><coordinates>-79.43518020611407,35.6054545883594,0</coordinates></Point></Placemark>
    <Placemark><name>Horton Barbara Lee, Haith Lealer L</name><styleUrl>#tier1</styleUrl><description><![CDATA[<b>Tier 1</b> | Score: 96<br>Owner: Horton Barbara Lee, Haith Lealer L<br>Address: Old Graham Rd, Pittsboro, NC<br>Acreage: 15.518<br>APN: 6598<br><a href="https://landportal.com/?property=Zmlwcz0zNzAzNyZsbF91dWlkPTk1OTUyNjUyJmFwbj0wMDA2NTk4">&#128279; View on LandPortal</a>]]></description><Point><coordinates>-79.18129573794769,35.74359599864199,0</coordinates></Point></Placemark>
    <Placemark><name>Goodwin Patrica Lane</name><styleUrl>#tier1</styleUrl><description><![CDATA[<b>Tier 1</b> | Score: 96<br>Owner: Goodwin Patrica Lane<br>Address: Tody Goodwin Rd, Apex, NC<br>Acreage: 30.3<br>APN: 17944<br><a href="https://landportal.com/?property=Zmlwcz0zNzAzNyZsbF91dWlkPTk1OTQ1NTE0JmFwbj0wMDE3OTQ0">&#128279; View on LandPortal</a>]]></description><Point><coordinates>-78.98645928245078,35.7268149000559,0</coordinates></Point></Placemark>
    <Placemark><name>Dinterman Michael Ray, Dinterman Lois Moser</name><styleUrl>#tier1</styleUrl><description><![CDATA[<b>Tier 1</b> | Score: 96<br>Owner: Dinterman Michael Ray, Dinterman Lois Moser<br>Address: Durham Bailey Ln, Pittsboro, NC<br>Acreage: 21.919<br>APN: 10855<br><a href="https://landportal.com/?property=Zmlwcz0zNzAzNyZsbF91dWlkPTk1OTQ3MDA2JmFwbj0wMDEwODU1">&#128279; View on LandPortal</a>]]></description><Point><coordinates>-79.25280980116534,35.778636331433674,0</coordinates></Point></Placemark>
    <Placemark><name>Kirankumar Venkata Alapaty Revocable Trust, Alapaty</name><styleUrl>#tier1</styleUrl><description><![CDATA[<b>Tier 1</b> | Score: 96<br>Owner: Kirankumar Venkata Alapaty Revocable Trust, Alapaty<br>Address: Bruce Burns Rd, Moncure, NC<br>Acreage: 36.722<br>APN: 7060<br><a href="https://landportal.com/?property=Zmlwcz0zNzAzNyZsbF91dWlkPTk1OTMzOTY1JmFwbj0wMDA3MDYw">&#128279; View on LandPortal</a>]]></description><Point><coordinates>-79.19521020472573,35.67824237405335,0</coordinates></Point></Placemark>
    <Placemark><name>Thomas Ruth Elaine</name><styleUrl>#tier1</styleUrl><description><![CDATA[<b>Tier 1</b> | Score: 96<br>Owner: Thomas Ruth Elaine<br>Address: Bear Creek Church Rd, Bear Creek, NC<br>Acreage: 24.0<br>APN: 9013<br><a href="https://landportal.com/?property=Zmlwcz0zNzAzNyZsbF91dWlkPTk1OTM0MzQ3JmFwbj0wMDA5MDEz">&#128279; View on LandPortal</a>]]></description><Point><coordinates>-79.35997488849281,35.59408726771646,0</coordinates></Point></Placemark>
    <Placemark><name>Smith William D</name><styleUrl>#tier1</styleUrl><description><![CDATA[<b>Tier 1</b> | Score: 96<br>Owner: Smith William D<br>Address: N Carolina Highway 42, Pittsboro, NC<br>Acreage: 19.5<br>APN: 73985<br><a href="https://landportal.com/?property=Zmlwcz0zNzAzNyZsbF91dWlkPTk1OTU3NDY2JmFwbj0wMDczOTg1">&#128279; View on LandPortal</a>]]></description><Point><coordinates>-78.98568063770958,35.57342282299307,0</coordinates></Point></Placemark>
    <Placemark><name>Cowan Phillip R</name><styleUrl>#tier1</styleUrl><description><![CDATA[<b>Tier 1</b> | Score: 96<br>Owner: Cowan Phillip R<br>Address: N Fawn Forest Ln, Pittsboro, NC<br>Acreage: 10.02<br>APN: 68933<br><a href="https://landportal.com/?property=Zmlwcz0zNzAzNyZsbF91dWlkPTk1OTQ0NTYyJmFwbj0wMDY4OTMz">&#128279; View on LandPortal</a>]]></description><Point><coordinates>-79.22870747122151,35.80600667629338,0</coordinates></Point></Placemark>
    <Placemark><name>Mendenhall Aubrey Junius, Mendenhall Margarete Schack</name><styleUrl>#tier1</styleUrl><description><![CDATA[<b>Tier 1</b> | Score: 96<br>Owner: Mendenhall Aubrey Junius, Mendenhall Margarete Schack<br>Address: Old Us 421 N, Siler City, NC<br>Acreage: 23.916<br>APN: 64322<br><a href="https://landportal.com/?property=Zmlwcz0zNzAzNyZsbF91dWlkPTk1OTQxNTcxJmFwbj0wMDY0MzIy">&#128279; View on LandPortal</a>]]></description><Point><coordinates>-79.49946894283036,35.75954167150098,0</coordinates></Point></Placemark>
    <Placemark><name>Gaines Annette Branton Trustee</name><styleUrl>#tier1</styleUrl><description><![CDATA[<b>Tier 1</b> | Score: 96<br>Owner: Gaines Annette Branton Trustee<br>Address: Bear Creek Church Rd, Pittsboro, NC<br>Acreage: 12.983<br>APN: 79139<br><a href="https://landportal.com/?property=Zmlwcz0zNzAzNyZsbF91dWlkPTk1OTY4OTIyJmFwbj0wMDc5MTM5">&#128279; View on LandPortal</a>]]></description><Point><coordinates>-79.33582157820743,35.59778558510227,0</coordinates></Point></Placemark>
    <Placemark><name>Powers Mary Carroll H</name><styleUrl>#tier1</styleUrl><description><![CDATA[<b>Tier 1</b> | Score: 96<br>Owner: Powers Mary Carroll H<br>Address: Silk Hope Liberty Rd, Siler City, NC<br>Acreage: 39.084<br>APN: 1031<br><a href="https://landportal.com/?property=Zmlwcz0zNzAzNyZsbF91dWlkPTk1OTQ2OTI2JmFwbj0wMDAxMDMx">&#128279; View on LandPortal</a>]]></description><Point><coordinates>-79.40937061538577,35.794289594989095,0</coordinates></Point></Placemark>
    <Placemark><name>Womble Theodis</name><styleUrl>#tier1</styleUrl><description><![CDATA[<b>Tier 1</b> | Score: 96<br>Owner: Womble Theodis<br>Address: Goldston Glendon Rd, Goldston, NC<br>Acreage: 13.0<br>APN: 4616<br><a href="https://landportal.com/?property=Zmlwcz0zNzAzNyZsbF91dWlkPTk1OTMzNDUzJmFwbj0wMDA0NjE2">&#128279; View on LandPortal</a>]]></description><Point><coordinates>-79.41615346280267,35.5182782576066,0</coordinates></Point></Placemark>
    <Placemark><name>Stout Jane Carol</name><styleUrl>#tier1</styleUrl><description><![CDATA[<b>Tier 1</b> | Score: 96<br>Owner: Stout Jane Carol<br>Address: Red Terry Rd, Siler City, NC<br>Acreage: 42.188<br>APN: 746<br><a href="https://landportal.com/?property=Zmlwcz0zNzAzNyZsbF91dWlkPTk1OTQ1OTkyJmFwbj0wMDAwNzQ2">&#128279; View on LandPortal</a>]]></description><Point><coordinates>-79.44057128399555,35.819047459371546,0</coordinates></Point></Placemark>
    <Placemark><name>Crabtree Kenneth K</name><styleUrl>#tier1</styleUrl><description><![CDATA[<b>Tier 1</b> | Score: 96<br>Owner: Crabtree Kenneth K<br>Address: Crawford Dairy Rd, Pittsboro, NC<br>Acreage: 11.47<br>APN: 1426<br><a href="https://landportal.com/?property=Zmlwcz0zNzAzNyZsbF91dWlkPTk1OTQ3ODU0JmFwbj0wMDAxNDI2">&#128279; View on LandPortal</a>]]></description><Point><coordinates>-79.1903678318096,35.85280021981272,0</coordinates></Point></Placemark>
    <Placemark><name>Hales Geraldine W Trustee</name><styleUrl>#tier1</styleUrl><description><![CDATA[<b>Tier 1</b> | Score: 96<br>Owner: Hales Geraldine W Trustee<br>Address: Pete Roberson Rd, Pittsboro, NC<br>Acreage: 27.22<br>APN: 18240<br><a href="https://landportal.com/?property=Zmlwcz0zNzAzNyZsbF91dWlkPTk1OTU2NjU0JmFwbj0wMDE4MjQw">&#128279; View on LandPortal</a>]]></description><Point><coordinates>-79.21924027810743,35.65863385440797,0</coordinates></Point></Placemark>
    <Placemark><name>Simpson Anderson Sharon Kay, Kiser Anderson Harry</name><styleUrl>#tier1</styleUrl><description><![CDATA[<b>Tier 1</b> | Score: 96<br>Owner: Simpson Anderson Sharon Kay, Kiser Anderson Harry<br>Address: 22519 Nc Highway 902, Bennett, NC<br>Acreage: 22.52<br>APN: 71853<br><a href="https://landportal.com/?property=Zmlwcz0zNzAzNyZsbF91dWlkPTk1OTY1OTU4JmFwbj0wMDcxODUz">&#128279; View on LandPortal</a>]]></description><Point><coordinates>-79.50361128234371,35.55354581231191,0</coordinates></Point></Placemark>
    <Placemark><name>Sears Family Trust, Sears</name><styleUrl>#tier1</styleUrl><description><![CDATA[<b>Tier 1</b> | Score: 96<br>Owner: Sears Family Trust, Sears<br>Address: Talon Dr, Pittsboro, NC<br>Acreage: 10.263<br>APN: 73624<br><a href="https://landportal.com/?property=Zmlwcz0zNzAzNyZsbF91dWlkPTk1OTQ4MTQzJmFwbj0wMDczNjI0">&#128279; View on LandPortal</a>]]></description><Point><coordinates>-79.1084036694954,35.67887339299665,0</coordinates></Point></Placemark>
    <Placemark><name>Ashworth Cathy Tripp</name><styleUrl>#tier1</styleUrl><description><![CDATA[<b>Tier 1</b> | Score: 96<br>Owner: Ashworth Cathy Tripp<br>Address: 1741 Emerson Cook Rd, Pittsboro, NC<br>Acreage: 27.38<br>APN: 71043<br><a href="https://landportal.com/?property=Zmlwcz0zNzAzNyZsbF91dWlkPTk1OTQ2OTQzJmFwbj0wMDcxMDQz">&#128279; View on LandPortal</a>]]></description><Point><coordinates>-79.2822448679862,35.7951268708552,0</coordinates></Point></Placemark>
    <Placemark><name>Bray Bobby, Bray Dwight D</name><styleUrl>#tier1</styleUrl><description><![CDATA[<b>Tier 1</b> | Score: 96<br>Owner: Bray Bobby, Bray Dwight D<br>Address: Henry Bray Dr, Siler City, NC<br>Acreage: 19.637<br>APN: 12683<br><a href="https://landportal.com/?property=Zmlwcz0zNzAzNyZsbF91dWlkPTk1OTU3NDI0JmFwbj0wMDEyNjgz">&#128279; View on LandPortal</a>]]></description><Point><coordinates>-79.52955300825263,35.66085318168558,0</coordinates></Point></Placemark>
    <Placemark><name>Griffin William B, Griffin Brenda M</name><styleUrl>#tier1</styleUrl><description><![CDATA[<b>Tier 1</b> | Score: 96<br>Owner: Griffin William B, Griffin Brenda M<br>Address: Ralph Griffin Rd, Bear Creek, NC<br>Acreage: 11.25<br>APN: 9963<br><a href="https://landportal.com/?property=Zmlwcz0zNzAzNyZsbF91dWlkPTk1OTU1MjcwJmFwbj0wMDA5OTYz">&#128279; View on LandPortal</a>]]></description><Point><coordinates>-79.29935302074838,35.63608710307847,0</coordinates></Point></Placemark>
    <Placemark><name>Brewer Bert Raymond</name><styleUrl>#tier1</styleUrl><description><![CDATA[<b>Tier 1</b> | Score: 96<br>Owner: Brewer Bert Raymond<br>Address: Fall Creek Church Rd, Bear Creek, NC<br>Acreage: 22.794<br>APN: 75230<br><a href="https://landportal.com/?property=Zmlwcz0zNzAzNyZsbF91dWlkPTk1OTc0Mzc1JmFwbj0wMDc1MjMw">&#128279; View on LandPortal</a>]]></description><Point><coordinates>-79.51401562292631,35.526268821186775,0</coordinates></Point></Placemark>
    <Placemark><name>Allen Keith M</name><styleUrl>#tier1</styleUrl><description><![CDATA[<b>Tier 1</b> | Score: 96<br>Owner: Allen Keith M<br>Address: Bernard Purvis Rd, Chapel Hill, NC<br>Acreage: 23.328<br>APN: 64376<br><a href="https://landportal.com/?property=Zmlwcz0zNzAzNyZsbF91dWlkPTk1OTQxNjQ0JmFwbj0wMDY0Mzc2">&#128279; View on LandPortal</a>]]></description><Point><coordinates>-79.54530419790302,35.53824714194404,0</coordinates></Point></Placemark>
    <Placemark><name>Hunter Carey B</name><styleUrl>#tier1</styleUrl><description><![CDATA[<b>Tier 1</b> | Score: 96<br>Owner: Hunter Carey B<br>Address: 2257 N Pea Ridge Rd, Pittsboro, NC<br>Acreage: 12.987<br>APN: 69450<br><a href="https://landportal.com/?property=Zmlwcz0zNzAzNyZsbF91dWlkPTk1OTUzNDQ3JmFwbj0wMDY5NDUw">&#128279; View on LandPortal</a>]]></description><Point><coordinates>-79.05271513383617,35.64836824279129,0</coordinates></Point></Placemark>
    <Placemark><name>Gordon James E, Kirkland Donna</name><styleUrl>#tier1</styleUrl><description><![CDATA[<b>Tier 1</b> | Score: 96<br>Owner: Gordon James E, Kirkland Donna<br>Address: Mays Chapel Rd, Sanford, NC<br>Acreage: 10.3<br>APN: 18305<br><a href="https://landportal.com/?property=Zmlwcz0zNzAzNyZsbF91dWlkPTk1OTU3MjIwJmFwbj0wMDE4MzA1">&#128279; View on LandPortal</a>]]></description><Point><coordinates>-79.20627909897064,35.616403544228824,0</coordinates></Point></Placemark>
    <Placemark><name>Mitchell Calvin H, Mitchell Linda H</name><styleUrl>#tier1</styleUrl><description><![CDATA[<b>Tier 1</b> | Score: 96<br>Owner: Mitchell Calvin H, Mitchell Linda H<br>Address: Lambert Chapel Rd, Siler City, NC<br>Acreage: 17.25<br>APN: 12692<br><a href="https://landportal.com/?property=Zmlwcz0zNzAzNyZsbF91dWlkPTk1OTU3NDMxJmFwbj0wMDEyNjky">&#128279; View on LandPortal</a>]]></description><Point><coordinates>-79.5455656411377,35.666211464805755,0</coordinates></Point></Placemark>
    <Placemark><name>Thomas Douglas, Oldham Vicky T</name><styleUrl>#tier1</styleUrl><description><![CDATA[<b>Tier 1</b> | Score: 96<br>Owner: Thomas Douglas, Oldham Vicky T<br>Address: Chatham Church Rd, Sanford, NC<br>Acreage: 32.73<br>APN: 60247<br><a href="https://landportal.com/?property=Zmlwcz0zNzAzNyZsbF91dWlkPTk1OTYwOTQxJmFwbj0wMDYwMjQ3">&#128279; View on LandPortal</a>]]></description><Point><coordinates>-79.20663750501197,35.645347306878854,0</coordinates></Point></Placemark>
    <Placemark><name>Clark Douglas J</name><styleUrl>#tier1</styleUrl><description><![CDATA[<b>Tier 1</b> | Score: 96<br>Owner: Clark Douglas J<br>Address: Piney Grove Church Rd, Siler City, NC<br>Acreage: 37.0<br>APN: 60005<br><a href="https://landportal.com/?property=Zmlwcz0zNzAzNyZsbF91dWlkPTk1OTQ3NjIxJmFwbj0wMDYwMDA1">&#128279; View on LandPortal</a>]]></description><Point><coordinates>-79.50483670093034,35.81091874217924,0</coordinates></Point></Placemark>
    <Placemark><name>Langley  John D</name><styleUrl>#tier1</styleUrl><description><![CDATA[<b>Tier 1</b> | Score: 96<br>Owner: Langley  John D<br>Address: 2313 Staley Snow Camp Rd, Siler City, NC<br>Acreage: 35.38<br>APN: 315<br><a href="https://landportal.com/?property=Zmlwcz0zNzAzNyZsbF91dWlkPTk1OTQ1MjMzJmFwbj0wMDAwMzE1">&#128279; View on LandPortal</a>]]></description><Point><coordinates>-79.51131295410381,35.8211821979978,0</coordinates></Point></Placemark>
    <Placemark><name>Barnes Patricia H</name><styleUrl>#tier1</styleUrl><description><![CDATA[<b>Tier 1</b> | Score: 96<br>Owner: Barnes Patricia H<br>Address: Mt Vernon Springs Rd, Pittsboro, NC<br>Acreage: 11.354<br>APN: 79264<br><a href="https://landportal.com/?property=Zmlwcz0zNzAzNyZsbF91dWlkPTk1OTY5MDc2JmFwbj0wMDc5MjY0">&#128279; View on LandPortal</a>]]></description><Point><coordinates>-79.45563042220431,35.652698998101144,0</coordinates></Point></Placemark>
    <Placemark><name>Campos Elizandro Villasenor, Villasenor Elizandro</name><styleUrl>#tier1</styleUrl><description><![CDATA[<b>Tier 1</b> | Score: 96<br>Owner: Campos Elizandro Villasenor, Villasenor Elizandro<br>Address: 34 Coleridge Rd, Siler City, NC<br>Acreage: 13.748<br>APN: 13173<br><a href="https://landportal.com/?property=Zmlwcz0zNzAzNyZsbF91dWlkPTk1OTQxNTQxJmFwbj0wMDEzMTcz">&#128279; View on LandPortal</a>]]></description><Point><coordinates>-79.50207495633764,35.7251343425297,0</coordinates></Point></Placemark>
    <Placemark><name>Burnett Willie M, Hargett Annie Burnette</name><styleUrl>#tier1</styleUrl><description><![CDATA[<b>Tier 1</b> | Score: 96<br>Owner: Burnett Willie M, Hargett Annie Burnette<br>Address: Burnett Cir, Pittsboro, NC<br>Acreage: 10.26<br>APN: 1417<br><a href="https://landportal.com/?property=Zmlwcz0zNzAzNyZsbF91dWlkPTk1OTQ3ODI4JmFwbj0wMDAxNDE3">&#128279; View on LandPortal</a>]]></description><Point><coordinates>-79.17253744162609,35.8554846948796,0</coordinates></Point></Placemark>
    <Placemark><name>Lancaster Leigh-anne Justice, Justice Jeffrey M</name><styleUrl>#tier1</styleUrl><description><![CDATA[<b>Tier 1</b> | Score: 96<br>Owner: Lancaster Leigh-anne Justice, Justice Jeffrey M<br>Address: Center Dr, Siler City, NC<br>Acreage: 11.17<br>APN: 63018<br><a href="https://landportal.com/?property=Zmlwcz0zNzAzNyZsbF91dWlkPTk1OTY0OTE3JmFwbj0wMDYzMDE4">&#128279; View on LandPortal</a>]]></description><Point><coordinates>-79.43990730101703,35.72789914674439,0</coordinates></Point></Placemark>
    <Placemark><name>Tally Timothy, Tally Janelle</name><styleUrl>#tier1</styleUrl><description><![CDATA[<b>Tier 1</b> | Score: 96<br>Owner: Tally Timothy, Tally Janelle<br>Address: N Carolina Highway 42, Pittsboro, NC<br>Acreage: 10.35<br>APN: 63766<br><a href="https://landportal.com/?property=Zmlwcz0zNzAzNyZsbF91dWlkPTk1OTYyNTY2JmFwbj0wMDYzNzY2">&#128279; View on LandPortal</a>]]></description><Point><coordinates>-79.38052015401423,35.53165379854572,0</coordinates></Point></Placemark>
    <Placemark><name>Moss Julie Leonard, Rives Anita Leonard</name><styleUrl>#tier1</styleUrl><description><![CDATA[<b>Tier 1</b> | Score: 96<br>Owner: Moss Julie Leonard, Rives Anita Leonard<br>Address: Glovers Church Rd, Bennett, NC<br>Acreage: 20.82<br>APN: 3541<br><a href="https://landportal.com/?property=Zmlwcz0zNzAzNyZsbF91dWlkPTk1OTM5MjA1JmFwbj0wMDAzNTQx">&#128279; View on LandPortal</a>]]></description><Point><coordinates>-79.54037442279035,35.599367735154985,0</coordinates></Point></Placemark>
    <Placemark><name>Wilson Carolyn E</name><styleUrl>#tier1</styleUrl><description><![CDATA[<b>Tier 1</b> | Score: 96<br>Owner: Wilson Carolyn E<br>Address: White Cross Rd, Pittsboro, NC<br>Acreage: 24.395<br>APN: 1404<br><a href="https://landportal.com/?property=Zmlwcz0zNzAzNyZsbF91dWlkPTk1OTQ3ODA1JmFwbj0wMDAxNDA0">&#128279; View on LandPortal</a>]]></description><Point><coordinates>-79.19357341751673,35.87051920877038,0</coordinates></Point></Placemark>
    <Placemark><name>Sessoms Bonilla Edith, Sessoms Cesar Bonilla</name><styleUrl>#tier1</styleUrl><description><![CDATA[<b>Tier 1</b> | Score: 96<br>Owner: Sessoms Bonilla Edith, Sessoms Cesar Bonilla<br>Address: Oakley Church Rd, Siler City, NC<br>Acreage: 13.677<br>APN: 72874<br><a href="https://landportal.com/?property=Zmlwcz0zNzAzNyZsbF91dWlkPTk1OTY2NTc2JmFwbj0wMDcyODc0">&#128279; View on LandPortal</a>]]></description><Point><coordinates>-79.49449517497635,35.675985624203896,0</coordinates></Point></Placemark>
    <Placemark><name>Bufalini Joseph J, Bufalini Marijon</name><styleUrl>#tier1</styleUrl><description><![CDATA[<b>Tier 1</b> | Score: 96<br>Owner: Bufalini Joseph J, Bufalini Marijon<br>Address: Luther Rd, Apex, NC<br>Acreage: 23.866<br>APN: 18063<br><a href="https://landportal.com/?property=Zmlwcz0zNzAzNyZsbF91dWlkPTk1OTQ2MTY4JmFwbj0wMDE4MDYz">&#128279; View on LandPortal</a>]]></description><Point><coordinates>-78.94990710005081,35.76241542129616,0</coordinates></Point></Placemark>
    <Placemark><name>Atkins Clarke E</name><styleUrl>#tier1</styleUrl><description><![CDATA[<b>Tier 1</b> | Score: 96<br>Owner: Atkins Clarke E<br>Address: Chatham Church Rd, Siler City, NC<br>Acreage: 16.0<br>APN: 70740<br><a href="https://landportal.com/?property=Zmlwcz0zNzAzNyZsbF91dWlkPTk1OTcyNTg2JmFwbj0wMDcwNzQw">&#128279; View on LandPortal</a>]]></description><Point><coordinates>-79.19779153851209,35.627340094682424,0</coordinates></Point></Placemark>
    <Placemark><name>Stith Mark H, Stith Michelle H</name><styleUrl>#tier1</styleUrl><description><![CDATA[<b>Tier 1</b> | Score: 96<br>Owner: Stith Mark H, Stith Michelle H<br>Address: Alton Alston Rd, Siler City, NC<br>Acreage: 10.312<br>APN: 86386<br><a href="https://landportal.com/?property=Zmlwcz0zNzAzNyZsbF91dWlkPTk1OTY4MzM3JmFwbj0wMDg2Mzg2">&#128279; View on LandPortal</a>]]></description><Point><coordinates>-79.2583999785976,35.782159708054785,0</coordinates></Point></Placemark>
    <Placemark><name>Conway Peter J, Conway Alexandra W</name><styleUrl>#tier1</styleUrl><description><![CDATA[<b>Tier 1</b> | Score: 96<br>Owner: Conway Peter J, Conway Alexandra W<br>Address: Henley Rd, Pittsboro, NC<br>Acreage: 33.38<br>APN: 90264<br><a href="https://landportal.com/?property=Zmlwcz0zNzAzNyZsbF91dWlkPTE1NDA1NjI1NiZhcG49MDA5MDI2NA==">&#128279; View on LandPortal</a>]]></description><Point><coordinates>-79.06666667131194,35.81381164236993,0</coordinates></Point></Placemark>
    <Placemark><name>Serrano Family Revocable Trust, Serrano</name><styleUrl>#tier1</styleUrl><description><![CDATA[<b>Tier 1</b> | Score: 96<br>Owner: Serrano Family Revocable Trust, Serrano<br>Address: 4445 Rives Chapel Church Rd, Siler City, NC<br>Acreage: 26.616<br>APN: 80324<br><a href="https://landportal.com/?property=Zmlwcz0zNzAzNyZsbF91dWlkPTk1OTc1NDUyJmFwbj0wMDgwMzI0">&#128279; View on LandPortal</a>]]></description><Point><coordinates>-79.36482393855275,35.67678274290199,0</coordinates></Point></Placemark>
    <Placemark><name>Gunn Rebekah M</name><styleUrl>#tier1</styleUrl><description><![CDATA[<b>Tier 1</b> | Score: 96<br>Owner: Gunn Rebekah M<br>Address: Us 64 E, Apex, NC<br>Acreage: 10.31<br>APN: 72033<br><a href="https://landportal.com/?property=Zmlwcz0zNzAzNyZsbF91dWlkPTk1OTU3MzM3JmFwbj0wMDcyMDMz">&#128279; View on LandPortal</a>]]></description><Point><coordinates>-79.07059790709934,35.737215169223674,0</coordinates></Point></Placemark>
    <Placemark><name>Duncan Daniel Patrick, Duncan Gabriel Thomas</name><styleUrl>#tier1</styleUrl><description><![CDATA[<b>Tier 1</b> | Score: 96<br>Owner: Duncan Daniel Patrick, Duncan Gabriel Thomas<br>Address: Duncan Farm Rd, Siler City, NC<br>Acreage: 18.9<br>APN: 813<br><a href="https://landportal.com/?property=Zmlwcz0zNzAzNyZsbF91dWlkPTk1OTQ2MTU5JmFwbj0wMDAwODEz">&#128279; View on LandPortal</a>]]></description><Point><coordinates>-79.42502299533815,35.78650039636883,0</coordinates></Point></Placemark>
    <Placemark><name>Harward Benjamin Russell, Irrevoc Gwen</name><styleUrl>#tier1</styleUrl><description><![CDATA[<b>Tier 1</b> | Score: 96<br>Owner: Harward Benjamin Russell, Irrevoc Gwen<br>Address: Lydia Perry Rd, Sanford, NC<br>Acreage: 30.163<br>APN: 18121<br><a href="https://landportal.com/?property=Zmlwcz0zNzAzNyZsbF91dWlkPTk1OTQ2MzY1JmFwbj0wMDE4MTIx">&#128279; View on LandPortal</a>]]></description><Point><coordinates>-79.2347514874332,35.595406395691285,0</coordinates></Point></Placemark>
    <Placemark><name>Fitts Helen Faye Phillips Fitts William Rober</name><styleUrl>#tier1</styleUrl><description><![CDATA[<b>Tier 1</b> | Score: 96<br>Owner: Fitts Helen Faye Phillips Fitts William Rober<br>Address: Vander Oldham Rd, Bear Creek, NC<br>Acreage: 49.418<br>APN: 4401<br><a href="https://landportal.com/?property=Zmlwcz0zNzAzNyZsbF91dWlkPTk1OTUxNjIzJmFwbj0wMDA0NDAx">&#128279; View on LandPortal</a>]]></description><Point><coordinates>-79.42291212523853,35.56848707174151,0</coordinates></Point></Placemark>
    <Placemark><name>Beavers Jeffrey S, Beavers Sonya S</name><styleUrl>#tier1</styleUrl><description><![CDATA[<b>Tier 1</b> | Score: 96<br>Owner: Beavers Jeffrey S, Beavers Sonya S<br>Address: Vander Oldham Rd, Bear Creek, NC<br>Acreage: 25.781<br>APN: 4439<br><a href="https://landportal.com/?property=Zmlwcz0zNzAzNyZsbF91dWlkPTk1OTMzMTUwJmFwbj0wMDA0NDM5">&#128279; View on LandPortal</a>]]></description><Point><coordinates>-79.4321790168157,35.56591852456321,0</coordinates></Point></Placemark>
    <Placemark><name>Johnson Johnnie R</name><styleUrl>#tier1</styleUrl><description><![CDATA[<b>Tier 1</b> | Score: 96<br>Owner: Johnson Johnnie R<br>Address: Johnny Lindley Rd, Pittsboro, NC<br>Acreage: 21.5<br>APN: 76748<br><a href="https://landportal.com/?property=Zmlwcz0zNzAzNyZsbF91dWlkPTk1OTUwMDI5JmFwbj0wMDc2NzQ4">&#128279; View on LandPortal</a>]]></description><Point><coordinates>-79.38400408126247,35.81754791037359,0</coordinates></Point></Placemark>
    <Placemark><name>Gunn Rebekah M</name><styleUrl>#tier1</styleUrl><description><![CDATA[<b>Tier 1</b> | Score: 96<br>Owner: Gunn Rebekah M<br>Address: Us 64 E, Apex, NC<br>Acreage: 12.0<br>APN: 72034<br><a href="https://landportal.com/?property=Zmlwcz0zNzAzNyZsbF91dWlkPTk1OTU3MzM5JmFwbj0wMDcyMDM0">&#128279; View on LandPortal</a>]]></description><Point><coordinates>-79.06914746044373,35.73715438918222,0</coordinates></Point></Placemark>
    <Placemark><name>Coble Benny B, Coble Carolyn T</name><styleUrl>#tier1</styleUrl><description><![CDATA[<b>Tier 1</b> | Score: 96<br>Owner: Coble Benny B, Coble Carolyn T<br>Address: Glovers Church Rd, Bear Creek, NC<br>Acreage: 15.154<br>APN: 3605<br><a href="https://landportal.com/?property=Zmlwcz0zNzAzNyZsbF91dWlkPTk1OTMyODY5JmFwbj0wMDAzNjA1">&#128279; View on LandPortal</a>]]></description><Point><coordinates>-79.52908193562735,35.598807753400024,0</coordinates></Point></Placemark>
    <Placemark><name>Perry Will</name><styleUrl>#tier1</styleUrl><description><![CDATA[<b>Tier 1</b> | Score: 96<br>Owner: Perry Will<br>Address: Manns Chapel Rd, Pittsboro, NC<br>Acreage: 10.14<br>APN: 1902<br><a href="https://landportal.com/?property=Zmlwcz0zNzAzNyZsbF91dWlkPTk1OTQ5MDkyJmFwbj0wMDAxOTAy">&#128279; View on LandPortal</a>]]></description><Point><coordinates>-79.14683849694818,35.82376876519205,0</coordinates></Point></Placemark>
    <Placemark><name>Hedrick Robert Family Trust, Hedrick Marital Trust</name><styleUrl>#tier1</styleUrl><description><![CDATA[<b>Tier 1</b> | Score: 96<br>Owner: Hedrick Robert Family Trust, Hedrick Marital Trust<br>Address: Silk Hope Liberty Rd, Pittsboro, NC<br>Acreage: 15.75<br>APN: 66911<br><a href="https://landportal.com/?property=Zmlwcz0zNzAzNyZsbF91dWlkPTk1OTUxMDU4JmFwbj0wMDY2OTEx">&#128279; View on LandPortal</a>]]></description><Point><coordinates>-79.5371981092448,35.840551676310675,0</coordinates></Point></Placemark>
    <Placemark><name>Gaines Ann B</name><styleUrl>#tier1</styleUrl><description><![CDATA[<b>Tier 1</b> | Score: 96<br>Owner: Gaines Ann B<br>Address: Roberts Chapel Rd, Siler City, NC<br>Acreage: 10.42<br>APN: 72872<br><a href="https://landportal.com/?property=Zmlwcz0zNzAzNyZsbF91dWlkPTk1OTY2NTcyJmFwbj0wMDcyODcy">&#128279; View on LandPortal</a>]]></description><Point><coordinates>-79.33947130472029,35.58130402404605,0</coordinates></Point></Placemark>
    <Placemark><name>York Billy Edward, York Linda N</name><styleUrl>#tier1</styleUrl><description><![CDATA[<b>Tier 1</b> | Score: 96<br>Owner: York Billy Edward, York Linda N<br>Address: Piney Grove Church Rd, Pittsboro, NC<br>Acreage: 13.0<br>APN: 78567<br><a href="https://landportal.com/?property=Zmlwcz0zNzAzNyZsbF91dWlkPTk1OTUxNjM1JmFwbj0wMDc4NTY3">&#128279; View on LandPortal</a>]]></description><Point><coordinates>-79.48463421149799,35.79272697026005,0</coordinates></Point></Placemark>
    <Placemark><name>Hancock Charles R</name><styleUrl>#tier1</styleUrl><description><![CDATA[<b>Tier 1</b> | Score: 96<br>Owner: Hancock Charles R<br>Address: S Second Ave, Bear Creek, NC<br>Acreage: 12.825<br>APN: 80779<br><a href="https://landportal.com/?property=Zmlwcz0zNzAzNyZsbF91dWlkPTk1OTYzMTQyJmFwbj0wMDgwNzc5">&#128279; View on LandPortal</a>]]></description><Point><coordinates>-79.44792402456812,35.70360160108349,0</coordinates></Point></Placemark>
    <Placemark><name>Hardy James Warren, Hardy Teresa Gooodwin</name><styleUrl>#tier1</styleUrl><description><![CDATA[<b>Tier 1</b> | Score: 96<br>Owner: Hardy James Warren, Hardy Teresa Gooodwin<br>Address: Tom Stevens Rd, Pittsboro, NC<br>Acreage: 10.3<br>APN: 76177<br><a href="https://landportal.com/?property=Zmlwcz0zNzAzNyZsbF91dWlkPTk1OTYwMDE3JmFwbj0wMDc2MTc3">&#128279; View on LandPortal</a>]]></description><Point><coordinates>-79.4197602443584,35.815262351298294,0</coordinates></Point></Placemark>
    <Placemark><name>Oldham Robert Edwin, Oldham Sandra Nall</name><styleUrl>#tier1</styleUrl><description><![CDATA[<b>Tier 1</b> | Score: 96<br>Owner: Oldham Robert Edwin, Oldham Sandra Nall<br>Address: Henry Oldham Rd, Bear Creek, NC<br>Acreage: 15.98<br>APN: 60959<br><a href="https://landportal.com/?property=Zmlwcz0zNzAzNyZsbF91dWlkPTk1OTYxNzEwJmFwbj0wMDYwOTU5">&#128279; View on LandPortal</a>]]></description><Point><coordinates>-79.27032456061838,35.58907377100372,0</coordinates></Point></Placemark>
    <Placemark><name>Johnson Charlie K</name><styleUrl>#tier1</styleUrl><description><![CDATA[<b>Tier 1</b> | Score: 96<br>Owner: Johnson Charlie K<br>Address: Johnny Lindley Rd, Pittsboro, NC<br>Acreage: 31.5<br>APN: 76749<br><a href="https://landportal.com/?property=Zmlwcz0zNzAzNyZsbF91dWlkPTk1OTUwMDMxJmFwbj0wMDc2NzQ5">&#128279; View on LandPortal</a>]]></description><Point><coordinates>-79.38386555050431,35.820806182381986,0</coordinates></Point></Placemark>
    <Placemark><name>Rice Family Irrevocable Trust, Rice</name><styleUrl>#tier1</styleUrl><description><![CDATA[<b>Tier 1</b> | Score: 96<br>Owner: Rice Family Irrevocable Trust, Rice<br>Address: Mt View Church Rd, Pittsboro, NC<br>Acreage: 21.0<br>APN: 70699<br><a href="https://landportal.com/?property=Zmlwcz0zNzAzNyZsbF91dWlkPTk1OTcyNDcyJmFwbj0wMDcwNjk5">&#128279; View on LandPortal</a>]]></description><Point><coordinates>-79.17183859875622,35.64141516188731,0</coordinates></Point></Placemark>
    <Placemark><name>Crawford Jerry W, Crawford Donna B</name><styleUrl>#tier1</styleUrl><description><![CDATA[<b>Tier 1</b> | Score: 96<br>Owner: Crawford Jerry W, Crawford Donna B<br>Address: Crawford Dairy Rd, Pittsboro, NC<br>Acreage: 32.221<br>APN: 88016<br><a href="https://landportal.com/?property=Zmlwcz0zNzAzNyZsbF91dWlkPTk1OTU1ODk3JmFwbj0wMDg4MDE2">&#128279; View on LandPortal</a>]]></description><Point><coordinates>-79.23353052158845,35.86227292421969,0</coordinates></Point></Placemark>
    <Placemark><name>Dunn Leann Thurman, Dunn Craig Wesley</name><styleUrl>#tier1</styleUrl><description><![CDATA[<b>Tier 1</b> | Score: 96<br>Owner: Dunn Leann Thurman, Dunn Craig Wesley<br>Address: Mclaurin Rd, Siler City, NC<br>Acreage: 37.652<br>APN: 11634<br><a href="https://landportal.com/?property=Zmlwcz0zNzAzNyZsbF91dWlkPTk1OTU2MDU0JmFwbj0wMDExNjM0">&#128279; View on LandPortal</a>]]></description><Point><coordinates>-79.38375002454349,35.65238073196552,0</coordinates></Point></Placemark>
    <Placemark><name>Davis Jerome, Davis Tiffany</name><styleUrl>#tier1</styleUrl><description><![CDATA[<b>Tier 1</b> | Score: 96<br>Owner: Davis Jerome, Davis Tiffany<br>Address: Clarence Phillips Rd, Bennett, NC<br>Acreage: 17.135<br>APN: 3758<br><a href="https://landportal.com/?property=Zmlwcz0zNzAzNyZsbF91dWlkPTk1OTMyOTk5JmFwbj0wMDAzNzU4">&#128279; View on LandPortal</a>]]></description><Point><coordinates>-79.49907544568686,35.521026390828126,0</coordinates></Point></Placemark>
    <Placemark><name>2023 Kester Family Trust, Kester</name><styleUrl>#tier1</styleUrl><description><![CDATA[<b>Tier 1</b> | Score: 96<br>Owner: 2023 Kester Family Trust, Kester<br>Address: Goldston Carbonton Rd, Pittsboro, NC<br>Acreage: 43.058<br>APN: 84843<br><a href="https://landportal.com/?property=Zmlwcz0zNzAzNyZsbF91dWlkPTk1OTc1NTMwJmFwbj0wMDg0ODQz">&#128279; View on LandPortal</a>]]></description><Point><coordinates>-79.32738644784314,35.55449935167591,0</coordinates></Point></Placemark>
    <Placemark><name>Brooks Dianne C</name><styleUrl>#tier1</styleUrl><description><![CDATA[<b>Tier 1</b> | Score: 96<br>Owner: Brooks Dianne C<br>Address: Joe Brown Rd, Siler City, NC<br>Acreage: 13.381<br>APN: 61124<br><a href="https://landportal.com/?property=Zmlwcz0zNzAzNyZsbF91dWlkPTk1OTM5MDg4JmFwbj0wMDYxMTI0">&#128279; View on LandPortal</a>]]></description><Point><coordinates>-79.48285439849988,35.65787172667913,0</coordinates></Point></Placemark>
    <Placemark><name>Olive Joshua E, Olive Olympia</name><styleUrl>#tier1</styleUrl><description><![CDATA[<b>Tier 1</b> | Score: 96<br>Owner: Olive Joshua E, Olive Olympia<br>Address: Buteo Rdg, Pittsboro, NC<br>Acreage: 10.733<br>APN: 80853<br><a href="https://landportal.com/?property=Zmlwcz0zNzAzNyZsbF91dWlkPTk1OTYzMzc4JmFwbj0wMDgwODUz">&#128279; View on LandPortal</a>]]></description><Point><coordinates>-79.10512047635135,35.755161942433254,0</coordinates></Point></Placemark>
    <Placemark><name>Raymond Wilfred E</name><styleUrl>#tier1</styleUrl><description><![CDATA[<b>Tier 1</b> | Score: 96<br>Owner: Raymond Wilfred E<br>Address: Hatley Rd, Siler City, NC<br>Acreage: 10.02<br>APN: 72103<br><a href="https://landportal.com/?property=Zmlwcz0zNzAzNyZsbF91dWlkPTk1OTU3Nzc3JmFwbj0wMDcyMTAz">&#128279; View on LandPortal</a>]]></description><Point><coordinates>-79.06653938774062,35.75617609707655,0</coordinates></Point></Placemark>
    <Placemark><name>Alston Henry C</name><styleUrl>#tier1</styleUrl><description><![CDATA[<b>Tier 1</b> | Score: 96<br>Owner: Alston Henry C<br>Address: Harold Andrews Rd, Siler City, NC<br>Acreage: 40.86<br>APN: 13797<br><a href="https://landportal.com/?property=Zmlwcz0zNzAzNyZsbF91dWlkPTk1OTM2MTQ5JmFwbj0wMDEzNzk3">&#128279; View on LandPortal</a>]]></description><Point><coordinates>-79.45744663503521,35.745593680664555,0</coordinates></Point></Placemark>
    <Placemark><name>Teague Bobby B, Teague Patricia D</name><styleUrl>#tier1</styleUrl><description><![CDATA[<b>Tier 1</b> | Score: 96<br>Owner: Teague Bobby B, Teague Patricia D<br>Address: Silk Hope Liberty Rd, Siler City, NC<br>Acreage: 13.794<br>APN: 519<br><a href="https://landportal.com/?property=Zmlwcz0zNzAzNyZsbF91dWlkPTk1OTQ1NDY1JmFwbj0wMDAwNTE5">&#128279; View on LandPortal</a>]]></description><Point><coordinates>-79.45230180108732,35.8155856082777,0</coordinates></Point></Placemark>
    <Placemark><name>Tyner Everette Earl</name><styleUrl>#tier1</styleUrl><description><![CDATA[<b>Tier 1</b> | Score: 96<br>Owner: Tyner Everette Earl<br>Address: N Carolina Highway 902, Bennett, NC<br>Acreage: 33.39<br>APN: 3446<br><a href="https://landportal.com/?property=Zmlwcz0zNzAzNyZsbF91dWlkPTk1OTM4NjIzJmFwbj0wMDAzNDQ2">&#128279; View on LandPortal</a>]]></description><Point><coordinates>-79.52406522220991,35.55176627950291,0</coordinates></Point></Placemark>
    <Placemark><name>Ward William Paul, Ward Tracie B</name><styleUrl>#tier1</styleUrl><description><![CDATA[<b>Tier 1</b> | Score: 96<br>Owner: Ward William Paul, Ward Tracie B<br>Address: Moons Chapel Rd, Pittsboro, NC<br>Acreage: 13.76<br>APN: 83213<br><a href="https://landportal.com/?property=Zmlwcz0zNzAzNyZsbF91dWlkPTk1OTQyMTgzJmFwbj0wMDgzMjEz">&#128279; View on LandPortal</a>]]></description><Point><coordinates>-79.54510571842172,35.73101462575873,0</coordinates></Point></Placemark>
    <Placemark><name>Smith Walter Jack, Smith Janie Trogdon</name><styleUrl>#tier1</styleUrl><description><![CDATA[<b>Tier 1</b> | Score: 96<br>Owner: Smith Walter Jack, Smith Janie Trogdon<br>Address: Cooper Rd, Siler City, NC<br>Acreage: 28.22<br>APN: 89584<br><a href="https://landportal.com/?property=Zmlwcz0zNzAzNyZsbF91dWlkPTk1OTY5OTI5JmFwbj0wMDg5NTg0">&#128279; View on LandPortal</a>]]></description><Point><coordinates>-79.54171520415284,35.819318123318126,0</coordinates></Point></Placemark>
    <Placemark><name>Vaughn Tommy B</name><styleUrl>#tier1</styleUrl><description><![CDATA[<b>Tier 1</b> | Score: 96<br>Owner: Vaughn Tommy B<br>Address: Nc Hwy 42, Moncure, NC<br>Acreage: 10.89<br>APN: 5193<br><a href="https://landportal.com/?property=Zmlwcz0zNzAzNyZsbF91dWlkPTk1OTUyMzg2JmFwbj0wMDA1MTkz">&#128279; View on LandPortal</a>]]></description><Point><coordinates>-79.018533574094,35.55155694783198,0</coordinates></Point></Placemark>
    <Placemark><name>Atkins Betty Ann C</name><styleUrl>#tier1</styleUrl><description><![CDATA[<b>Tier 1</b> | Score: 96<br>Owner: Atkins Betty Ann C<br>Address: Hogan Farm Rd, Apex, NC<br>Acreage: 26.43<br>APN: 60469<br><a href="https://landportal.com/?property=Zmlwcz0zNzAzNyZsbF91dWlkPTk1OTYxMjQxJmFwbj0wMDYwNDY5">&#128279; View on LandPortal</a>]]></description><Point><coordinates>-78.98592661806337,35.781668311757734,0</coordinates></Point></Placemark>
    <Placemark><name>Little Lunell D, Little Arey C</name><styleUrl>#tier1</styleUrl><description><![CDATA[<b>Tier 1</b> | Score: 96<br>Owner: Little Lunell D, Little Arey C<br>Address: Ellis Rd, Moncure, NC<br>Acreage: 13.5<br>APN: 5425<br><a href="https://landportal.com/?property=Zmlwcz0zNzAzNyZsbF91dWlkPTk1OTM1MzU4JmFwbj0wMDA1NDI1">&#128279; View on LandPortal</a>]]></description><Point><coordinates>-78.99625654187261,35.56789703342544,0</coordinates></Point></Placemark>
    <Placemark><name>Reitzel Patricia, Brown Mildred T</name><styleUrl>#tier1</styleUrl><description><![CDATA[<b>Tier 1</b> | Score: 96<br>Owner: Reitzel Patricia, Brown Mildred T<br>Address: Pete Roberson Rd, Pittsboro, NC<br>Acreage: 33.5<br>APN: 6398<br><a href="https://landportal.com/?property=Zmlwcz0zNzAzNyZsbF91dWlkPTk1OTMzNjE4JmFwbj0wMDA2Mzk4">&#128279; View on LandPortal</a>]]></description><Point><coordinates>-79.21833776186283,35.663606755096005,0</coordinates></Point></Placemark>
    <Placemark><name>Kendall Jonathan L, Kendall Tina S</name><styleUrl>#tier1</styleUrl><description><![CDATA[<b>Tier 1</b> | Score: 96<br>Owner: Kendall Jonathan L, Kendall Tina S<br>Address: Hamlets Chapel Rd, Pittsboro, NC<br>Acreage: 18.002<br>APN: 1794<br><a href="https://landportal.com/?property=Zmlwcz0zNzAzNyZsbF91dWlkPTk1OTQ4ODM1JmFwbj0wMDAxNzk0">&#128279; View on LandPortal</a>]]></description><Point><coordinates>-79.14667994765753,35.79898316305145,0</coordinates></Point></Placemark>
    <Placemark><name>Hunter William Tyson</name><styleUrl>#tier1</styleUrl><description><![CDATA[<b>Tier 1</b> | Score: 96<br>Owner: Hunter William Tyson<br>Address: 4686 Manns Chapel Rd, Chapel Hill, NC<br>Acreage: 15.19<br>APN: 2692<br><a href="https://landportal.com/?property=Zmlwcz0zNzAzNyZsbF91dWlkPTk1OTMzNzYxJmFwbj0wMDAyNjky">&#128279; View on LandPortal</a>]]></description><Point><coordinates>-79.0999295298219,35.84358110577422,0</coordinates></Point></Placemark>
    <Placemark><name>Reynolds Avent Ann, Reynolds John John</name><styleUrl>#tier1</styleUrl><description><![CDATA[<b>Tier 1</b> | Score: 96<br>Owner: Reynolds Avent Ann, Reynolds John John<br>Address: New Elam Church Rd, Pittsboro, NC<br>Acreage: 24.8<br>APN: 71763<br><a href="https://landportal.com/?property=Zmlwcz0zNzAzNyZsbF91dWlkPTk1OTY1ODI1JmFwbj0wMDcxNzYz">&#128279; View on LandPortal</a>]]></description><Point><coordinates>-79.01509020511465,35.64277957707732,0</coordinates></Point></Placemark>
    <Placemark><name>Dezern John</name><styleUrl>#tier1</styleUrl><description><![CDATA[<b>Tier 1</b> | Score: 96<br>Owner: Dezern John<br>Address: Mt View Church Rd, Moncure, NC<br>Acreage: 16.56<br>APN: 11013<br><a href="https://landportal.com/?property=Zmlwcz0zNzAzNyZsbF91dWlkPTk1OTQ3OTMzJmFwbj0wMDExMDEz">&#128279; View on LandPortal</a>]]></description><Point><coordinates>-79.15391658705546,35.651896337382524,0</coordinates></Point></Placemark>
    <Placemark><name>Grimes John Thomas, Grimes Alysia H</name><styleUrl>#tier1</styleUrl><description><![CDATA[<b>Tier 1</b> | Score: 96<br>Owner: Grimes John Thomas, Grimes Alysia H<br>Address: Mt Vernon Springs Rd, Siler City, NC<br>Acreage: 31.93<br>APN: 14777<br><a href="https://landportal.com/?property=Zmlwcz0zNzAzNyZsbF91dWlkPTk1OTU4MDIxJmFwbj0wMDE0Nzc3">&#128279; View on LandPortal</a>]]></description><Point><coordinates>-79.42983312534895,35.66883647765353,0</coordinates></Point></Placemark>
    <Placemark><name>Crosby Rawland P, Crosby Florilia L</name><styleUrl>#tier1</styleUrl><description><![CDATA[<b>Tier 1</b> | Score: 96<br>Owner: Crosby Rawland P, Crosby Florilia L<br>Address: Mt View Church Rd, Moncure, NC<br>Acreage: 10.908<br>APN: 11012<br><a href="https://landportal.com/?property=Zmlwcz0zNzAzNyZsbF91dWlkPTk1OTQ3OTMwJmFwbj0wMDExMDEy">&#128279; View on LandPortal</a>]]></description><Point><coordinates>-79.15640116418746,35.64798246601734,0</coordinates></Point></Placemark>
    <Placemark><name>Adams William E</name><styleUrl>#tier1</styleUrl><description><![CDATA[<b>Tier 1</b> | Score: 96<br>Owner: Adams William E<br>Address: Old Us # 1, New Hill, NC<br>Acreage: 40.57<br>APN: 5687<br><a href="https://landportal.com/?property=Zmlwcz0zNzAzNyZsbF91dWlkPTk1OTM2MTM4JmFwbj0wMDA1Njg3">&#128279; View on LandPortal</a>]]></description><Point><coordinates>-79.00480010556258,35.656279461671886,0</coordinates></Point></Placemark>
    <Placemark><name>Bontemps Living Trust, Bontemps</name><styleUrl>#tier1</styleUrl><description><![CDATA[<b>Tier 1</b> | Score: 96<br>Owner: Bontemps Living Trust, Bontemps<br>Address: 554 Bannockburn Way, Siler City, NC<br>Acreage: 12.47<br>APN: 85776<br><a href="https://landportal.com/?property=Zmlwcz0zNzAzNyZsbF91dWlkPTk1OTU0Mzg5JmFwbj0wMDg1Nzc2">&#128279; View on LandPortal</a>]]></description><Point><coordinates>-79.30661584414923,35.80237329166134,0</coordinates></Point></Placemark>
    <Placemark><name>Daprix Chanel Hart</name><styleUrl>#tier1</styleUrl><description><![CDATA[<b>Tier 1</b> | Score: 96<br>Owner: Daprix Chanel Hart<br>Address: 626 Revmont Dr, Pittsboro, NC<br>Acreage: 10.02<br>APN: 78556<br><a href="https://landportal.com/?property=Zmlwcz0zNzAzNyZsbF91dWlkPTk1OTUxNjE4JmFwbj0wMDc4NTU2">&#128279; View on LandPortal</a>]]></description><Point><coordinates>-79.19677157419056,35.781021444951605,0</coordinates></Point></Placemark>
    <Placemark><name>Nguyen Vincent H, Taylor Angela S</name><styleUrl>#tier1</styleUrl><description><![CDATA[<b>Tier 1</b> | Score: 96<br>Owner: Nguyen Vincent H, Taylor Angela S<br>Address: 49 Cannon Rd, Pittsboro, NC<br>Acreage: 10.107<br>APN: 87509<br><a href="https://landportal.com/?property=Zmlwcz0zNzAzNyZsbF91dWlkPTk1OTY2ODE4JmFwbj0wMDg3NTA5">&#128279; View on LandPortal</a>]]></description><Point><coordinates>-78.98054109798264,35.731508187571066,0</coordinates></Point></Placemark>
    <Placemark><name>Towle Neil, Towle Alison</name><styleUrl>#tier1</styleUrl><description><![CDATA[<b>Tier 1</b> | Score: 96<br>Owner: Towle Neil, Towle Alison<br>Address: Emerson Cook Rd, Pittsboro, NC<br>Acreage: 16.07<br>APN: 71870<br><a href="https://landportal.com/?property=Zmlwcz0zNzAzNyZsbF91dWlkPTk1OTY1OTg2JmFwbj0wMDcxODcw">&#128279; View on LandPortal</a>]]></description><Point><coordinates>-79.28451592865528,35.80296387014562,0</coordinates></Point></Placemark>
    <Placemark><name>Lobisser Carol A, Bloodgood James</name><styleUrl>#tier1</styleUrl><description><![CDATA[<b>Tier 1</b> | Score: 96<br>Owner: Lobisser Carol A, Bloodgood James<br>Address: 934 Mark Willett Rd, Bear Creek, NC<br>Acreage: 21.34<br>APN: 8961<br><a href="https://landportal.com/?property=Zmlwcz0zNzAzNyZsbF91dWlkPTk1OTM0MjQyJmFwbj0wMDA4OTYx">&#128279; View on LandPortal</a>]]></description><Point><coordinates>-79.34485575475071,35.63024755540424,0</coordinates></Point></Placemark>
    <Placemark><name>Murchison Lucy Ann</name><styleUrl>#tier1</styleUrl><description><![CDATA[<b>Tier 1</b> | Score: 96<br>Owner: Murchison Lucy Ann<br>Address: Bear Creek Church Rd, Bear Creek, NC<br>Acreage: 38.1<br>APN: 9453<br><a href="https://landportal.com/?property=Zmlwcz0zNzAzNyZsbF91dWlkPTk1OTM1MjQ1JmFwbj0wMDA5NDUz">&#128279; View on LandPortal</a>]]></description><Point><coordinates>-79.34381620679096,35.600937079171466,0</coordinates></Point></Placemark>
    <Placemark><name>Metcalf-beam Family Irrevocable Real Estate T</name><styleUrl>#tier1</styleUrl><description><![CDATA[<b>Tier 1</b> | Score: 96<br>Owner: Metcalf-beam Family Irrevocable Real Estate T<br>Address: Nc 87 N, Siler City, NC<br>Acreage: 19.527<br>APN: 65078<br><a href="https://landportal.com/?property=Zmlwcz0zNzAzNyZsbF91dWlkPTk1OTQ5NzI2JmFwbj0wMDY1MDc4">&#128279; View on LandPortal</a>]]></description><Point><coordinates>-79.2623679810838,35.82135728140341,0</coordinates></Point></Placemark>
    <Placemark><name>Moody Douglas E</name><styleUrl>#tier1</styleUrl><description><![CDATA[<b>Tier 1</b> | Score: 96<br>Owner: Moody Douglas E<br>Address: Old Us 421 S, Siler City, NC<br>Acreage: 19.92<br>APN: 14939<br><a href="https://landportal.com/?property=Zmlwcz0zNzAzNyZsbF91dWlkPTk1OTU4Mzg4JmFwbj0wMDE0OTM5">&#128279; View on LandPortal</a>]]></description><Point><coordinates>-79.42748767929044,35.67280317388917,0</coordinates></Point></Placemark>
    <Placemark><name>Haulsey Annette W</name><styleUrl>#tier1</styleUrl><description><![CDATA[<b>Tier 1</b> | Score: 96<br>Owner: Haulsey Annette W<br>Address: Baker Rd, Goldston, NC<br>Acreage: 13.4<br>APN: 9757<br><a href="https://landportal.com/?property=Zmlwcz0zNzAzNyZsbF91dWlkPTk1OTM1OTA0JmFwbj0wMDA5NzU3">&#128279; View on LandPortal</a>]]></description><Point><coordinates>-79.2897920076611,35.57108686503129,0</coordinates></Point></Placemark>
    <Placemark><name>Watts David A</name><styleUrl>#tier1</styleUrl><description><![CDATA[<b>Tier 1</b> | Score: 96<br>Owner: Watts David A<br>Address: Us 421 S, Bear Creek, NC<br>Acreage: 14.688<br>APN: 72761<br><a href="https://landportal.com/?property=Zmlwcz0zNzAzNyZsbF91dWlkPTk1OTY2MzUwJmFwbj0wMDcyNzYx">&#128279; View on LandPortal</a>]]></description><Point><coordinates>-79.28935498508717,35.55830257176004,0</coordinates></Point></Placemark>
    <Placemark><name>Coe  Melisssa F</name><styleUrl>#tier1</styleUrl><description><![CDATA[<b>Tier 1</b> | Score: 96<br>Owner: Coe  Melisssa F<br>Address: Terapin Slide Rd, Staley, NC<br>Acreage: 40.0<br>APN: 176<br><a href="https://landportal.com/?property=Zmlwcz0zNzAzNyZsbF91dWlkPTk1OTQ1MTE1JmFwbj0wMDAwMTc2">&#128279; View on LandPortal</a>]]></description><Point><coordinates>-79.52966861119332,35.803352416119196,0</coordinates></Point></Placemark>
    <Placemark><name>Camp James E</name><styleUrl>#tier1</styleUrl><description><![CDATA[<b>Tier 1</b> | Score: 96<br>Owner: Camp James E<br>Address: River Forks Rd, Sanford, NC<br>Acreage: 42.1<br>APN: 18567<br><a href="https://landportal.com/?property=Zmlwcz0zNzAzNyZsbF91dWlkPTk1OTU5MjkwJmFwbj0wMDE4NTY3">&#128279; View on LandPortal</a>]]></description><Point><coordinates>-79.16492329689966,35.61782202558618,0</coordinates></Point></Placemark>
    <Placemark><name>Herring Hilton</name><styleUrl>#tier1</styleUrl><description><![CDATA[<b>Tier 1</b> | Score: 96<br>Owner: Herring Hilton<br>Address: 770 Marshall Rd, Pittsboro, NC<br>Acreage: 10.69<br>APN: 60081<br><a href="https://landportal.com/?property=Zmlwcz0zNzAzNyZsbF91dWlkPTk1OTQ3OTk2JmFwbj0wMDYwMDgx">&#128279; View on LandPortal</a>]]></description><Point><coordinates>-79.23268971469719,35.81318273325783,0</coordinates></Point></Placemark>
    <Placemark><name>Clayton Michael Lynn, Clayton Bethany Crabtree</name><styleUrl>#tier1</styleUrl><description><![CDATA[<b>Tier 1</b> | Score: 96<br>Owner: Clayton Michael Lynn, Clayton Bethany Crabtree<br>Address: Us 421 S, Pittsboro, NC<br>Acreage: 15.092<br>APN: 65437<br><a href="https://landportal.com/?property=Zmlwcz0zNzAzNyZsbF91dWlkPTk1OTYzMTU5JmFwbj0wMDY1NDM3">&#128279; View on LandPortal</a>]]></description><Point><coordinates>-79.32605250877926,35.60704201253337,0</coordinates></Point></Placemark>
    <Placemark><name>Goldston Agnes Bailey</name><styleUrl>#tier1</styleUrl><description><![CDATA[<b>Tier 1</b> | Score: 96<br>Owner: Goldston Agnes Bailey<br>Address: Gum Springs Church Rd, Pittsboro, NC<br>Acreage: 30.0<br>APN: 90450<br><a href="https://landportal.com/?property=Zmlwcz0zNzAzNyZsbF91dWlkPTE1NTkzMTIyOSZhcG49MDA5MDQ1MA==">&#128279; View on LandPortal</a>]]></description><Point><coordinates>-79.10684202146872,35.650224594367245,0</coordinates></Point></Placemark>
    <Placemark><name>Austin Patsy Carol</name><styleUrl>#tier1</styleUrl><description><![CDATA[<b>Tier 1</b> | Score: 96<br>Owner: Austin Patsy Carol<br>Address: Airport Rd, Siler City, NC<br>Acreage: 16.199<br>APN: 13370<br><a href="https://landportal.com/?property=Zmlwcz0zNzAzNyZsbF91dWlkPTk1OTQ5MTY4JmFwbj0wMDEzMzcw">&#128279; View on LandPortal</a>]]></description><Point><coordinates>-79.51651382927739,35.667891314340274,0</coordinates></Point></Placemark>
    <Placemark><name>Briggs Council Alan, Briggs Helen Council</name><styleUrl>#tier1</styleUrl><description><![CDATA[<b>Tier 1</b> | Score: 96<br>Owner: Briggs Council Alan, Briggs Helen Council<br>Address: Hortons Pond Rd, Apex, NC<br>Acreage: 24.58<br>APN: 64267<br><a href="https://landportal.com/?property=Zmlwcz0zNzAzNyZsbF91dWlkPTk1OTQxMjYzJmFwbj0wMDY0MjY3">&#128279; View on LandPortal</a>]]></description><Point><coordinates>-78.9756391809569,35.76627159299326,0</coordinates></Point></Placemark>
    <Placemark><name>Johnson  Faydeene R</name><styleUrl>#tier1</styleUrl><description><![CDATA[<b>Tier 1</b> | Score: 96<br>Owner: Johnson  Faydeene R<br>Address: N Richardson Rd, Siler City, NC<br>Acreage: 16.0<br>APN: 14427<br><a href="https://landportal.com/?property=Zmlwcz0zNzAzNyZsbF91dWlkPTk1OTM4MjM2JmFwbj0wMDE0NDI3">&#128279; View on LandPortal</a>]]></description><Point><coordinates>-79.44618093108004,35.745291201085024,0</coordinates></Point></Placemark>
    <Placemark><name>Moore-thomas Janice W</name><styleUrl>#tier1</styleUrl><description><![CDATA[<b>Tier 1</b> | Score: 96<br>Owner: Moore-thomas Janice W<br>Address: Henry Oldham Rd, Bear Creek, NC<br>Acreage: 16.544<br>APN: 60928<br><a href="https://landportal.com/?property=Zmlwcz0zNzAzNyZsbF91dWlkPTk1OTYxNDcwJmFwbj0wMDYwOTI4">&#128279; View on LandPortal</a>]]></description><Point><coordinates>-79.27557473965447,35.59106966558828,0</coordinates></Point></Placemark>
    <Placemark><name>Wilson Ruth</name><styleUrl>#tier1</styleUrl><description><![CDATA[<b>Tier 1</b> | Score: 96<br>Owner: Wilson Ruth<br>Address: Wilson Rd, Apex, NC<br>Acreage: 14.31<br>APN: 19905<br><a href="https://landportal.com/?property=Zmlwcz0zNzAzNyZsbF91dWlkPTk1OTYwNzI3JmFwbj0wMDE5OTA1">&#128279; View on LandPortal</a>]]></description><Point><coordinates>-78.95457223221665,35.81561641191287,0</coordinates></Point></Placemark>
    <Placemark><name>Moore Keith, Moore Miranda</name><styleUrl>#tier1</styleUrl><description><![CDATA[<b>Tier 1</b> | Score: 96<br>Owner: Moore Keith, Moore Miranda<br>Address: Jessie Bridges Rd, Pittsboro, NC<br>Acreage: 12.116<br>APN: 71456<br><a href="https://landportal.com/?property=Zmlwcz0zNzAzNyZsbF91dWlkPTk1OTU2MTY4JmFwbj0wMDcxNDU2">&#128279; View on LandPortal</a>]]></description><Point><coordinates>-79.41867965790809,35.772810334220985,0</coordinates></Point></Placemark>
    <Placemark><name>Collier Martha Lee, Betton Adriano</name><styleUrl>#tier1</styleUrl><description><![CDATA[<b>Tier 1</b> | Score: 96<br>Owner: Collier Martha Lee, Betton Adriano<br>Address: Medina Ln, Chapel Hill, NC<br>Acreage: 15.36<br>APN: 75449<br><a href="https://landportal.com/?property=Zmlwcz0zNzAzNyZsbF91dWlkPTk1OTc0NjQyJmFwbj0wMDc1NDQ5">&#128279; View on LandPortal</a>]]></description><Point><coordinates>-79.20980191643712,35.8386610066554,0</coordinates></Point></Placemark>
    <Placemark><name>Cox Gerald F, Cox Amy Denise</name><styleUrl>#tier1</styleUrl><description><![CDATA[<b>Tier 1</b> | Score: 96<br>Owner: Cox Gerald F, Cox Amy Denise<br>Address: Everett Dowdy Rd, Moncure, NC<br>Acreage: 10.089<br>APN: 67251<br><a href="https://landportal.com/?property=Zmlwcz0zNzAzNyZsbF91dWlkPTk1OTYzNDc1JmFwbj0wMDY3MjUx">&#128279; View on LandPortal</a>]]></description><Point><coordinates>-79.23892363943565,35.57111069337982,0</coordinates></Point></Placemark>
    <Placemark><name>Metcalf-beam Family Irrevocable Real Estate T</name><styleUrl>#tier1</styleUrl><description><![CDATA[<b>Tier 1</b> | Score: 96<br>Owner: Metcalf-beam Family Irrevocable Real Estate T<br>Address: Pete Thomas Rd, Siler City, NC<br>Acreage: 14.98<br>APN: 75816<br><a href="https://landportal.com/?property=Zmlwcz0zNzAzNyZsbF91dWlkPTk1OTY3ODc4JmFwbj0wMDc1ODE2">&#128279; View on LandPortal</a>]]></description><Point><coordinates>-79.27278747719718,35.842130344712004,0</coordinates></Point></Placemark>
    <Placemark><name>Perry Heirs Fannie</name><styleUrl>#tier1</styleUrl><description><![CDATA[<b>Tier 1</b> | Score: 96<br>Owner: Perry Heirs Fannie<br>Address: Saralyn Rd, Pittsboro, NC<br>Acreage: 28.59<br>APN: 6521<br><a href="https://landportal.com/?property=Zmlwcz0zNzAzNyZsbF91dWlkPTk1OTMzODYyJmFwbj0wMDA2NTIx">&#128279; View on LandPortal</a>]]></description><Point><coordinates>-79.18122144067827,35.7792584654307,0</coordinates></Point></Placemark>
    <Placemark><name>Wasserman Powers Cheryl</name><styleUrl>#tier1</styleUrl><description><![CDATA[<b>Tier 1</b> | Score: 96<br>Owner: Wasserman Powers Cheryl<br>Address: Ed Clapp Rd, Snow Camp, NC<br>Acreage: 26.0<br>APN: 60052<br><a href="https://landportal.com/?property=Zmlwcz0zNzAzNyZsbF91dWlkPTk1OTQ3ODk1JmFwbj0wMDYwMDUy">&#128279; View on LandPortal</a>]]></description><Point><coordinates>-79.47356040815134,35.78193264223866,0</coordinates></Point></Placemark>
    <Placemark><name>Equity Trust Cust</name><styleUrl>#tier1</styleUrl><description><![CDATA[<b>Tier 1</b> | Score: 96<br>Owner: Equity Trust Cust<br>Address: Moncure Pittsboro Rd, Moncure, NC<br>Acreage: 29.0<br>APN: 11171<br><a href="https://landportal.com/?property=Zmlwcz0zNzAzNyZsbF91dWlkPTk1OTM1MTg3JmFwbj0wMDExMTcx">&#128279; View on LandPortal</a>]]></description><Point><coordinates>-79.1059237196105,35.65216490431434,0</coordinates></Point></Placemark>
    <Placemark><name>Johnson Shirley E</name><styleUrl>#tier1</styleUrl><description><![CDATA[<b>Tier 1</b> | Score: 96<br>Owner: Johnson Shirley E<br>Address: Walter Bright Rd, Sanford, NC<br>Acreage: 21.5<br>APN: 18419<br><a href="https://landportal.com/?property=Zmlwcz0zNzAzNyZsbF91dWlkPTk1OTU4MjE4JmFwbj0wMDE4NDE5">&#128279; View on LandPortal</a>]]></description><Point><coordinates>-79.19608400586631,35.587473557157615,0</coordinates></Point></Placemark>
    <Placemark><name>Ellis James Douglas</name><styleUrl>#tier1</styleUrl><description><![CDATA[<b>Tier 1</b> | Score: 96<br>Owner: Ellis James Douglas<br>Address: Barker Rd, Pittsboro, NC<br>Acreage: 12.68<br>APN: 66100<br><a href="https://landportal.com/?property=Zmlwcz0zNzAzNyZsbF91dWlkPTk1OTY2NDg3JmFwbj0wMDY2MTAw">&#128279; View on LandPortal</a>]]></description><Point><coordinates>-79.3751951132458,35.635920678976056,0</coordinates></Point></Placemark>
    <Placemark><name>Stout Martha Teague</name><styleUrl>#tier1</styleUrl><description><![CDATA[<b>Tier 1</b> | Score: 96<br>Owner: Stout Martha Teague<br>Address: Ernest Teague Rd, Siler City, NC<br>Acreage: 33.07<br>APN: 464<br><a href="https://landportal.com/?property=Zmlwcz0zNzAzNyZsbF91dWlkPTk1OTQ1MzUyJmFwbj0wMDAwNDY0">&#128279; View on LandPortal</a>]]></description><Point><coordinates>-79.47612190408204,35.84011985403667,0</coordinates></Point></Placemark>
    <Placemark><name>Buchanan Phyllis Tilley</name><styleUrl>#tier1</styleUrl><description><![CDATA[<b>Tier 1</b> | Score: 96<br>Owner: Buchanan Phyllis Tilley<br>Address: 2361 Corinth Rd, Moncure, NC<br>Acreage: 46.8<br>APN: 5751<br><a href="https://landportal.com/?property=Zmlwcz0zNzAzNyZsbF91dWlkPTk1OTM2MzcyJmFwbj0wMDA1NzUx">&#128279; View on LandPortal</a>]]></description><Point><coordinates>-79.03044653828061,35.59349470289955,0</coordinates></Point></Placemark>
    <Placemark><name>Willis Robert J, Norman Rebecca L</name><styleUrl>#tier1</styleUrl><description><![CDATA[<b>Tier 1</b> | Score: 96<br>Owner: Willis Robert J, Norman Rebecca L<br>Address: Deercorn Path, Pittsboro, NC<br>Acreage: 11.153<br>APN: 78298<br><a href="https://landportal.com/?property=Zmlwcz0zNzAzNyZsbF91dWlkPTk1OTUwNjIxJmFwbj0wMDc4Mjk4">&#128279; View on LandPortal</a>]]></description><Point><coordinates>-79.1447187878849,35.62423052729649,0</coordinates></Point></Placemark>
    <Placemark><name>Neal David Michael, Neal Joan P</name><styleUrl>#tier1</styleUrl><description><![CDATA[<b>Tier 1</b> | Score: 96<br>Owner: Neal David Michael, Neal Joan P<br>Address: N Carolina Highway 42, Pittsboro, NC<br>Acreage: 10.3<br>APN: 71451<br><a href="https://landportal.com/?property=Zmlwcz0zNzAzNyZsbF91dWlkPTk1OTU2MTYxJmFwbj0wMDcxNDUx">&#128279; View on LandPortal</a>]]></description><Point><coordinates>-79.4529527637606,35.52353700392685,0</coordinates></Point></Placemark>
    <Placemark><name>Phillips Roland M</name><styleUrl>#tier1</styleUrl><description><![CDATA[<b>Tier 1</b> | Score: 96<br>Owner: Phillips Roland M<br>Address: Winfred Brady Rd, Bennett, NC<br>Acreage: 14.6<br>APN: 3787<br><a href="https://landportal.com/?property=Zmlwcz0zNzAzNyZsbF91dWlkPTk1OTMzMDIzJmFwbj0wMDAzNzg3">&#128279; View on LandPortal</a>]]></description><Point><coordinates>-79.49069632698506,35.53571374921462,0</coordinates></Point></Placemark>
    <Placemark><name>Cunningham Deborah W, Womble James I</name><styleUrl>#tier1</styleUrl><description><![CDATA[<b>Tier 1</b> | Score: 96<br>Owner: Cunningham Deborah W, Womble James I<br>Address: Alex Cockman Rd, Pittsboro, NC<br>Acreage: 46.14<br>APN: 12287<br><a href="https://landportal.com/?property=Zmlwcz0zNzAzNyZsbF91dWlkPTk1OTM2NzM2JmFwbj0wMDEyMjg3">&#128279; View on LandPortal</a>]]></description><Point><coordinates>-79.27407206724757,35.71621602475074,0</coordinates></Point></Placemark>
    <Placemark><name>Mann  Julian, Mann Diane Parker</name><styleUrl>#tier1</styleUrl><description><![CDATA[<b>Tier 1</b> | Score: 96<br>Owner: Mann  Julian, Mann Diane Parker<br>Address: 714 Turtle Creek Dr, Pittsboro, NC<br>Acreage: 10.01<br>APN: 65403<br><a href="https://landportal.com/?property=Zmlwcz0zNzAzNyZsbF91dWlkPTk1OTYzMDk4JmFwbj0wMDY1NDAz">&#128279; View on LandPortal</a>]]></description><Point><coordinates>-79.0642998834486,35.72774715038392,0</coordinates></Point></Placemark>
    <Placemark><name>Smith Paul Franklin, Lare Kimberly S</name><styleUrl>#tier1</styleUrl><description><![CDATA[<b>Tier 1</b> | Score: 96<br>Owner: Smith Paul Franklin, Lare Kimberly S<br>Address: Moons Chapel Rd, Siler City, NC<br>Acreage: 10.635<br>APN: 61106<br><a href="https://landportal.com/?property=Zmlwcz0zNzAzNyZsbF91dWlkPTk1OTM5MDUwJmFwbj0wMDYxMTA2">&#128279; View on LandPortal</a>]]></description><Point><coordinates>-79.54072200386463,35.735237352653726,0</coordinates></Point></Placemark>
    <Placemark><name>Bright David E, Bright Shelia J</name><styleUrl>#tier1</styleUrl><description><![CDATA[<b>Tier 1</b> | Score: 96<br>Owner: Bright David E, Bright Shelia J<br>Address: Easy St, Pittsboro, NC<br>Acreage: 10.466<br>APN: 76155<br><a href="https://landportal.com/?property=Zmlwcz0zNzAzNyZsbF91dWlkPTk1OTU5OTQ1JmFwbj0wMDc2MTU1">&#128279; View on LandPortal</a>]]></description><Point><coordinates>-79.14700326356457,35.80698483162818,0</coordinates></Point></Placemark>
    <Placemark><name>Bell Sandra Pate</name><styleUrl>#tier1</styleUrl><description><![CDATA[<b>Tier 1</b> | Score: 96<br>Owner: Bell Sandra Pate<br>Address: W Third Ave, Siler City, NC<br>Acreage: 14.17<br>APN: 16166<br><a href="https://landportal.com/?property=Zmlwcz0zNzAzNyZsbF91dWlkPTk1OTU0MTk2JmFwbj0wMDE2MTY2">&#128279; View on LandPortal</a>]]></description><Point><coordinates>-79.47652548856847,35.71931560358149,0</coordinates></Point></Placemark>
    <Placemark><name>Griffin William B, Griffin Brenda M</name><styleUrl>#tier1</styleUrl><description><![CDATA[<b>Tier 1</b> | Score: 96<br>Owner: Griffin William B, Griffin Brenda M<br>Address: Ralph Griffin Rd, Bear Creek, NC<br>Acreage: 14.3<br>APN: 9545<br><a href="https://landportal.com/?property=Zmlwcz0zNzAzNyZsbF91dWlkPTk1OTM1NDE2JmFwbj0wMDA5NTQ1">&#128279; View on LandPortal</a>]]></description><Point><coordinates>-79.29340735240095,35.63728133865928,0</coordinates></Point></Placemark>
    <Placemark><name>Smith Pat Ray, Smith Margaret B</name><styleUrl>#tier1</styleUrl><description><![CDATA[<b>Tier 1</b> | Score: 96<br>Owner: Smith Pat Ray, Smith Margaret B<br>Address: Mt View Church Rd, Moncure, NC<br>Acreage: 15.12<br>APN: 11086<br><a href="https://landportal.com/?property=Zmlwcz0zNzAzNyZsbF91dWlkPTk1OTQ4MzU0JmFwbj0wMDExMDg2">&#128279; View on LandPortal</a>]]></description><Point><coordinates>-79.12986262965217,35.65033798290936,0</coordinates></Point></Placemark>
    <Placemark><name>Fields Michael</name><styleUrl>#tier1</styleUrl><description><![CDATA[<b>Tier 1</b> | Score: 96<br>Owner: Fields Michael<br>Address: Rives Chapel Church Rd, Siler City, NC<br>Acreage: 18.7<br>APN: 11859<br><a href="https://landportal.com/?property=Zmlwcz0zNzAzNyZsbF91dWlkPTk1OTU2NTA4JmFwbj0wMDExODU5">&#128279; View on LandPortal</a>]]></description><Point><coordinates>-79.36000117080009,35.663952906462406,0</coordinates></Point></Placemark>
    <Placemark><name>Browning Susan Dark, Browning Robert M</name><styleUrl>#tier1</styleUrl><description><![CDATA[<b>Tier 1</b> | Score: 96<br>Owner: Browning Susan Dark, Browning Robert M<br>Address: Glosson Rd, Siler City, NC<br>Acreage: 14.07<br>APN: 14049<br><a href="https://landportal.com/?property=Zmlwcz0zNzAzNyZsbF91dWlkPTk1OTM2NjE5JmFwbj0wMDE0MDQ5">&#128279; View on LandPortal</a>]]></description><Point><coordinates>-79.46443155492466,35.693799545430366,0</coordinates></Point></Placemark>
    <Placemark><name>Emily B Smith Irrevocable Trust, Peacock</name><styleUrl>#tier1</styleUrl><description><![CDATA[<b>Tier 1</b> | Score: 96<br>Owner: Emily B Smith Irrevocable Trust, Peacock<br>Address: Bonlee Carbonton Rd, Bear Creek, NC<br>Acreage: 49.0<br>APN: 8584<br><a href="https://landportal.com/?property=Zmlwcz0zNzAzNyZsbF91dWlkPTk1OTQzMTA5JmFwbj0wMDA4NTg0">&#128279; View on LandPortal</a>]]></description><Point><coordinates>-79.40225008935624,35.597250292313205,0</coordinates></Point></Placemark>
    <Placemark><name>Brooks Ronald L</name><styleUrl>#tier1</styleUrl><description><![CDATA[<b>Tier 1</b> | Score: 96<br>Owner: Brooks Ronald L<br>Address: Gilmore Lodge Rd, Siler City, NC<br>Acreage: 13.291<br>APN: 63004<br><a href="https://landportal.com/?property=Zmlwcz0zNzAzNyZsbF91dWlkPTk1OTY0ODEyJmFwbj0wMDYzMDA0">&#128279; View on LandPortal</a>]]></description><Point><coordinates>-79.4061192079223,35.66767690141144,0</coordinates></Point></Placemark>
    <Placemark><name>Albright Gaynelle C</name><styleUrl>#tier1</styleUrl><description><![CDATA[<b>Tier 1</b> | Score: 96<br>Owner: Albright Gaynelle C<br>Address: Joe Brown Rd, Siler City, NC<br>Acreage: 14.651<br>APN: 61101<br><a href="https://landportal.com/?property=Zmlwcz0zNzAzNyZsbF91dWlkPTk1OTM5MDQwJmFwbj0wMDYxMTAx">&#128279; View on LandPortal</a>]]></description><Point><coordinates>-79.48407424460416,35.65833863957522,0</coordinates></Point></Placemark>
    <Placemark><name>Adams William C, Couch Mandy Adams</name><styleUrl>#tier1</styleUrl><description><![CDATA[<b>Tier 1</b> | Score: 96<br>Owner: Adams William C, Couch Mandy Adams<br>Address: N Carolina Highway 902, Siler City, NC<br>Acreage: 32.0<br>APN: 12075<br><a href="https://landportal.com/?property=Zmlwcz0zNzAzNyZsbF91dWlkPTk1OTM2MjEwJmFwbj0wMDEyMDc1">&#128279; View on LandPortal</a>]]></description><Point><coordinates>-79.32545324828845,35.65053230451204,0</coordinates></Point></Placemark>
    <Placemark><name>Phillips Vaughn Linda</name><styleUrl>#tier1</styleUrl><description><![CDATA[<b>Tier 1</b> | Score: 96<br>Owner: Phillips Vaughn Linda<br>Address: Wilson Rd, Bear Creek, NC<br>Acreage: 36.062<br>APN: 4526<br><a href="https://landportal.com/?property=Zmlwcz0zNzAzNyZsbF91dWlkPTk1OTMzMzA1JmFwbj0wMDA0NTI2">&#128279; View on LandPortal</a>]]></description><Point><coordinates>-79.42130430557839,35.5422354367859,0</coordinates></Point></Placemark>
    <Placemark><name>Umberger Polok Rebecca, Umberger Alan Thompson</name><styleUrl>#tier1</styleUrl><description><![CDATA[<b>Tier 1</b> | Score: 96<br>Owner: Umberger Polok Rebecca, Umberger Alan Thompson<br>Address: Willie Duncan Rd, Bear Creek, NC<br>Acreage: 24.277<br>APN: 81249<br><a href="https://landportal.com/?property=Zmlwcz0zNzAzNyZsbF91dWlkPTk1OTUyNDU4JmFwbj0wMDgxMjQ5">&#128279; View on LandPortal</a>]]></description><Point><coordinates>-79.45816081370526,35.82776338894351,0</coordinates></Point></Placemark>
    <Placemark><name>Gunter Harvey D, Williams Mary G</name><styleUrl>#tier1</styleUrl><description><![CDATA[<b>Tier 1</b> | Score: 96<br>Owner: Gunter Harvey D, Williams Mary G<br>Address: Moncure Pittsboro Rd, Moncure, NC<br>Acreage: 26.42<br>APN: 7405<br><a href="https://landportal.com/?property=Zmlwcz0zNzAzNyZsbF91dWlkPTk1OTM0NjY0JmFwbj0wMDA3NDA1">&#128279; View on LandPortal</a>]]></description><Point><coordinates>-79.14862566404324,35.68042224361827,0</coordinates></Point></Placemark>
    <Placemark><name>Tyson John M</name><styleUrl>#tier1</styleUrl><description><![CDATA[<b>Tier 1</b> | Score: 96<br>Owner: Tyson John M<br>Address: St Luke Church Rd, Goldston, NC<br>Acreage: 33.752<br>APN: 9719<br><a href="https://landportal.com/?property=Zmlwcz0zNzAzNyZsbF91dWlkPTk1OTM1ODQ3JmFwbj0wMDA5NzE5">&#128279; View on LandPortal</a>]]></description><Point><coordinates>-79.30488365101841,35.598514447413656,0</coordinates></Point></Placemark>
    <Placemark><name>Thorn Wayne E, Whitten Robin</name><styleUrl>#tier1</styleUrl><description><![CDATA[<b>Tier 1</b> | Score: 96<br>Owner: Thorn Wayne E, Whitten Robin<br>Address: 2310 Jay Shambley Rd, Pittsboro, NC<br>Acreage: 21.99<br>APN: 61977<br><a href="https://landportal.com/?property=Zmlwcz0zNzAzNyZsbF91dWlkPTk1OTYxNTE0JmFwbj0wMDYxOTc3">&#128279; View on LandPortal</a>]]></description><Point><coordinates>-79.3257240398639,35.714238220445,0</coordinates></Point></Placemark>
    <Placemark><name>Reitzel Patricia, Brown Mildred T</name><styleUrl>#tier1</styleUrl><description><![CDATA[<b>Tier 1</b> | Score: 96<br>Owner: Reitzel Patricia, Brown Mildred T<br>Address: Nc Hwy 902, Pittsboro, NC<br>Acreage: 27.24<br>APN: 12342<br><a href="https://landportal.com/?property=Zmlwcz0zNzAzNyZsbF91dWlkPTk1OTM2OTEyJmFwbj0wMDEyMzQy">&#128279; View on LandPortal</a>]]></description><Point><coordinates>-79.26823380532474,35.692816475799624,0</coordinates></Point></Placemark>
    <Placemark><name>Cheek  Robert Vance</name><styleUrl>#tier1</styleUrl><description><![CDATA[<b>Tier 1</b> | Score: 96<br>Owner: Cheek  Robert Vance<br>Address: Piney Grove Church Rd, Siler City, NC<br>Acreage: 14.9<br>APN: 304<br><a href="https://landportal.com/?property=Zmlwcz0zNzAzNyZsbF91dWlkPTk1OTQ1MjI1JmFwbj0wMDAwMzA0">&#128279; View on LandPortal</a>]]></description><Point><coordinates>-79.4958033323195,35.80956156095961,0</coordinates></Point></Placemark>
    <Placemark><name>Nettles Lou Ann</name><styleUrl>#tier1</styleUrl><description><![CDATA[<b>Tier 1</b> | Score: 96<br>Owner: Nettles Lou Ann<br>Address: Russell Chapel Ch Rd, Pittsboro, NC<br>Acreage: 47.25<br>APN: 6727<br><a href="https://landportal.com/?property=Zmlwcz0zNzAzNyZsbF91dWlkPTk1OTUzMDA1JmFwbj0wMDA2NzI3">&#128279; View on LandPortal</a>]]></description><Point><coordinates>-79.17536552214348,35.764928796476525,0</coordinates></Point></Placemark>
    <Placemark><name>Totten Shirley G</name><styleUrl>#tier1</styleUrl><description><![CDATA[<b>Tier 1</b> | Score: 96<br>Owner: Totten Shirley G<br>Address: Glovers Church Rd, Bear Creek, NC<br>Acreage: 10.0<br>APN: 60356<br><a href="https://landportal.com/?property=Zmlwcz0zNzAzNyZsbF91dWlkPTk1OTYxMDkyJmFwbj0wMDYwMzU2">&#128279; View on LandPortal</a>]]></description><Point><coordinates>-79.52064360064196,35.60419603878924,0</coordinates></Point></Placemark>
    <Placemark><name>Marsh Julia, Marsh Vincent</name><styleUrl>#tier1</styleUrl><description><![CDATA[<b>Tier 1</b> | Score: 96<br>Owner: Marsh Julia, Marsh Vincent<br>Address: Mitchells Chapel Rd, Pittsboro, NC<br>Acreage: 10.0<br>APN: 6142<br><a href="https://landportal.com/?property=Zmlwcz0zNzAzNyZsbF91dWlkPTk1OTQxODc4JmFwbj0wMDA2MTQy">&#128279; View on LandPortal</a>]]></description><Point><coordinates>-79.22681896268716,35.751769844685,0</coordinates></Point></Placemark>
    <Placemark><name>Gunter Ricky Darrell, Gunter Jill H</name><styleUrl>#tier1</styleUrl><description><![CDATA[<b>Tier 1</b> | Score: 96<br>Owner: Gunter Ricky Darrell, Gunter Jill H<br>Address: Bear Creek Church Rd, Bear Creek, NC<br>Acreage: 11.6<br>APN: 8643<br><a href="https://landportal.com/?property=Zmlwcz0zNzAzNyZsbF91dWlkPTk1OTQzNDA0JmFwbj0wMDA4NjQz">&#128279; View on LandPortal</a>]]></description><Point><coordinates>-79.3887213635567,35.595604264016245,0</coordinates></Point></Placemark>
    <Placemark><name>Mcmasters Barbara H, Glosson Linda H</name><styleUrl>#tier1</styleUrl><description><![CDATA[<b>Tier 1</b> | Score: 96<br>Owner: Mcmasters Barbara H, Glosson Linda H<br>Address: Chapel Ch Rd, Pittsboro, NC<br>Acreage: 29.83<br>APN: 6559<br><a href="https://landportal.com/?property=Zmlwcz0zNzAzNyZsbF91dWlkPTk1OTMzOTUzJmFwbj0wMDA2NTU5">&#128279; View on LandPortal</a>]]></description><Point><coordinates>-79.17310416383168,35.75966360312539,0</coordinates></Point></Placemark>
    <Placemark><name>Pilkington Michael W, Pilkington Anne T</name><styleUrl>#tier1</styleUrl><description><![CDATA[<b>Tier 1</b> | Score: 96<br>Owner: Pilkington Michael W, Pilkington Anne T<br>Address: Mays Chapel Rd, Bear Creek, NC<br>Acreage: 38.005<br>APN: 10304<br><a href="https://landportal.com/?property=Zmlwcz0zNzAzNyZsbF91dWlkPTk1OTM3OTE4JmFwbj0wMDEwMzA0">&#128279; View on LandPortal</a>]]></description><Point><coordinates>-79.24271966486245,35.63395576772429,0</coordinates></Point></Placemark>
    <Placemark><name>Carroll Christopher Lee, Carroll Timothy R</name><styleUrl>#tier1</styleUrl><description><![CDATA[<b>Tier 1</b> | Score: 96<br>Owner: Carroll Christopher Lee, Carroll Timothy R<br>Address: Devils Tramping Ground Dr, Bear Creek, NC<br>Acreage: 13.178<br>APN: 75910<br><a href="https://landportal.com/?property=Zmlwcz0zNzAzNyZsbF91dWlkPTk1OTY4MDM5JmFwbj0wMDc1OTEw">&#128279; View on LandPortal</a>]]></description><Point><coordinates>-79.48806465071473,35.585349734988235,0</coordinates></Point></Placemark>
    <Placemark><name>Moore Brian Kent, Sanchez-gill Danielle Nicole</name><styleUrl>#tier1</styleUrl><description><![CDATA[<b>Tier 1</b> | Score: 96<br>Owner: Moore Brian Kent, Sanchez-gill Danielle Nicole<br>Address: Henry Oldham Rd, Bear Creek, NC<br>Acreage: 44.0<br>APN: 10040<br><a href="https://landportal.com/?property=Zmlwcz0zNzAzNyZsbF91dWlkPTk1OTU1NDM5JmFwbj0wMDEwMDQw">&#128279; View on LandPortal</a>]]></description><Point><coordinates>-79.27762271738797,35.58934241804508,0</coordinates></Point></Placemark>
    <Placemark><name>Collins Laura Anne, Johnson Luanne M</name><styleUrl>#tier1</styleUrl><description><![CDATA[<b>Tier 1</b> | Score: 96<br>Owner: Collins Laura Anne, Johnson Luanne M<br>Address: Nc 902 Hwy, Goldston, NC<br>Acreage: 45.096<br>APN: 60908<br><a href="https://landportal.com/?property=Zmlwcz0zNzAzNyZsbF91dWlkPTk1OTYxMzQxJmFwbj0wMDYwOTA4">&#128279; View on LandPortal</a>]]></description><Point><coordinates>-79.37393572524559,35.628678207883056,0</coordinates></Point></Placemark>
    <Placemark><name>Pilkington Michael, Pilkington Anne</name><styleUrl>#tier1</styleUrl><description><![CDATA[<b>Tier 1</b> | Score: 96<br>Owner: Pilkington Michael, Pilkington Anne<br>Address: Mays Chapel Rd, Bear Creek, NC<br>Acreage: 38.94<br>APN: 10318<br><a href="https://landportal.com/?property=Zmlwcz0zNzAzNyZsbF91dWlkPTk1OTM3OTYxJmFwbj0wMDEwMzE4">&#128279; View on LandPortal</a>]]></description><Point><coordinates>-79.23984755993106,35.633671145969124,0</coordinates></Point></Placemark>
    <Placemark><name>Greene Richard V, Greene Julie J</name><styleUrl>#tier1</styleUrl><description><![CDATA[<b>Tier 1</b> | Score: 96<br>Owner: Greene Richard V, Greene Julie J<br>Address: N Carolina Highway 902, Bennett, NC<br>Acreage: 30.0<br>APN: 3389<br><a href="https://landportal.com/?property=Zmlwcz0zNzAzNyZsbF91dWlkPTk1OTM4MjkzJmFwbj0wMDAzMzg5">&#128279; View on LandPortal</a>]]></description><Point><coordinates>-79.53414653115884,35.54927151797196,0</coordinates></Point></Placemark>
    <Placemark><name>Squires Jennifer Kate</name><styleUrl>#tier1</styleUrl><description><![CDATA[<b>Tier 1</b> | Score: 96<br>Owner: Squires Jennifer Kate<br>Address: 406 Big Dusty, Pittsboro, NC<br>Acreage: 11.0<br>APN: 79833<br><a href="https://landportal.com/?property=Zmlwcz0zNzAzNyZsbF91dWlkPTk1OTY1NjA2JmFwbj0wMDc5ODMz">&#128279; View on LandPortal</a>]]></description><Point><coordinates>-79.246087351719,35.66053248517949,0</coordinates></Point></Placemark>
    <Placemark><name>Self Joanne J, Self Ostia Ralph</name><styleUrl>#tier1</styleUrl><description><![CDATA[<b>Tier 1</b> | Score: 96<br>Owner: Self Joanne J, Self Ostia Ralph<br>Address: Center Church Rd, Pittsboro, NC<br>Acreage: 42.0<br>APN: 78757<br><a href="https://landportal.com/?property=Zmlwcz0zNzAzNyZsbF91dWlkPTk1OTYxMTI1JmFwbj0wMDc4NzU3">&#128279; View on LandPortal</a>]]></description><Point><coordinates>-79.33344270289501,35.84310727623625,0</coordinates></Point></Placemark>