<?xml version='1.0' encoding='UTF-8'?>
<kml xmlns="http://www.opengis.net/kml/2.2">
  <Document>
    <name>FLC - Chatham NC - Ben (Tier 1 Part 1)</name>
    <Style id="tier1">
      <IconStyle>
        <color>ff0000ff</color>
        <Icon>
          <href>http://maps.google.com/mapfiles/kml/paddle/wht-blank.png</href>
        </Icon>
      </IconStyle>
    </Style>
    <Style id="tier2">
      <IconStyle>
        <color>ff00ffff</color>
        <Icon>
          <href>http://maps.google.com/mapfiles/kml/paddle/wht-blank.png</href>
        </Icon>
      </IconStyle>
    </Style>
    <Style id="satellite">
      <IconStyle>
        <color>ffff0000</color>
        <Icon>
          <href>http://maps.google.com/mapfiles/kml/paddle/wht-blank.png</href>
        </Icon>
      </IconStyle>
    </Style>
    <Placemark>
      <name>Reives William</name>
      <styleUrl>#tier1</styleUrl>
      <description>&lt;b&gt;Tier 1&lt;/b&gt; | Score: 98&lt;br&gt;Owner: Reives William&lt;br&gt;Address: Glosson Rd, , NC&lt;br&gt;Acreage: 12.0&lt;br&gt;APN: 13504</description>
      <Point>
        <coordinates>-79.46183718890919,35.68582332612726,0</coordinates>
      </Point>
    </Placemark>
    <Placemark>
      <name>Bower Douglas, Bower Teresa</name>
      <styleUrl>#tier1</styleUrl>
      <description>&lt;b&gt;Tier 1&lt;/b&gt; | Score: 98&lt;br&gt;Owner: Bower Douglas, Bower Teresa&lt;br&gt;Address: Hadley Mill Rd, Pittsboro, NC&lt;br&gt;Acreage: 40.0&lt;br&gt;APN: 12351</description>
      <Point>
        <coordinates>-79.2928746057124,35.70409707668601,0</coordinates>
      </Point>
    </Placemark>
    <Placemark>
      <name>Fiedler Brenda G</name>
      <styleUrl>#tier1</styleUrl>
      <description>&lt;b&gt;Tier 1&lt;/b&gt; | Score: 98&lt;br&gt;Owner: Fiedler Brenda G&lt;br&gt;Address: Clarence Mckeithan Rd, , NC&lt;br&gt;Acreage: 35.83&lt;br&gt;APN: 10133</description>
      <Point>
        <coordinates>-79.27045049920822,35.53839872788635,0</coordinates>
      </Point>
    </Placemark>
    <Placemark>
      <name>Buckner Steven Randall, Buckner Lori Lynn</name>
      <styleUrl>#tier1</styleUrl>
      <description>&lt;b&gt;Tier 1&lt;/b&gt; | Score: 98&lt;br&gt;Owner: Buckner Steven Randall, Buckner Lori Lynn&lt;br&gt;Address: Jessie Bridges Rd, Pittsboro, NC&lt;br&gt;Acreage: 26.0&lt;br&gt;APN: 71459</description>
      <Point>
        <coordinates>-79.42616829826962,35.776207189142646,0</coordinates>
      </Point>
    </Placemark>
    <Placemark>
      <name>Bryan George R</name>
      <styleUrl>#tier1</styleUrl>
      <description>&lt;b&gt;Tier 1&lt;/b&gt; | Score: 98&lt;br&gt;Owner: Bryan George R&lt;br&gt;Address: Gilmore Rd, Chapel Hill, NC&lt;br&gt;Acreage: 38.14&lt;br&gt;APN: 2178</description>
      <Point>
        <coordinates>-79.13272660423792,35.859330162760855,0</coordinates>
      </Point>
    </Placemark>
    <Placemark>
      <name>Smythe Robert, Smythe Marianne</name>
      <styleUrl>#tier1</styleUrl>
      <description>&lt;b&gt;Tier 1&lt;/b&gt; | Score: 98&lt;br&gt;Owner: Smythe Robert, Smythe Marianne&lt;br&gt;Address: 2 Mill Rd, Pittsboro, NC&lt;br&gt;Acreage: 12.009&lt;br&gt;APN: 5871</description>
      <Point>
        <coordinates>-79.24513673974857,35.737995941212425,0</coordinates>
      </Point>
    </Placemark>
    <Placemark>
      <name>Revocable Trust Of Patricia Weldon Feigley, Feigley</name>
      <styleUrl>#tier1</styleUrl>
      <description>&lt;b&gt;Tier 1&lt;/b&gt; | Score: 98&lt;br&gt;Owner: Revocable Trust Of Patricia Weldon Feigley, Feigley&lt;br&gt;Address: Old Graham Rd, , NC&lt;br&gt;Acreage: 22.0&lt;br&gt;APN: 66671</description>
      <Point>
        <coordinates>-79.22600270225888,35.81098141656179,0</coordinates>
      </Point>
    </Placemark>
    <Placemark>
      <name>Greene Armental Bynum</name>
      <styleUrl>#tier1</styleUrl>
      <description>&lt;b&gt;Tier 1&lt;/b&gt; | Score: 98&lt;br&gt;Owner: Greene Armental Bynum&lt;br&gt;Address: Bynum Perrell Rd, Bear Creek, NC&lt;br&gt;Acreage: 15.133&lt;br&gt;APN: 8922</description>
      <Point>
        <coordinates>-79.35737834520805,35.62487557644666,0</coordinates>
      </Point>
    </Placemark>
    <Placemark>
      <name>Foxx Henry Thomas</name>
      <styleUrl>#tier1</styleUrl>
      <description>&lt;b&gt;Tier 1&lt;/b&gt; | Score: 98&lt;br&gt;Owner: Foxx Henry Thomas&lt;br&gt;Address: Harrison Price Rd, Pittsboro, NC&lt;br&gt;Acreage: 12.22&lt;br&gt;APN: 87071</description>
      <Point>
        <coordinates>-79.42295689444883,35.68476550311278,0</coordinates>
      </Point>
    </Placemark>
    <Placemark>
      <name>Holt Rheta W</name>
      <styleUrl>#tier1</styleUrl>
      <description>&lt;b&gt;Tier 1&lt;/b&gt; | Score: 98&lt;br&gt;Owner: Holt Rheta W&lt;br&gt;Address: H Lochwood Dr, , NC&lt;br&gt;Acreage: 19.42&lt;br&gt;APN: 66133</description>
      <Point>
        <coordinates>-79.07637700344648,35.74279619802577,0</coordinates>
      </Point>
    </Placemark>
    <Placemark>
      <name>Mckinnish Family Trust, Mckinnish</name>
      <styleUrl>#tier1</styleUrl>
      <description>&lt;b&gt;Tier 1&lt;/b&gt; | Score: 98&lt;br&gt;Owner: Mckinnish Family Trust, Mckinnish&lt;br&gt;Address: Lewis Dr, , NC&lt;br&gt;Acreage: 12.669&lt;br&gt;APN: 70913</description>
      <Point>
        <coordinates>-79.45441816715532,35.81858985644945,0</coordinates>
      </Point>
    </Placemark>
    <Placemark>
      <name>Gomez Evelyn, Gomez Bernardo</name>
      <styleUrl>#tier1</styleUrl>
      <description>&lt;b&gt;Tier 1&lt;/b&gt; | Score: 98&lt;br&gt;Owner: Gomez Evelyn, Gomez Bernardo&lt;br&gt;Address: Castle Rock Farm Rd, , NC&lt;br&gt;Acreage: 12.08&lt;br&gt;APN: 69037</description>
      <Point>
        <coordinates>-79.25470456358474,35.80561289154893,0</coordinates>
      </Point>
    </Placemark>
    <Placemark>
      <name>Fauntleroy Charles, Fauntleroy Dolles</name>
      <styleUrl>#tier1</styleUrl>
      <description>&lt;b&gt;Tier 1&lt;/b&gt; | Score: 98&lt;br&gt;Owner: Fauntleroy Charles, Fauntleroy Dolles&lt;br&gt;Address: St Luke Church Rd, Goldston, NC&lt;br&gt;Acreage: 36.251&lt;br&gt;APN: 9788</description>
      <Point>
        <coordinates>-79.29884629809467,35.58934695883441,0</coordinates>
      </Point>
    </Placemark>
    <Placemark>
      <name>Ralph Reid Knight Jr Trust, Knight</name>
      <styleUrl>#tier1</styleUrl>
      <description>&lt;b&gt;Tier 1&lt;/b&gt; | Score: 98&lt;br&gt;Owner: Ralph Reid Knight Jr Trust, Knight&lt;br&gt;Address: Walter Bright Rd, Pittsboro, NC&lt;br&gt;Acreage: 19.57&lt;br&gt;APN: 68452</description>
      <Point>
        <coordinates>-79.19847641448047,35.59051964422228,0</coordinates>
      </Point>
    </Placemark>
    <Placemark>
      <name>Degraffenreidt Ashton Keisha, Degraffenreidt Peter Ashton</name>
      <styleUrl>#tier1</styleUrl>
      <description>&lt;b&gt;Tier 1&lt;/b&gt; | Score: 98&lt;br&gt;Owner: Degraffenreidt Ashton Keisha, Degraffenreidt Peter Ashton&lt;br&gt;Address: Old Siler City Rd, Pittsboro, NC&lt;br&gt;Acreage: 27.37&lt;br&gt;APN: 6076</description>
      <Point>
        <coordinates>-79.22511832742862,35.72722897339529,0</coordinates>
      </Point>
    </Placemark>
    <Placemark>
      <name>Hogan Linda, Hogan Edwin</name>
      <styleUrl>#tier1</styleUrl>
      <description>&lt;b&gt;Tier 1&lt;/b&gt; | Score: 98&lt;br&gt;Owner: Hogan Linda, Hogan Edwin&lt;br&gt;Address: 897 Laura Johnson Rd, Pittsboro, NC&lt;br&gt;Acreage: 10.13&lt;br&gt;APN: 82241</description>
      <Point>
        <coordinates>-79.31732631399797,35.75138302465439,0</coordinates>
      </Point>
    </Placemark>
    <Placemark>
      <name>Hensler Suzanne Marie H</name>
      <styleUrl>#tier1</styleUrl>
      <description>&lt;b&gt;Tier 1&lt;/b&gt; | Score: 98&lt;br&gt;Owner: Hensler Suzanne Marie H&lt;br&gt;Address: Fall Creek Church Rd, Pittsboro, NC&lt;br&gt;Acreage: 17.0&lt;br&gt;APN: 64566</description>
      <Point>
        <coordinates>-79.51392224588226,35.52467188088478,0</coordinates>
      </Point>
    </Placemark>
    <Placemark>
      <name>Marshburn Robert White</name>
      <styleUrl>#tier1</styleUrl>
      <description>&lt;b&gt;Tier 1&lt;/b&gt; | Score: 98&lt;br&gt;Owner: Marshburn Robert White&lt;br&gt;Address: Hanks Chapel Rd, Pittsboro, NC&lt;br&gt;Acreage: 14.24&lt;br&gt;APN: 7538</description>
      <Point>
        <coordinates>-79.10602765778157,35.711869096704206,0</coordinates>
      </Point>
    </Placemark>
    <Placemark>
      <name>Bryan George R</name>
      <styleUrl>#tier1</styleUrl>
      <description>&lt;b&gt;Tier 1&lt;/b&gt; | Score: 98&lt;br&gt;Owner: Bryan George R&lt;br&gt;Address: Poythress Rd, Chapel Hill, NC&lt;br&gt;Acreage: 20.0&lt;br&gt;APN: 60543</description>
      <Point>
        <coordinates>-79.13040592668551,35.861895212187605,0</coordinates>
      </Point>
    </Placemark>
    <Placemark>
      <name>Dekker David Jason</name>
      <styleUrl>#tier1</styleUrl>
      <description>&lt;b&gt;Tier 1&lt;/b&gt; | Score: 98&lt;br&gt;Owner: Dekker David Jason&lt;br&gt;Address: Indian Orchard Rd, , NC&lt;br&gt;Acreage: 10.02&lt;br&gt;APN: 69991</description>
      <Point>
        <coordinates>-79.22155228448631,35.84131262983172,0</coordinates>
      </Point>
    </Placemark>
    <Placemark>
      <name>Carrington Glen C Oppie Bynum Jones Testamentary Trust C</name>
      <styleUrl>#tier1</styleUrl>
      <description>&lt;b&gt;Tier 1&lt;/b&gt; | Score: 98&lt;br&gt;Owner: Carrington Glen C Oppie Bynum Jones Testamentary Trust C&lt;br&gt;Address: Bynum Perrell Rd, Bear Creek, NC&lt;br&gt;Acreage: 15.133&lt;br&gt;APN: 8917</description>
      <Point>
        <coordinates>-79.36025186797211,35.629214606579026,0</coordinates>
      </Point>
    </Placemark>
    <Placemark>
      <name>Fogleman Barbara Henry</name>
      <styleUrl>#tier1</styleUrl>
      <description>&lt;b&gt;Tier 1&lt;/b&gt; | Score: 98&lt;br&gt;Owner: Fogleman Barbara Henry&lt;br&gt;Address: Albright Rd, Siler City, NC&lt;br&gt;Acreage: 13.35&lt;br&gt;APN: 71806</description>
      <Point>
        <coordinates>-79.53882817967146,35.824071226439486,0</coordinates>
      </Point>
    </Placemark>
    <Placemark>
      <name>Dudley James C, Dudley Valinda</name>
      <styleUrl>#tier1</styleUrl>
      <description>&lt;b&gt;Tier 1&lt;/b&gt; | Score: 98&lt;br&gt;Owner: Dudley James C, Dudley Valinda&lt;br&gt;Address: Sandy Branch Church Rd, Siler City, NC&lt;br&gt;Acreage: 46.89&lt;br&gt;APN: 11656</description>
      <Point>
        <coordinates>-79.37891598709376,35.64836707483944,0</coordinates>
      </Point>
    </Placemark>
    <Placemark>
      <name>Johnson Ben</name>
      <styleUrl>#tier1</styleUrl>
      <description>&lt;b&gt;Tier 1&lt;/b&gt; | Score: 98&lt;br&gt;Owner: Johnson Ben&lt;br&gt;Address: Walter Lambert Rd, Bear Creek, NC&lt;br&gt;Acreage: 10.125&lt;br&gt;APN: 10124</description>
      <Point>
        <coordinates>-79.31004952947043,35.60177470586218,0</coordinates>
      </Point>
    </Placemark>
    <Placemark>
      <name>Marsh Jerry</name>
      <styleUrl>#tier1</styleUrl>
      <description>&lt;b&gt;Tier 1&lt;/b&gt; | Score: 98&lt;br&gt;Owner: Marsh Jerry&lt;br&gt;Address: Laura Johnson Rd, , NC&lt;br&gt;Acreage: 21.829&lt;br&gt;APN: 80754</description>
      <Point>
        <coordinates>-79.31836146961697,35.74983621808883,0</coordinates>
      </Point>
    </Placemark>
    <Placemark>
      <name>Fauntleroy Charles, Fauntleroy Dollester</name>
      <styleUrl>#tier1</styleUrl>
      <description>&lt;b&gt;Tier 1&lt;/b&gt; | Score: 98&lt;br&gt;Owner: Fauntleroy Charles, Fauntleroy Dollester&lt;br&gt;Address: St Luke Church Rd, Goldston, NC&lt;br&gt;Acreage: 10.344&lt;br&gt;APN: 63899</description>
      <Point>
        <coordinates>-79.29610336705261,35.59224506278746,0</coordinates>
      </Point>
    </Placemark>
    <Placemark>
      <name>Cockman Bonnie Caroline, Cockman Jeffrey Russell</name>
      <styleUrl>#tier1</styleUrl>
      <description>&lt;b&gt;Tier 1&lt;/b&gt; | Score: 98&lt;br&gt;Owner: Cockman Bonnie Caroline, Cockman Jeffrey Russell&lt;br&gt;Address: Alston Chapel Rd, Pittsboro, NC&lt;br&gt;Acreage: 35.83&lt;br&gt;APN: 12292</description>
      <Point>
        <coordinates>-79.27323105701899,35.70516231806965,0</coordinates>
      </Point>
    </Placemark>
    <Placemark>
      <name>Boling James Keith</name>
      <styleUrl>#tier1</styleUrl>
      <description>&lt;b&gt;Tier 1&lt;/b&gt; | Score: 98&lt;br&gt;Owner: Boling James Keith&lt;br&gt;Address: S Second Ave, Siler City, NC&lt;br&gt;Acreage: 18.93&lt;br&gt;APN: 16389</description>
      <Point>
        <coordinates>-79.45504813369163,35.715891671030704,0</coordinates>
      </Point>
    </Placemark>
    <Placemark>
      <name>Hall Lois M</name>
      <styleUrl>#tier1</styleUrl>
      <description>&lt;b&gt;Tier 1&lt;/b&gt; | Score: 98&lt;br&gt;Owner: Hall Lois M&lt;br&gt;Address: Laster Rd, New Hill, NC&lt;br&gt;Acreage: 12.45&lt;br&gt;APN: 5230</description>
      <Point>
        <coordinates>-79.03244138445493,35.65558699281732,0</coordinates>
      </Point>
    </Placemark>
    <Placemark>
      <name>Moore Robin Gaines, Czawlytko Joy Rae</name>
      <styleUrl>#tier1</styleUrl>
      <description>&lt;b&gt;Tier 1&lt;/b&gt; | Score: 98&lt;br&gt;Owner: Moore Robin Gaines, Czawlytko Joy Rae&lt;br&gt;Address: Bear Creek Church Rd, , NC&lt;br&gt;Acreage: 15.24&lt;br&gt;APN: 9443</description>
      <Point>
        <coordinates>-79.34240870603242,35.59651898475484,0</coordinates>
      </Point>
    </Placemark>
    <Placemark>
      <name>Huddleston Richard F</name>
      <styleUrl>#tier1</styleUrl>
      <description>&lt;b&gt;Tier 1&lt;/b&gt; | Score: 98&lt;br&gt;Owner: Huddleston Richard F&lt;br&gt;Address: Crestmont Dr, Siler City, NC&lt;br&gt;Acreage: 22.85&lt;br&gt;APN: 371</description>
      <Point>
        <coordinates>-79.47947004792758,35.78861040976109,0</coordinates>
      </Point>
    </Placemark>
    <Placemark>
      <name>Hamlet Billy Curtis</name>
      <styleUrl>#tier1</styleUrl>
      <description>&lt;b&gt;Tier 1&lt;/b&gt; | Score: 98&lt;br&gt;Owner: Hamlet Billy Curtis&lt;br&gt;Address: 1230 Rosser Rd, Bear Creek, NC&lt;br&gt;Acreage: 38.697&lt;br&gt;APN: 10153</description>
      <Point>
        <coordinates>-79.23208428409777,35.612987789009125,0</coordinates>
      </Point>
    </Placemark>
    <Placemark>
      <name>Ebert Bradley A</name>
      <styleUrl>#tier1</styleUrl>
      <description>&lt;b&gt;Tier 1&lt;/b&gt; | Score: 98&lt;br&gt;Owner: Ebert Bradley A&lt;br&gt;Address: Us 64 W, Siler City, NC&lt;br&gt;Acreage: 30.274&lt;br&gt;APN: 62903</description>
      <Point>
        <coordinates>-79.39544758883889,35.73561417915622,0</coordinates>
      </Point>
    </Placemark>
    <Placemark>
      <name>Fiori Melissa Loraleigh</name>
      <styleUrl>#tier1</styleUrl>
      <description>&lt;b&gt;Tier 1&lt;/b&gt; | Score: 98&lt;br&gt;Owner: Fiori Melissa Loraleigh&lt;br&gt;Address: Woody Dam Rd, Sanford, NC&lt;br&gt;Acreage: 17.67&lt;br&gt;APN: 60281</description>
      <Point>
        <coordinates>-79.2128614728126,35.63792259640192,0</coordinates>
      </Point>
    </Placemark>
    <Placemark>
      <name>Genise Irrevocable Trust, Genise</name>
      <styleUrl>#tier1</styleUrl>
      <description>&lt;b&gt;Tier 1&lt;/b&gt; | Score: 98&lt;br&gt;Owner: Genise Irrevocable Trust, Genise&lt;br&gt;Address: Carillon Dr, Pittsboro, NC&lt;br&gt;Acreage: 10.01&lt;br&gt;APN: 74851</description>
      <Point>
        <coordinates>-79.26818233319844,35.69710171939525,0</coordinates>
      </Point>
    </Placemark>
    <Placemark>
      <name>Womble Essex, Rogg Oskar</name>
      <styleUrl>#tier1</styleUrl>
      <description>&lt;b&gt;Tier 1&lt;/b&gt; | Score: 98&lt;br&gt;Owner: Womble Essex, Rogg Oskar&lt;br&gt;Address: Goldston Glendon Rd, Goldston, NC&lt;br&gt;Acreage: 39.96&lt;br&gt;APN: 4614</description>
      <Point>
        <coordinates>-79.41869348501177,35.51770833187342,0</coordinates>
      </Point>
    </Placemark>
    <Placemark>
      <name>Larry B Fearrington Trust, Susan C Fearrington Trust</name>
      <styleUrl>#tier1</styleUrl>
      <description>&lt;b&gt;Tier 1&lt;/b&gt; | Score: 98&lt;br&gt;Owner: Larry B Fearrington Trust, Susan C Fearrington Trust&lt;br&gt;Address: Burnett Cir, , NC&lt;br&gt;Acreage: 11.29&lt;br&gt;APN: 70010</description>
      <Point>
        <coordinates>-79.17438537308747,35.85513978995451,0</coordinates>
      </Point>
    </Placemark>
    <Placemark>
      <name>Offei Joseph R</name>
      <styleUrl>#tier1</styleUrl>
      <description>&lt;b&gt;Tier 1&lt;/b&gt; | Score: 98&lt;br&gt;Owner: Offei Joseph R&lt;br&gt;Address: 911 Emily Ln, Chapel Hill, NC&lt;br&gt;Acreage: 10.058&lt;br&gt;APN: 79048</description>
      <Point>
        <coordinates>-79.16324145310267,35.85761913994628,0</coordinates>
      </Point>
    </Placemark>
    <Placemark>
      <name>Sidhwaney Brij, Sidhwaney Jaishri B</name>
      <styleUrl>#tier1</styleUrl>
      <description>&lt;b&gt;Tier 1&lt;/b&gt; | Score: 98&lt;br&gt;Owner: Sidhwaney Brij, Sidhwaney Jaishri B&lt;br&gt;Address: Alston Chapel Rd, Pittsboro, NC&lt;br&gt;Acreage: 32.65&lt;br&gt;APN: 60898</description>
      <Point>
        <coordinates>-79.25387987940763,35.71011769409727,0</coordinates>
      </Point>
    </Placemark>
    <Placemark>
      <name>Blackburn Martha B, Blackburn Gilmer W</name>
      <styleUrl>#tier1</styleUrl>
      <description>&lt;b&gt;Tier 1&lt;/b&gt; | Score: 98&lt;br&gt;Owner: Blackburn Martha B, Blackburn Gilmer W&lt;br&gt;Address: Mclaurin Rd, Bear Creek, NC&lt;br&gt;Acreage: 50.0&lt;br&gt;APN: 11908</description>
      <Point>
        <coordinates>-79.3581744841935,35.65918668828393,0</coordinates>
      </Point>
    </Placemark>
    <Placemark>
      <name>Dixon L M</name>
      <styleUrl>#tier1</styleUrl>
      <description>&lt;b&gt;Tier 1&lt;/b&gt; | Score: 98&lt;br&gt;Owner: Dixon L M&lt;br&gt;Address: Bennett Siler City Rd, Pittsboro, NC&lt;br&gt;Acreage: 37.381&lt;br&gt;APN: 68988</description>
      <Point>
        <coordinates>-79.53653410092093,35.61488322063529,0</coordinates>
      </Point>
    </Placemark>
    <Placemark>
      <name>Steadman Vivian</name>
      <styleUrl>#tier1</styleUrl>
      <description>&lt;b&gt;Tier 1&lt;/b&gt; | Score: 98&lt;br&gt;Owner: Steadman Vivian&lt;br&gt;Address: Henry Oldham Rd, Goldston, NC&lt;br&gt;Acreage: 11.4&lt;br&gt;APN: 9753</description>
      <Point>
        <coordinates>-79.27523280679723,35.585434632704256,0</coordinates>
      </Point>
    </Placemark>
    <Placemark>
      <name>Baldwin Vincent Geneva, Baldwin Douglas Vincent</name>
      <styleUrl>#tier1</styleUrl>
      <description>&lt;b&gt;Tier 1&lt;/b&gt; | Score: 98&lt;br&gt;Owner: Baldwin Vincent Geneva, Baldwin Douglas Vincent&lt;br&gt;Address: Russell Chapel Ch Rd, Pittsboro, NC&lt;br&gt;Acreage: 24.0&lt;br&gt;APN: 6729</description>
      <Point>
        <coordinates>-79.18023388766261,35.762255931328085,0</coordinates>
      </Point>
    </Placemark>
    <Placemark>
      <name>Cockman Bonnie Caroline, Foote Christopher L</name>
      <styleUrl>#tier1</styleUrl>
      <description>&lt;b&gt;Tier 1&lt;/b&gt; | Score: 98&lt;br&gt;Owner: Cockman Bonnie Caroline, Foote Christopher L&lt;br&gt;Address: Alex Cockman Rd, Pittsboro, NC&lt;br&gt;Acreage: 37.699&lt;br&gt;APN: 12337</description>
      <Point>
        <coordinates>-79.27579081263661,35.70543809797892,0</coordinates>
      </Point>
    </Placemark>
    <Placemark>
      <name>Rao Sreenivasa, Rao Nakirikanti Shailaja</name>
      <styleUrl>#tier1</styleUrl>
      <description>&lt;b&gt;Tier 1&lt;/b&gt; | Score: 98&lt;br&gt;Owner: Rao Sreenivasa, Rao Nakirikanti Shailaja&lt;br&gt;Address: Us 64 W, , NC&lt;br&gt;Acreage: 11.127&lt;br&gt;APN: 69002</description>
      <Point>
        <coordinates>-79.28139036810532,35.73411680429963,0</coordinates>
      </Point>
    </Placemark>
    <Placemark>
      <name>Piedmont Southern Wood</name>
      <styleUrl>#tier1</styleUrl>
      <description>&lt;b&gt;Tier 1&lt;/b&gt; | Score: 98&lt;br&gt;Owner: Piedmont Southern Wood&lt;br&gt;Address: R Jordan Rd, Goldston, NC&lt;br&gt;Acreage: 49.44&lt;br&gt;APN: 9869</description>
      <Point>
        <coordinates>-79.27681854203003,35.5604256876899,0</coordinates>
      </Point>
    </Placemark>
    <Placemark>
      <name>Jerry And Patricia White Irrevocable Trust, White</name>
      <styleUrl>#tier1</styleUrl>
      <description>&lt;b&gt;Tier 1&lt;/b&gt; | Score: 98&lt;br&gt;Owner: Jerry And Patricia White Irrevocable Trust, White&lt;br&gt;Address: Foxfire Trace Rd, Pittsboro, NC&lt;br&gt;Acreage: 15.024&lt;br&gt;APN: 7569</description>
      <Point>
        <coordinates>-79.12956403427506,35.7194484930819,0</coordinates>
      </Point>
    </Placemark>
    <Placemark>
      <name>Crumley Robin Coker, Crumley Michael David</name>
      <styleUrl>#tier1</styleUrl>
      <description>&lt;b&gt;Tier 1&lt;/b&gt; | Score: 96&lt;br&gt;Owner: Crumley Robin Coker, Crumley Michael David&lt;br&gt;Address: Edwards Hill Church Rd, Bear Creek, NC&lt;br&gt;Acreage: 14.1&lt;br&gt;APN: 60419</description>
      <Point>
        <coordinates>-79.4346363472934,35.60792133302442,0</coordinates>
      </Point>
    </Placemark>
    <Placemark>
      <name>Eaves Ada Renee, Degraffenreidt Leon</name>
      <styleUrl>#tier1</styleUrl>
      <description>&lt;b&gt;Tier 1&lt;/b&gt; | Score: 96&lt;br&gt;Owner: Eaves Ada Renee, Degraffenreidt Leon&lt;br&gt;Address: 87 North Dr, Moncure, NC&lt;br&gt;Acreage: 18.0&lt;br&gt;APN: 79191</description>
      <Point>
        <coordinates>-79.2459075637131,35.773187826261655,0</coordinates>
      </Point>
    </Placemark>
    <Placemark>
      <name>Gunn Rebekah M</name>
      <styleUrl>#tier1</styleUrl>
      <description>&lt;b&gt;Tier 1&lt;/b&gt; | Score: 96&lt;br&gt;Owner: Gunn Rebekah M&lt;br&gt;Address: Us 64 E, Apex, NC&lt;br&gt;Acreage: 10.02&lt;br&gt;APN: 72032</description>
      <Point>
        <coordinates>-79.07217936088873,35.736648699639886,0</coordinates>
      </Point>
    </Placemark>
    <Placemark>
      <name>London William L, London Lisa V</name>
      <styleUrl>#tier1</styleUrl>
      <description>&lt;b&gt;Tier 1&lt;/b&gt; | Score: 96&lt;br&gt;Owner: London William L, London Lisa V&lt;br&gt;Address: Pete Roberson Rd, Pittsboro, NC&lt;br&gt;Acreage: 42.268&lt;br&gt;APN: 74704</description>
      <Point>
        <coordinates>-79.2244741755423,35.664981465196945,0</coordinates>
      </Point>
    </Placemark>
    <Placemark>
      <name>Horner Gary Wayne</name>
      <styleUrl>#tier1</styleUrl>
      <description>&lt;b&gt;Tier 1&lt;/b&gt; | Score: 96&lt;br&gt;Owner: Horner Gary Wayne&lt;br&gt;Address: New Elam Church Rd, New Hill, NC&lt;br&gt;Acreage: 17.25&lt;br&gt;APN: 5608</description>
      <Point>
        <coordinates>-79.02097670765,35.64229827681522,0</coordinates>
      </Point>
    </Placemark>
    <Placemark>
      <name>Eisner Joel</name>
      <styleUrl>#tier1</styleUrl>
      <description>&lt;b&gt;Tier 1&lt;/b&gt; | Score: 96&lt;br&gt;Owner: Eisner Joel&lt;br&gt;Address: Lystra Rd, Moncure, NC&lt;br&gt;Acreage: 10.02&lt;br&gt;APN: 78284</description>
      <Point>
        <coordinates>-79.0466035341866,35.82651766119451,0</coordinates>
      </Point>
    </Placemark>
    <Placemark>
      <name>Horton Barbara Lee, Haith Lealer L</name>
      <styleUrl>#tier1</styleUrl>
      <description>&lt;b&gt;Tier 1&lt;/b&gt; | Score: 96&lt;br&gt;Owner: Horton Barbara Lee, Haith Lealer L&lt;br&gt;Address: Old Graham Rd, Pittsboro, NC&lt;br&gt;Acreage: 13.78&lt;br&gt;APN: 6599</description>
      <Point>
        <coordinates>-79.18158632824964,35.74220531043815,0</coordinates>
      </Point>
    </Placemark>
    <Placemark>
      <name>Thompson Kenneth H</name>
      <styleUrl>#tier1</styleUrl>
      <description>&lt;b&gt;Tier 1&lt;/b&gt; | Score: 96&lt;br&gt;Owner: Thompson Kenneth H&lt;br&gt;Address: 663 Vernie Phillips Rd, Bear Creek, NC&lt;br&gt;Acreage: 34.19&lt;br&gt;APN: 82287</description>
      <Point>
        <coordinates>-79.328050823762,35.61282286424955,0</coordinates>
      </Point>
    </Placemark>
    <Placemark>
      <name>Hardy James Warren, Hardy Teresa Gooodwin</name>
      <styleUrl>#tier1</styleUrl>
      <description>&lt;b&gt;Tier 1&lt;/b&gt; | Score: 96&lt;br&gt;Owner: Hardy James Warren, Hardy Teresa Gooodwin&lt;br&gt;Address: Tom Stevens Rd, Pittsboro, NC&lt;br&gt;Acreage: 10.35&lt;br&gt;APN: 76176</description>
      <Point>
        <coordinates>-79.42004411894709,35.81392294088395,0</coordinates>
      </Point>
    </Placemark>
    <Placemark>
      <name>Crumley Michael D, Coker Robin</name>
      <styleUrl>#tier1</styleUrl>
      <description>&lt;b&gt;Tier 1&lt;/b&gt; | Score: 96&lt;br&gt;Owner: Crumley Michael D, Coker Robin&lt;br&gt;Address: Edwards Hill Church Rd, Bear Creek, NC&lt;br&gt;Acreage: 14.1&lt;br&gt;APN: 60310</description>
      <Point>
        <coordinates>-79.43518020611407,35.6054545883594,0</coordinates>
      </Point>
    </Placemark>
    <Placemark>
      <name>Horton Barbara Lee, Haith Lealer L</name>
      <styleUrl>#tier1</styleUrl>
      <description>&lt;b&gt;Tier 1&lt;/b&gt; | Score: 96&lt;br&gt;Owner: Horton Barbara Lee, Haith Lealer L&lt;br&gt;Address: Old Graham Rd, Pittsboro, NC&lt;br&gt;Acreage: 15.518&lt;br&gt;APN: 6598</description>
      <Point>
        <coordinates>-79.18129573794769,35.74359599864199,0</coordinates>
      </Point>
    </Placemark>
    <Placemark>
      <name>Goodwin Patrica Lane</name>
      <styleUrl>#tier1</styleUrl>
      <description>&lt;b&gt;Tier 1&lt;/b&gt; | Score: 96&lt;br&gt;Owner: Goodwin Patrica Lane&lt;br&gt;Address: Tody Goodwin Rd, Apex, NC&lt;br&gt;Acreage: 30.3&lt;br&gt;APN: 17944</description>
      <Point>
        <coordinates>-78.98645928245078,35.7268149000559,0</coordinates>
      </Point>
    </Placemark>
    <Placemark>
      <name>Dinterman Michael Ray, Dinterman Lois Moser</name>
      <styleUrl>#tier1</styleUrl>
      <description>&lt;b&gt;Tier 1&lt;/b&gt; | Score: 96&lt;br&gt;Owner: Dinterman Michael Ray, Dinterman Lois Moser&lt;br&gt;Address: Durham Bailey Ln, Pittsboro, NC&lt;br&gt;Acreage: 21.919&lt;br&gt;APN: 10855</description>
      <Point>
        <coordinates>-79.25280980116534,35.778636331433674,0</coordinates>
      </Point>
    </Placemark>
    <Placemark>
      <name>Kirankumar Venkata Alapaty Revocable Trust, Alapaty</name>
      <styleUrl>#tier1</styleUrl>
      <description>&lt;b&gt;Tier 1&lt;/b&gt; | Score: 96&lt;br&gt;Owner: Kirankumar Venkata Alapaty Revocable Trust, Alapaty&lt;br&gt;Address: Bruce Burns Rd, Moncure, NC&lt;br&gt;Acreage: 36.722&lt;br&gt;APN: 7060</description>
      <Point>
        <coordinates>-79.19521020472573,35.67824237405335,0</coordinates>
      </Point>
    </Placemark>
    <Placemark>
      <name>Thomas Ruth Elaine</name>
      <styleUrl>#tier1</styleUrl>
      <description>&lt;b&gt;Tier 1&lt;/b&gt; | Score: 96&lt;br&gt;Owner: Thomas Ruth Elaine&lt;br&gt;Address: Bear Creek Church Rd, Bear Creek, NC&lt;br&gt;Acreage: 24.0&lt;br&gt;APN: 9013</description>
      <Point>
        <coordinates>-79.35997488849281,35.59408726771646,0</coordinates>
      </Point>
    </Placemark>
    <Placemark>
      <name>Smith William D</name>
      <styleUrl>#tier1</styleUrl>
      <description>&lt;b&gt;Tier 1&lt;/b&gt; | Score: 96&lt;br&gt;Owner: Smith William D&lt;br&gt;Address: N Carolina Highway 42, Pittsboro, NC&lt;br&gt;Acreage: 19.5&lt;br&gt;APN: 73985</description>
      <Point>
        <coordinates>-78.98568063770958,35.57342282299307,0</coordinates>
      </Point>
    </Placemark>
    <Placemark>
      <name>Cowan Phillip R</name>
      <styleUrl>#tier1</styleUrl>
      <description>&lt;b&gt;Tier 1&lt;/b&gt; | Score: 96&lt;br&gt;Owner: Cowan Phillip R&lt;br&gt;Address: N Fawn Forest Ln, Pittsboro, NC&lt;br&gt;Acreage: 10.02&lt;br&gt;APN: 68933</description>
      <Point>
        <coordinates>-79.22870747122151,35.80600667629338,0</coordinates>
      </Point>
    </Placemark>
    <Placemark>
      <name>Mendenhall Aubrey Junius, Mendenhall Margarete Schack</name>
      <styleUrl>#tier1</styleUrl>
      <description>&lt;b&gt;Tier 1&lt;/b&gt; | Score: 96&lt;br&gt;Owner: Mendenhall Aubrey Junius, Mendenhall Margarete Schack&lt;br&gt;Address: Old Us 421 N, Siler City, NC&lt;br&gt;Acreage: 23.916&lt;br&gt;APN: 64322</description>
      <Point>
        <coordinates>-79.49946894283036,35.75954167150098,0</coordinates>
      </Point>
    </Placemark>
    <Placemark>
      <name>Gaines Annette Branton Trustee</name>
      <styleUrl>#tier1</styleUrl>
      <description>&lt;b&gt;Tier 1&lt;/b&gt; | Score: 96&lt;br&gt;Owner: Gaines Annette Branton Trustee&lt;br&gt;Address: Bear Creek Church Rd, Pittsboro, NC&lt;br&gt;Acreage: 12.983&lt;br&gt;APN: 79139</description>
      <Point>
        <coordinates>-79.33582157820743,35.59778558510227,0</coordinates>
      </Point>
    </Placemark>
    <Placemark>
      <name>Powers Mary Carroll H</name>
      <styleUrl>#tier1</styleUrl>
      <description>&lt;b&gt;Tier 1&lt;/b&gt; | Score: 96&lt;br&gt;Owner: Powers Mary Carroll H&lt;br&gt;Address: Silk Hope Liberty Rd, Siler City, NC&lt;br&gt;Acreage: 39.084&lt;br&gt;APN: 1031</description>
      <Point>
        <coordinates>-79.40937061538577,35.794289594989095,0</coordinates>
      </Point>
    </Placemark>
    <Placemark>
      <name>Womble Theodis</name>
      <styleUrl>#tier1</styleUrl>
      <description>&lt;b&gt;Tier 1&lt;/b&gt; | Score: 96&lt;br&gt;Owner: Womble Theodis&lt;br&gt;Address: Goldston Glendon Rd, Goldston, NC&lt;br&gt;Acreage: 13.0&lt;br&gt;APN: 4616</description>
      <Point>
        <coordinates>-79.41615346280267,35.5182782576066,0</coordinates>
      </Point>
    </Placemark>
    <Placemark>
      <name>Stout Jane Carol</name>
      <styleUrl>#tier1</styleUrl>
      <description>&lt;b&gt;Tier 1&lt;/b&gt; | Score: 96&lt;br&gt;Owner: Stout Jane Carol&lt;br&gt;Address: Red Terry Rd, Siler City, NC&lt;br&gt;Acreage: 42.188&lt;br&gt;APN: 746</description>
      <Point>
        <coordinates>-79.44057128399555,35.819047459371546,0</coordinates>
      </Point>
    </Placemark>
    <Placemark>
      <name>Crabtree Kenneth K</name>
      <styleUrl>#tier1</styleUrl>
      <description>&lt;b&gt;Tier 1&lt;/b&gt; | Score: 96&lt;br&gt;Owner: Crabtree Kenneth K&lt;br&gt;Address: Crawford Dairy Rd, Pittsboro, NC&lt;br&gt;Acreage: 11.47&lt;br&gt;APN: 1426</description>
      <Point>
        <coordinates>-79.1903678318096,35.85280021981272,0</coordinates>
      </Point>
    </Placemark>
    <Placemark>
      <name>Hales Geraldine W Trustee</name>
      <styleUrl>#tier1</styleUrl>
      <description>&lt;b&gt;Tier 1&lt;/b&gt; | Score: 96&lt;br&gt;Owner: Hales Geraldine W Trustee&lt;br&gt;Address: Pete Roberson Rd, Pittsboro, NC&lt;br&gt;Acreage: 27.22&lt;br&gt;APN: 18240</description>
      <Point>
        <coordinates>-79.21924027810743,35.65863385440797,0</coordinates>
      </Point>
    </Placemark>
    <Placemark>
      <name>Simpson Anderson Sharon Kay, Kiser Anderson Harry</name>
      <styleUrl>#tier1</styleUrl>
      <description>&lt;b&gt;Tier 1&lt;/b&gt; | Score: 96&lt;br&gt;Owner: Simpson Anderson Sharon Kay, Kiser Anderson Harry&lt;br&gt;Address: 22519 Nc Highway 902, Bennett, NC&lt;br&gt;Acreage: 22.52&lt;br&gt;APN: 71853</description>
      <Point>
        <coordinates>-79.50361128234371,35.55354581231191,0</coordinates>
      </Point>
    </Placemark>
    <Placemark>
      <name>Sears Family Trust, Sears</name>
      <styleUrl>#tier1</styleUrl>
      <description>&lt;b&gt;Tier 1&lt;/b&gt; | Score: 96&lt;br&gt;Owner: Sears Family Trust, Sears&lt;br&gt;Address: Talon Dr, Pittsboro, NC&lt;br&gt;Acreage: 10.263&lt;br&gt;APN: 73624</description>
      <Point>
        <coordinates>-79.1084036694954,35.67887339299665,0</coordinates>
      </Point>
    </Placemark>
    <Placemark>
      <name>Ashworth Cathy Tripp</name>
      <styleUrl>#tier1</styleUrl>
      <description>&lt;b&gt;Tier 1&lt;/b&gt; | Score: 96&lt;br&gt;Owner: Ashworth Cathy Tripp&lt;br&gt;Address: 1741 Emerson Cook Rd, Pittsboro, NC&lt;br&gt;Acreage: 27.38&lt;br&gt;APN: 71043</description>
      <Point>
        <coordinates>-79.2822448679862,35.7951268708552,0</coordinates>
      </Point>
    </Placemark>
    <Placemark>
      <name>Bray Bobby, Bray Dwight D</name>
      <styleUrl>#tier1</styleUrl>
      <description>&lt;b&gt;Tier 1&lt;/b&gt; | Score: 96&lt;br&gt;Owner: Bray Bobby, Bray Dwight D&lt;br&gt;Address: Henry Bray Dr, Siler City, NC&lt;br&gt;Acreage: 19.637&lt;br&gt;APN: 12683</description>
      <Point>
        <coordinates>-79.52955300825263,35.66085318168558,0</coordinates>
      </Point>
    </Placemark>
    <Placemark>
      <name>Griffin William B, Griffin Brenda M</name>
      <styleUrl>#tier1</styleUrl>
      <description>&lt;b&gt;Tier 1&lt;/b&gt; | Score: 96&lt;br&gt;Owner: Griffin William B, Griffin Brenda M&lt;br&gt;Address: Ralph Griffin Rd, Bear Creek, NC&lt;br&gt;Acreage: 11.25&lt;br&gt;APN: 9963</description>
      <Point>
        <coordinates>-79.29935302074838,35.63608710307847,0</coordinates>
      </Point>
    </Placemark>
    <Placemark>
      <name>Brewer Bert Raymond</name>
      <styleUrl>#tier1</styleUrl>
      <description>&lt;b&gt;Tier 1&lt;/b&gt; | Score: 96&lt;br&gt;Owner: Brewer Bert Raymond&lt;br&gt;Address: Fall Creek Church Rd, Bear Creek, NC&lt;br&gt;Acreage: 22.794&lt;br&gt;APN: 75230</description>
      <Point>
        <coordinates>-79.51401562292631,35.526268821186775,0</coordinates>
      </Point>
    </Placemark>
    <Placemark>
      <name>Allen Keith M</name>
      <styleUrl>#tier1</styleUrl>
      <description>&lt;b&gt;Tier 1&lt;/b&gt; | Score: 96&lt;br&gt;Owner: Allen Keith M&lt;br&gt;Address: Bernard Purvis Rd, Chapel Hill, NC&lt;br&gt;Acreage: 23.328&lt;br&gt;APN: 64376</description>
      <Point>
        <coordinates>-79.54530419790302,35.53824714194404,0</coordinates>
      </Point>
    </Placemark>
    <Placemark>
      <name>Hunter Carey B</name>
      <styleUrl>#tier1</styleUrl>
      <description>&lt;b&gt;Tier 1&lt;/b&gt; | Score: 96&lt;br&gt;Owner: Hunter Carey B&lt;br&gt;Address: 2257 N Pea Ridge Rd, Pittsboro, NC&lt;br&gt;Acreage: 12.987&lt;br&gt;APN: 69450</description>
      <Point>
        <coordinates>-79.05271513383617,35.64836824279129,0</coordinates>
      </Point>
    </Placemark>
    <Placemark>
      <name>Gordon James E, Kirkland Donna</name>
      <styleUrl>#tier1</styleUrl>
      <description>&lt;b&gt;Tier 1&lt;/b&gt; | Score: 96&lt;br&gt;Owner: Gordon James E, Kirkland Donna&lt;br&gt;Address: Mays Chapel Rd, Sanford, NC&lt;br&gt;Acreage: 10.3&lt;br&gt;APN: 18305</description>
      <Point>
        <coordinates>-79.20627909897064,35.616403544228824,0</coordinates>
      </Point>
    </Placemark>
    <Placemark>
      <name>Mitchell Calvin H, Mitchell Linda H</name>
      <styleUrl>#tier1</styleUrl>
      <description>&lt;b&gt;Tier 1&lt;/b&gt; | Score: 96&lt;br&gt;Owner: Mitchell Calvin H, Mitchell Linda H&lt;br&gt;Address: Lambert Chapel Rd, Siler City, NC&lt;br&gt;Acreage: 17.25&lt;br&gt;APN: 12692</description>
      <Point>
        <coordinates>-79.5455656411377,35.666211464805755,0</coordinates>
      </Point>
    </Placemark>
    <Placemark>
      <name>Thomas Douglas, Oldham Vicky T</name>
      <styleUrl>#tier1</styleUrl>
      <description>&lt;b&gt;Tier 1&lt;/b&gt; | Score: 96&lt;br&gt;Owner: Thomas Douglas, Oldham Vicky T&lt;br&gt;Address: Chatham Church Rd, Sanford, NC&lt;br&gt;Acreage: 32.73&lt;br&gt;APN: 60247</description>
      <Point>
        <coordinates>-79.20663750501197,35.645347306878854,0</coordinates>
      </Point>
    </Placemark>
    <Placemark>
      <name>Clark Douglas J</name>
      <styleUrl>#tier1</styleUrl>
      <description>&lt;b&gt;Tier 1&lt;/b&gt; | Score: 96&lt;br&gt;Owner: Clark Douglas J&lt;br&gt;Address: Piney Grove Church Rd, Siler City, NC&lt;br&gt;Acreage: 37.0&lt;br&gt;APN: 60005</description>
      <Point>
        <coordinates>-79.50483670093034,35.81091874217924,0</coordinates>
      </Point>
    </Placemark>
    <Placemark>
      <name>Langley  John D</name>
      <styleUrl>#tier1</styleUrl>
      <description>&lt;b&gt;Tier 1&lt;/b&gt; | Score: 96&lt;br&gt;Owner: Langley  John D&lt;br&gt;Address: 2313 Staley Snow Camp Rd, Siler City, NC&lt;br&gt;Acreage: 35.38&lt;br&gt;APN: 315</description>
      <Point>
        <coordinates>-79.51131295410381,35.8211821979978,0</coordinates>
      </Point>
    </Placemark>
    <Placemark>
      <name>Barnes Patricia H</name>
      <styleUrl>#tier1</styleUrl>
      <description>&lt;b&gt;Tier 1&lt;/b&gt; | Score: 96&lt;br&gt;Owner: Barnes Patricia H&lt;br&gt;Address: Mt Vernon Springs Rd, Pittsboro, NC&lt;br&gt;Acreage: 11.354&lt;br&gt;APN: 79264</description>
      <Point>
        <coordinates>-79.45563042220431,35.652698998101144,0</coordinates>
      </Point>
    </Placemark>
    <Placemark>
      <name>Campos Elizandro Villasenor, Villasenor Elizandro</name>
      <styleUrl>#tier1</styleUrl>
      <description>&lt;b&gt;Tier 1&lt;/b&gt; | Score: 96&lt;br&gt;Owner: Campos Elizandro Villasenor, Villasenor Elizandro&lt;br&gt;Address: 34 Coleridge Rd, Siler City, NC&lt;br&gt;Acreage: 13.748&lt;br&gt;APN: 13173</description>
      <Point>
        <coordinates>-79.50207495633764,35.7251343425297,0</coordinates>
      </Point>
    </Placemark>
    <Placemark>
      <name>Burnett Willie M, Hargett Annie Burnette</name>
      <styleUrl>#tier1</styleUrl>
      <description>&lt;b&gt;Tier 1&lt;/b&gt; | Score: 96&lt;br&gt;Owner: Burnett Willie M, Hargett Annie Burnette&lt;br&gt;Address: Burnett Cir, Pittsboro, NC&lt;br&gt;Acreage: 10.26&lt;br&gt;APN: 1417</description>
      <Point>
        <coordinates>-79.17253744162609,35.8554846948796,0</coordinates>
      </Point>
    </Placemark>
    <Placemark>
      <name>Lancaster Leigh-anne Justice, Justice Jeffrey M</name>
      <styleUrl>#tier1</styleUrl>
      <description>&lt;b&gt;Tier 1&lt;/b&gt; | Score: 96&lt;br&gt;Owner: Lancaster Leigh-anne Justice, Justice Jeffrey M&lt;br&gt;Address: Center Dr, Siler City, NC&lt;br&gt;Acreage: 11.17&lt;br&gt;APN: 63018</description>
      <Point>
        <coordinates>-79.43990730101703,35.72789914674439,0</coordinates>
      </Point>
    </Placemark>
    <Placemark>
      <name>Tally Timothy, Tally Janelle</name>
      <styleUrl>#tier1</styleUrl>
      <description>&lt;b&gt;Tier 1&lt;/b&gt; | Score: 96&lt;br&gt;Owner: Tally Timothy, Tally Janelle&lt;br&gt;Address: N Carolina Highway 42, Pittsboro, NC&lt;br&gt;Acreage: 10.35&lt;br&gt;APN: 63766</description>
      <Point>
        <coordinates>-79.38052015401423,35.53165379854572,0</coordinates>
      </Point>
    </Placemark>
    <Placemark>
      <name>Moss Julie Leonard, Rives Anita Leonard</name>
      <styleUrl>#tier1</styleUrl>
      <description>&lt;b&gt;Tier 1&lt;/b&gt; | Score: 96&lt;br&gt;Owner: Moss Julie Leonard, Rives Anita Leonard&lt;br&gt;Address: Glovers Church Rd, Bennett, NC&lt;br&gt;Acreage: 20.82&lt;br&gt;APN: 3541</description>
      <Point>
        <coordinates>-79.54037442279035,35.599367735154985,0</coordinates>
      </Point>
    </Placemark>
    <Placemark>
      <name>Wilson Carolyn E</name>
      <styleUrl>#tier1</styleUrl>
      <description>&lt;b&gt;Tier 1&lt;/b&gt; | Score: 96&lt;br&gt;Owner: Wilson Carolyn E&lt;br&gt;Address: White Cross Rd, Pittsboro, NC&lt;br&gt;Acreage: 24.395&lt;br&gt;APN: 1404</description>
      <Point>
        <coordinates>-79.19357341751673,35.87051920877038,0</coordinates>
      </Point>
    </Placemark>
    <Placemark>
      <name>Sessoms Bonilla Edith, Sessoms Cesar Bonilla</name>
      <styleUrl>#tier1</styleUrl>
      <description>&lt;b&gt;Tier 1&lt;/b&gt; | Score: 96&lt;br&gt;Owner: Sessoms Bonilla Edith, Sessoms Cesar Bonilla&lt;br&gt;Address: Oakley Church Rd, Siler City, NC&lt;br&gt;Acreage: 13.677&lt;br&gt;APN: 72874</description>
      <Point>
        <coordinates>-79.49449517497635,35.675985624203896,0</coordinates>
      </Point>
    </Placemark>
    <Placemark>
      <name>Bufalini Joseph J, Bufalini Marijon</name>
      <styleUrl>#tier1</styleUrl>
      <description>&lt;b&gt;Tier 1&lt;/b&gt; | Score: 96&lt;br&gt;Owner: Bufalini Joseph J, Bufalini Marijon&lt;br&gt;Address: Luther Rd, Apex, NC&lt;br&gt;Acreage: 23.866&lt;br&gt;APN: 18063</description>
      <Point>
        <coordinates>-78.94990710005081,35.76241542129616,0</coordinates>
      </Point>
    </Placemark>
    <Placemark>
      <name>Atkins Clarke E</name>
      <styleUrl>#tier1</styleUrl>
      <description>&lt;b&gt;Tier 1&lt;/b&gt; | Score: 96&lt;br&gt;Owner: Atkins Clarke E&lt;br&gt;Address: Chatham Church Rd, Siler City, NC&lt;br&gt;Acreage: 16.0&lt;br&gt;APN: 70740</description>
      <Point>
        <coordinates>-79.19779153851209,35.627340094682424,0</coordinates>
      </Point>
    </Placemark>
    <Placemark>
      <name>Stith Mark H, Stith Michelle H</name>
      <styleUrl>#tier1</styleUrl>
      <description>&lt;b&gt;Tier 1&lt;/b&gt; | Score: 96&lt;br&gt;Owner: Stith Mark H, Stith Michelle H&lt;br&gt;Address: Alton Alston Rd, Siler City, NC&lt;br&gt;Acreage: 10.312&lt;br&gt;APN: 86386</description>
      <Point>
        <coordinates>-79.2583999785976,35.782159708054785,0</coordinates>
      </Point>
    </Placemark>
    <Placemark>
      <name>Conway Peter J, Conway Alexandra W</name>
      <styleUrl>#tier1</styleUrl>
      <description>&lt;b&gt;Tier 1&lt;/b&gt; | Score: 96&lt;br&gt;Owner: Conway Peter J, Conway Alexandra W&lt;br&gt;Address: Henley Rd, Pittsboro, NC&lt;br&gt;Acreage: 33.38&lt;br&gt;APN: 90264</description>
      <Point>
        <coordinates>-79.06666667131194,35.81381164236993,0</coordinates>
      </Point>
    </Placemark>
    <Placemark>
      <name>Serrano Family Revocable Trust, Serrano</name>
      <styleUrl>#tier1</styleUrl>
      <description>&lt;b&gt;Tier 1&lt;/b&gt; | Score: 96&lt;br&gt;Owner: Serrano Family Revocable Trust, Serrano&lt;br&gt;Address: 4445 Rives Chapel Church Rd, Siler City, NC&lt;br&gt;Acreage: 26.616&lt;br&gt;APN: 80324</description>
      <Point>
        <coordinates>-79.36482393855275,35.67678274290199,0</coordinates>
      </Point>
    </Placemark>
    <Placemark>
      <name>Gunn Rebekah M</name>
      <styleUrl>#tier1</styleUrl>
      <description>&lt;b&gt;Tier 1&lt;/b&gt; | Score: 96&lt;br&gt;Owner: Gunn Rebekah M&lt;br&gt;Address: Us 64 E, Apex, NC&lt;br&gt;Acreage: 10.31&lt;br&gt;APN: 72033</description>
      <Point>
        <coordinates>-79.07059790709934,35.737215169223674,0</coordinates>
      </Point>
    </Placemark>
    <Placemark>
      <name>Duncan Daniel Patrick, Duncan Gabriel Thomas</name>
      <styleUrl>#tier1</styleUrl>
      <description>&lt;b&gt;Tier 1&lt;/b&gt; | Score: 96&lt;br&gt;Owner: Duncan Daniel Patrick, Duncan Gabriel Thomas&lt;br&gt;Address: Duncan Farm Rd, Siler City, NC&lt;br&gt;Acreage: 18.9&lt;br&gt;APN: 813</description>
      <Point>
        <coordinates>-79.42502299533815,35.78650039636883,0</coordinates>
      </Point>
    </Placemark>
    <Placemark>
      <name>Harward Benjamin Russell, Irrevoc Gwen</name>
      <styleUrl>#tier1</styleUrl>
      <description>&lt;b&gt;Tier 1&lt;/b&gt; | Score: 96&lt;br&gt;Owner: Harward Benjamin Russell, Irrevoc Gwen&lt;br&gt;Address: Lydia Perry Rd, Sanford, NC&lt;br&gt;Acreage: 30.163&lt;br&gt;APN: 18121</description>
      <Point>
        <coordinates>-79.2347514874332,35.595406395691285,0</coordinates>
      </Point>
    </Placemark>
    <Placemark>
      <name>Fitts Helen Faye Phillips Fitts William Rober</name>
      <styleUrl>#tier1</styleUrl>
      <description>&lt;b&gt;Tier 1&lt;/b&gt; | Score: 96&lt;br&gt;Owner: Fitts Helen Faye Phillips Fitts William Rober&lt;br&gt;Address: Vander Oldham Rd, Bear Creek, NC&lt;br&gt;Acreage: 49.418&lt;br&gt;APN: 4401</description>
      <Point>
        <coordinates>-79.42291212523853,35.56848707174151,0</coordinates>
      </Point>
    </Placemark>
    <Placemark>
      <name>Beavers Jeffrey S, Beavers Sonya S</name>
      <styleUrl>#tier1</styleUrl>
      <description>&lt;b&gt;Tier 1&lt;/b&gt; | Score: 96&lt;br&gt;Owner: Beavers Jeffrey S, Beavers Sonya S&lt;br&gt;Address: Vander Oldham Rd, Bear Creek, NC&lt;br&gt;Acreage: 25.781&lt;br&gt;APN: 4439</description>
      <Point>
        <coordinates>-79.4321790168157,35.56591852456321,0</coordinates>
      </Point>
    </Placemark>
    <Placemark>
      <name>Johnson Johnnie R</name>
      <styleUrl>#tier1</styleUrl>
      <description>&lt;b&gt;Tier 1&lt;/b&gt; | Score: 96&lt;br&gt;Owner: Johnson Johnnie R&lt;br&gt;Address: Johnny Lindley Rd, Pittsboro, NC&lt;br&gt;Acreage: 21.5&lt;br&gt;APN: 76748</description>
      <Point>
        <coordinates>-79.38400408126247,35.81754791037359,0</coordinates>
      </Point>
    </Placemark>
    <Placemark>
      <name>Gunn Rebekah M</name>
      <styleUrl>#tier1</styleUrl>
      <description>&lt;b&gt;Tier 1&lt;/b&gt; | Score: 96&lt;br&gt;Owner: Gunn Rebekah M&lt;br&gt;Address: Us 64 E, Apex, NC&lt;br&gt;Acreage: 12.0&lt;br&gt;APN: 72034</description>
      <Point>
        <coordinates>-79.06914746044373,35.73715438918222,0</coordinates>
      </Point>
    </Placemark>
    <Placemark>
      <name>Coble Benny B, Coble Carolyn T</name>
      <styleUrl>#tier1</styleUrl>
      <description>&lt;b&gt;Tier 1&lt;/b&gt; | Score: 96&lt;br&gt;Owner: Coble Benny B, Coble Carolyn T&lt;br&gt;Address: Glovers Church Rd, Bear Creek, NC&lt;br&gt;Acreage: 15.154&lt;br&gt;APN: 3605</description>
      <Point>
        <coordinates>-79.52908193562735,35.598807753400024,0</coordinates>
      </Point>
    </Placemark>
    <Placemark>
      <name>Perry Will</name>
      <styleUrl>#tier1</styleUrl>
      <description>&lt;b&gt;Tier 1&lt;/b&gt; | Score: 96&lt;br&gt;Owner: Perry Will&lt;br&gt;Address: Manns Chapel Rd, Pittsboro, NC&lt;br&gt;Acreage: 10.14&lt;br&gt;APN: 1902</description>
      <Point>
        <coordinates>-79.14683849694818,35.82376876519205,0</coordinates>
      </Point>
    </Placemark>
    <Placemark>
      <name>Hedrick Robert Family Trust, Hedrick Marital Trust</name>
      <styleUrl>#tier1</styleUrl>
      <description>&lt;b&gt;Tier 1&lt;/b&gt; | Score: 96&lt;br&gt;Owner: Hedrick Robert Family Trust, Hedrick Marital Trust&lt;br&gt;Address: Silk Hope Liberty Rd, Pittsboro, NC&lt;br&gt;Acreage: 15.75&lt;br&gt;APN: 66911</description>
      <Point>
        <coordinates>-79.5371981092448,35.840551676310675,0</coordinates>
      </Point>
    </Placemark>
    <Placemark>
      <name>Gaines Ann B</name>
      <styleUrl>#tier1</styleUrl>
      <description>&lt;b&gt;Tier 1&lt;/b&gt; | Score: 96&lt;br&gt;Owner: Gaines Ann B&lt;br&gt;Address: Roberts Chapel Rd, Siler City, NC&lt;br&gt;Acreage: 10.42&lt;br&gt;APN: 72872</description>
      <Point>
        <coordinates>-79.33947130472029,35.58130402404605,0</coordinates>
      </Point>
    </Placemark>
    <Placemark>
      <name>York Billy Edward, York Linda N</name>
      <styleUrl>#tier1</styleUrl>
      <description>&lt;b&gt;Tier 1&lt;/b&gt; | Score: 96&lt;br&gt;Owner: York Billy Edward, York Linda N&lt;br&gt;Address: Piney Grove Church Rd, Pittsboro, NC&lt;br&gt;Acreage: 13.0&lt;br&gt;APN: 78567</description>
      <Point>
        <coordinates>-79.48463421149799,35.79272697026005,0</coordinates>
      </Point>
    </Placemark>
    <Placemark>
      <name>Hancock Charles R</name>
      <styleUrl>#tier1</styleUrl>
      <description>&lt;b&gt;Tier 1&lt;/b&gt; | Score: 96&lt;br&gt;Owner: Hancock Charles R&lt;br&gt;Address: S Second Ave, Bear Creek, NC&lt;br&gt;Acreage: 12.825&lt;br&gt;APN: 80779</description>
      <Point>
        <coordinates>-79.44792402456812,35.70360160108349,0</coordinates>
      </Point>
    </Placemark>
    <Placemark>
      <name>Hardy James Warren, Hardy Teresa Gooodwin</name>
      <styleUrl>#tier1</styleUrl>
      <description>&lt;b&gt;Tier 1&lt;/b&gt; | Score: 96&lt;br&gt;Owner: Hardy James Warren, Hardy Teresa Gooodwin&lt;br&gt;Address: Tom Stevens Rd, Pittsboro, NC&lt;br&gt;Acreage: 10.3&lt;br&gt;APN: 76177</description>
      <Point>
        <coordinates>-79.4197602443584,35.815262351298294,0</coordinates>
      </Point>
    </Placemark>
    <Placemark>
      <name>Oldham Robert Edwin, Oldham Sandra Nall</name>
      <styleUrl>#tier1</styleUrl>
      <description>&lt;b&gt;Tier 1&lt;/b&gt; | Score: 96&lt;br&gt;Owner: Oldham Robert Edwin, Oldham Sandra Nall&lt;br&gt;Address: Henry Oldham Rd, Bear Creek, NC&lt;br&gt;Acreage: 15.98&lt;br&gt;APN: 60959</description>
      <Point>
        <coordinates>-79.27032456061838,35.58907377100372,0</coordinates>
      </Point>
    </Placemark>
    <Placemark>
      <name>Johnson Charlie K</name>
      <styleUrl>#tier1</styleUrl>
      <description>&lt;b&gt;Tier 1&lt;/b&gt; | Score: 96&lt;br&gt;Owner: Johnson Charlie K&lt;br&gt;Address: Johnny Lindley Rd, Pittsboro, NC&lt;br&gt;Acreage: 31.5&lt;br&gt;APN: 76749</description>
      <Point>
        <coordinates>-79.38386555050431,35.820806182381986,0</coordinates>
      </Point>
    </Placemark>
    <Placemark>
      <name>Rice Family Irrevocable Trust, Rice</name>
      <styleUrl>#tier1</styleUrl>
      <description>&lt;b&gt;Tier 1&lt;/b&gt; | Score: 96&lt;br&gt;Owner: Rice Family Irrevocable Trust, Rice&lt;br&gt;Address: Mt View Church Rd, Pittsboro, NC&lt;br&gt;Acreage: 21.0&lt;br&gt;APN: 70699</description>
      <Point>
        <coordinates>-79.17183859875622,35.64141516188731,0</coordinates>
      </Point>
    </Placemark>
    <Placemark>
      <name>Crawford Jerry W, Crawford Donna B</name>
      <styleUrl>#tier1</styleUrl>
      <description>&lt;b&gt;Tier 1&lt;/b&gt; | Score: 96&lt;br&gt;Owner: Crawford Jerry W, Crawford Donna B&lt;br&gt;Address: Crawford Dairy Rd, Pittsboro, NC&lt;br&gt;Acreage: 32.221&lt;br&gt;APN: 88016</description>
      <Point>
        <coordinates>-79.23353052158845,35.86227292421969,0</coordinates>
      </Point>
    </Placemark>
    <Placemark>
      <name>Dunn Leann Thurman, Dunn Craig Wesley</name>
      <styleUrl>#tier1</styleUrl>
      <description>&lt;b&gt;Tier 1&lt;/b&gt; | Score: 96&lt;br&gt;Owner: Dunn Leann Thurman, Dunn Craig Wesley&lt;br&gt;Address: Mclaurin Rd, Siler City, NC&lt;br&gt;Acreage: 37.652&lt;br&gt;APN: 11634</description>
      <Point>
        <coordinates>-79.38375002454349,35.65238073196552,0</coordinates>
      </Point>
    </Placemark>
    <Placemark>
      <name>Davis Jerome, Davis Tiffany</name>
      <styleUrl>#tier1</styleUrl>
      <description>&lt;b&gt;Tier 1&lt;/b&gt; | Score: 96&lt;br&gt;Owner: Davis Jerome, Davis Tiffany&lt;br&gt;Address: Clarence Phillips Rd, Bennett, NC&lt;br&gt;Acreage: 17.135&lt;br&gt;APN: 3758</description>
      <Point>
        <coordinates>-79.49907544568686,35.521026390828126,0</coordinates>
      </Point>
    </Placemark>
    <Placemark>
      <name>2023 Kester Family Trust, Kester</name>
      <styleUrl>#tier1</styleUrl>
      <description>&lt;b&gt;Tier 1&lt;/b&gt; | Score: 96&lt;br&gt;Owner: 2023 Kester Family Trust, Kester&lt;br&gt;Address: Goldston Carbonton Rd, Pittsboro, NC&lt;br&gt;Acreage: 43.058&lt;br&gt;APN: 84843</description>
      <Point>
        <coordinates>-79.32738644784314,35.55449935167591,0</coordinates>
      </Point>
    </Placemark>
    <Placemark>
      <name>Brooks Dianne C</name>
      <styleUrl>#tier1</styleUrl>
      <description>&lt;b&gt;Tier 1&lt;/b&gt; | Score: 96&lt;br&gt;Owner: Brooks Dianne C&lt;br&gt;Address: Joe Brown Rd, Siler City, NC&lt;br&gt;Acreage: 13.381&lt;br&gt;APN: 61124</description>
      <Point>
        <coordinates>-79.48285439849988,35.65787172667913,0</coordinates>
      </Point>
    </Placemark>
    <Placemark>
      <name>Olive Joshua E, Olive Olympia</name>
      <styleUrl>#tier1</styleUrl>
      <description>&lt;b&gt;Tier 1&lt;/b&gt; | Score: 96&lt;br&gt;Owner: Olive Joshua E, Olive Olympia&lt;br&gt;Address: Buteo Rdg, Pittsboro, NC&lt;br&gt;Acreage: 10.733&lt;br&gt;APN: 80853</description>
      <Point>
        <coordinates>-79.10512047635135,35.755161942433254,0</coordinates>
      </Point>
    </Placemark>
    <Placemark>
      <name>Raymond Wilfred E</name>
      <styleUrl>#tier1</styleUrl>
      <description>&lt;b&gt;Tier 1&lt;/b&gt; | Score: 96&lt;br&gt;Owner: Raymond Wilfred E&lt;br&gt;Address: Hatley Rd, Siler City, NC&lt;br&gt;Acreage: 10.02&lt;br&gt;APN: 72103</description>
      <Point>
        <coordinates>-79.06653938774062,35.75617609707655,0</coordinates>
      </Point>
    </Placemark>
    <Placemark>
      <name>Alston Henry C</name>
      <styleUrl>#tier1</styleUrl>
      <description>&lt;b&gt;Tier 1&lt;/b&gt; | Score: 96&lt;br&gt;Owner: Alston Henry C&lt;br&gt;Address: Harold Andrews Rd, Siler City, NC&lt;br&gt;Acreage: 40.86&lt;br&gt;APN: 13797</description>
      <Point>
        <coordinates>-79.45744663503521,35.745593680664555,0</coordinates>
      </Point>
    </Placemark>
    <Placemark>
      <name>Teague Bobby B, Teague Patricia D</name>
      <styleUrl>#tier1</styleUrl>
      <description>&lt;b&gt;Tier 1&lt;/b&gt; | Score: 96&lt;br&gt;Owner: Teague Bobby B, Teague Patricia D&lt;br&gt;Address: Silk Hope Liberty Rd, Siler City, NC&lt;br&gt;Acreage: 13.794&lt;br&gt;APN: 519</description>
      <Point>
        <coordinates>-79.45230180108732,35.8155856082777,0</coordinates>
      </Point>
    </Placemark>
    <Placemark>
      <name>Tyner Everette Earl</name>
      <styleUrl>#tier1</styleUrl>
      <description>&lt;b&gt;Tier 1&lt;/b&gt; | Score: 96&lt;br&gt;Owner: Tyner Everette Earl&lt;br&gt;Address: N Carolina Highway 902, Bennett, NC&lt;br&gt;Acreage: 33.39&lt;br&gt;APN: 3446</description>
      <Point>
        <coordinates>-79.52406522220991,35.55176627950291,0</coordinates>
      </Point>
    </Placemark>
    <Placemark>
      <name>Ward William Paul, Ward Tracie B</name>
      <styleUrl>#tier1</styleUrl>
      <description>&lt;b&gt;Tier 1&lt;/b&gt; | Score: 96&lt;br&gt;Owner: Ward William Paul, Ward Tracie B&lt;br&gt;Address: Moons Chapel Rd, Pittsboro, NC&lt;br&gt;Acreage: 13.76&lt;br&gt;APN: 83213</description>
      <Point>
        <coordinates>-79.54510571842172,35.73101462575873,0</coordinates>
      </Point>
    </Placemark>
    <Placemark>
      <name>Smith Walter Jack, Smith Janie Trogdon</name>
      <styleUrl>#tier1</styleUrl>
      <description>&lt;b&gt;Tier 1&lt;/b&gt; | Score: 96&lt;br&gt;Owner: Smith Walter Jack, Smith Janie Trogdon&lt;br&gt;Address: Cooper Rd, Siler City, NC&lt;br&gt;Acreage: 28.22&lt;br&gt;APN: 89584</description>
      <Point>
        <coordinates>-79.54171520415284,35.819318123318126,0</coordinates>
      </Point>
    </Placemark>
    <Placemark>
      <name>Vaughn Tommy B</name>
      <styleUrl>#tier1</styleUrl>
      <description>&lt;b&gt;Tier 1&lt;/b&gt; | Score: 96&lt;br&gt;Owner: Vaughn Tommy B&lt;br&gt;Address: Nc Hwy 42, Moncure, NC&lt;br&gt;Acreage: 10.89&lt;br&gt;APN: 5193</description>
      <Point>
        <coordinates>-79.018533574094,35.55155694783198,0</coordinates>
      </Point>
    </Placemark>
    <Placemark>
      <name>Atkins Betty Ann C</name>
      <styleUrl>#tier1</styleUrl>
      <description>&lt;b&gt;Tier 1&lt;/b&gt; | Score: 96&lt;br&gt;Owner: Atkins Betty Ann C&lt;br&gt;Address: Hogan Farm Rd, Apex, NC&lt;br&gt;Acreage: 26.43&lt;br&gt;APN: 60469</description>
      <Point>
        <coordinates>-78.98592661806337,35.781668311757734,0</coordinates>
      </Point>
    </Placemark>
    <Placemark>
      <name>Little Lunell D, Little Arey C</name>
      <styleUrl>#tier1</styleUrl>
      <description>&lt;b&gt;Tier 1&lt;/b&gt; | Score: 96&lt;br&gt;Owner: Little Lunell D, Little Arey C&lt;br&gt;Address: Ellis Rd, Moncure, NC&lt;br&gt;Acreage: 13.5&lt;br&gt;APN: 5425</description>
      <Point>
        <coordinates>-78.99625654187261,35.56789703342544,0</coordinates>
      </Point>
    </Placemark>
    <Placemark>
      <name>Reitzel Patricia, Brown Mildred T</name>
      <styleUrl>#tier1</styleUrl>
      <description>&lt;b&gt;Tier 1&lt;/b&gt; | Score: 96&lt;br&gt;Owner: Reitzel Patricia, Brown Mildred T&lt;br&gt;Address: Pete Roberson Rd, Pittsboro, NC&lt;br&gt;Acreage: 33.5&lt;br&gt;APN: 6398</description>
      <Point>
        <coordinates>-79.21833776186283,35.663606755096005,0</coordinates>
      </Point>
    </Placemark>
    <Placemark>
      <name>Kendall Jonathan L, Kendall Tina S</name>
      <styleUrl>#tier1</styleUrl>
      <description>&lt;b&gt;Tier 1&lt;/b&gt; | Score: 96&lt;br&gt;Owner: Kendall Jonathan L, Kendall Tina S&lt;br&gt;Address: Hamlets Chapel Rd, Pittsboro, NC&lt;br&gt;Acreage: 18.002&lt;br&gt;APN: 1794</description>
      <Point>
        <coordinates>-79.14667994765753,35.79898316305145,0</coordinates>
      </Point>
    </Placemark>
    <Placemark>
      <name>Hunter William Tyson</name>
      <styleUrl>#tier1</styleUrl>
      <description>&lt;b&gt;Tier 1&lt;/b&gt; | Score: 96&lt;br&gt;Owner: Hunter William Tyson&lt;br&gt;Address: 4686 Manns Chapel Rd, Chapel Hill, NC&lt;br&gt;Acreage: 15.19&lt;br&gt;APN: 2692</description>
      <Point>
        <coordinates>-79.0999295298219,35.84358110577422,0</coordinates>
      </Point>
    </Placemark>
    <Placemark>
      <name>Reynolds Avent Ann, Reynolds John John</name>
      <styleUrl>#tier1</styleUrl>
      <description>&lt;b&gt;Tier 1&lt;/b&gt; | Score: 96&lt;br&gt;Owner: Reynolds Avent Ann, Reynolds John John&lt;br&gt;Address: New Elam Church Rd, Pittsboro, NC&lt;br&gt;Acreage: 24.8&lt;br&gt;APN: 71763</description>
      <Point>
        <coordinates>-79.01509020511465,35.64277957707732,0</coordinates>
      </Point>
    </Placemark>
    <Placemark>
      <name>Dezern John</name>
      <styleUrl>#tier1</styleUrl>
      <description>&lt;b&gt;Tier 1&lt;/b&gt; | Score: 96&lt;br&gt;Owner: Dezern John&lt;br&gt;Address: Mt View Church Rd, Moncure, NC&lt;br&gt;Acreage: 16.56&lt;br&gt;APN: 11013</description>
      <Point>
        <coordinates>-79.15391658705546,35.651896337382524,0</coordinates>
      </Point>
    </Placemark>
    <Placemark>
      <name>Grimes John Thomas, Grimes Alysia H</name>
      <styleUrl>#tier1</styleUrl>
      <description>&lt;b&gt;Tier 1&lt;/b&gt; | Score: 96&lt;br&gt;Owner: Grimes John Thomas, Grimes Alysia H&lt;br&gt;Address: Mt Vernon Springs Rd, Siler City, NC&lt;br&gt;Acreage: 31.93&lt;br&gt;APN: 14777</description>
      <Point>
        <coordinates>-79.42983312534895,35.66883647765353,0</coordinates>
      </Point>
    </Placemark>
    <Placemark>
      <name>Crosby Rawland P, Crosby Florilia L</name>
      <styleUrl>#tier1</styleUrl>
      <description>&lt;b&gt;Tier 1&lt;/b&gt; | Score: 96&lt;br&gt;Owner: Crosby Rawland P, Crosby Florilia L&lt;br&gt;Address: Mt View Church Rd, Moncure, NC&lt;br&gt;Acreage: 10.908&lt;br&gt;APN: 11012</description>
      <Point>
        <coordinates>-79.15640116418746,35.64798246601734,0</coordinates>
      </Point>
    </Placemark>
    <Placemark>
      <name>Adams William E</name>
      <styleUrl>#tier1</styleUrl>
      <description>&lt;b&gt;Tier 1&lt;/b&gt; | Score: 96&lt;br&gt;Owner: Adams William E&lt;br&gt;Address: Old Us # 1, New Hill, NC&lt;br&gt;Acreage: 40.57&lt;br&gt;APN: 5687</description>
      <Point>
        <coordinates>-79.00480010556258,35.656279461671886,0</coordinates>
      </Point>
    </Placemark>
    <Placemark>
      <name>Bontemps Living Trust, Bontemps</name>
      <styleUrl>#tier1</styleUrl>
      <description>&lt;b&gt;Tier 1&lt;/b&gt; | Score: 96&lt;br&gt;Owner: Bontemps Living Trust, Bontemps&lt;br&gt;Address: 554 Bannockburn Way, Siler City, NC&lt;br&gt;Acreage: 12.47&lt;br&gt;APN: 85776</description>
      <Point>
        <coordinates>-79.30661584414923,35.80237329166134,0</coordinates>
      </Point>
    </Placemark>
    <Placemark>
      <name>Daprix Chanel Hart</name>
      <styleUrl>#tier1</styleUrl>
      <description>&lt;b&gt;Tier 1&lt;/b&gt; | Score: 96&lt;br&gt;Owner: Daprix Chanel Hart&lt;br&gt;Address: 626 Revmont Dr, Pittsboro, NC&lt;br&gt;Acreage: 10.02&lt;br&gt;APN: 78556</description>
      <Point>
        <coordinates>-79.19677157419056,35.781021444951605,0</coordinates>
      </Point>
    </Placemark>
    <Placemark>
      <name>Nguyen Vincent H, Taylor Angela S</name>
      <styleUrl>#tier1</styleUrl>
      <description>&lt;b&gt;Tier 1&lt;/b&gt; | Score: 96&lt;br&gt;Owner: Nguyen Vincent H, Taylor Angela S&lt;br&gt;Address: 49 Cannon Rd, Pittsboro, NC&lt;br&gt;Acreage: 10.107&lt;br&gt;APN: 87509</description>
      <Point>
        <coordinates>-78.98054109798264,35.731508187571066,0</coordinates>
      </Point>
    </Placemark>
    <Placemark>
      <name>Towle Neil, Towle Alison</name>
      <styleUrl>#tier1</styleUrl>
      <description>&lt;b&gt;Tier 1&lt;/b&gt; | Score: 96&lt;br&gt;Owner: Towle Neil, Towle Alison&lt;br&gt;Address: Emerson Cook Rd, Pittsboro, NC&lt;br&gt;Acreage: 16.07&lt;br&gt;APN: 71870</description>
      <Point>
        <coordinates>-79.28451592865528,35.80296387014562,0</coordinates>
      </Point>
    </Placemark>
    <Placemark>
      <name>Lobisser Carol A, Bloodgood James</name>
      <styleUrl>#tier1</styleUrl>
      <description>&lt;b&gt;Tier 1&lt;/b&gt; | Score: 96&lt;br&gt;Owner: Lobisser Carol A, Bloodgood James&lt;br&gt;Address: 934 Mark Willett Rd, Bear Creek, NC&lt;br&gt;Acreage: 21.34&lt;br&gt;APN: 8961</description>
      <Point>
        <coordinates>-79.34485575475071,35.63024755540424,0</coordinates>
      </Point>
    </Placemark>
    <Placemark>
      <name>Murchison Lucy Ann</name>
      <styleUrl>#tier1</styleUrl>
      <description>&lt;b&gt;Tier 1&lt;/b&gt; | Score: 96&lt;br&gt;Owner: Murchison Lucy Ann&lt;br&gt;Address: Bear Creek Church Rd, Bear Creek, NC&lt;br&gt;Acreage: 38.1&lt;br&gt;APN: 9453</description>
      <Point>
        <coordinates>-79.34381620679096,35.600937079171466,0</coordinates>
      </Point>
    </Placemark>
    <Placemark>
      <name>Metcalf-beam Family Irrevocable Real Estate T</name>
      <styleUrl>#tier1</styleUrl>
      <description>&lt;b&gt;Tier 1&lt;/b&gt; | Score: 96&lt;br&gt;Owner: Metcalf-beam Family Irrevocable Real Estate T&lt;br&gt;Address: Nc 87 N, Siler City, NC&lt;br&gt;Acreage: 19.527&lt;br&gt;APN: 65078</description>
      <Point>
        <coordinates>-79.2623679810838,35.82135728140341,0</coordinates>
      </Point>
    </Placemark>
    <Placemark>
      <name>Moody Douglas E</name>
      <styleUrl>#tier1</styleUrl>
      <description>&lt;b&gt;Tier 1&lt;/b&gt; | Score: 96&lt;br&gt;Owner: Moody Douglas E&lt;br&gt;Address: Old Us 421 S, Siler City, NC&lt;br&gt;Acreage: 19.92&lt;br&gt;APN: 14939</description>
      <Point>
        <coordinates>-79.42748767929044,35.67280317388917,0</coordinates>
      </Point>
    </Placemark>
    <Placemark>
      <name>Haulsey Annette W</name>
      <styleUrl>#tier1</styleUrl>
      <description>&lt;b&gt;Tier 1&lt;/b&gt; | Score: 96&lt;br&gt;Owner: Haulsey Annette W&lt;br&gt;Address: Baker Rd, Goldston, NC&lt;br&gt;Acreage: 13.4&lt;br&gt;APN: 9757</description>
      <Point>
        <coordinates>-79.2897920076611,35.57108686503129,0</coordinates>
      </Point>
    </Placemark>
    <Placemark>
      <name>Watts David A</name>
      <styleUrl>#tier1</styleUrl>
      <description>&lt;b&gt;Tier 1&lt;/b&gt; | Score: 96&lt;br&gt;Owner: Watts David A&lt;br&gt;Address: Us 421 S, Bear Creek, NC&lt;br&gt;Acreage: 14.688&lt;br&gt;APN: 72761</description>
      <Point>
        <coordinates>-79.28935498508717,35.55830257176004,0</coordinates>
      </Point>
    </Placemark>
    <Placemark>
      <name>Coe  Melisssa F</name>
      <styleUrl>#tier1</styleUrl>
      <description>&lt;b&gt;Tier 1&lt;/b&gt; | Score: 96&lt;br&gt;Owner: Coe  Melisssa F&lt;br&gt;Address: Terapin Slide Rd, Staley, NC&lt;br&gt;Acreage: 40.0&lt;br&gt;APN: 176</description>
      <Point>
        <coordinates>-79.52966861119332,35.803352416119196,0</coordinates>
      </Point>
    </Placemark>
    <Placemark>
      <name>Camp James E</name>
      <styleUrl>#tier1</styleUrl>
      <description>&lt;b&gt;Tier 1&lt;/b&gt; | Score: 96&lt;br&gt;Owner: Camp James E&lt;br&gt;Address: River Forks Rd, Sanford, NC&lt;br&gt;Acreage: 42.1&lt;br&gt;APN: 18567</description>
      <Point>
        <coordinates>-79.16492329689966,35.61782202558618,0</coordinates>
      </Point>
    </Placemark>
    <Placemark>
      <name>Herring Hilton</name>
      <styleUrl>#tier1</styleUrl>
      <description>&lt;b&gt;Tier 1&lt;/b&gt; | Score: 96&lt;br&gt;Owner: Herring Hilton&lt;br&gt;Address: 770 Marshall Rd, Pittsboro, NC&lt;br&gt;Acreage: 10.69&lt;br&gt;APN: 60081</description>
      <Point>
        <coordinates>-79.23268971469719,35.81318273325783,0</coordinates>
      </Point>
    </Placemark>
    <Placemark>
      <name>Clayton Michael Lynn, Clayton Bethany Crabtree</name>
      <styleUrl>#tier1</styleUrl>
      <description>&lt;b&gt;Tier 1&lt;/b&gt; | Score: 96&lt;br&gt;Owner: Clayton Michael Lynn, Clayton Bethany Crabtree&lt;br&gt;Address: Us 421 S, Pittsboro, NC&lt;br&gt;Acreage: 15.092&lt;br&gt;APN: 65437</description>
      <Point>
        <coordinates>-79.32605250877926,35.60704201253337,0</coordinates>
      </Point>
    </Placemark>
    <Placemark>
      <name>Goldston Agnes Bailey</name>
      <styleUrl>#tier1</styleUrl>
      <description>&lt;b&gt;Tier 1&lt;/b&gt; | Score: 96&lt;br&gt;Owner: Goldston Agnes Bailey&lt;br&gt;Address: Gum Springs Church Rd, Pittsboro, NC&lt;br&gt;Acreage: 30.0&lt;br&gt;APN: 90450</description>
      <Point>
        <coordinates>-79.10684202146872,35.650224594367245,0</coordinates>
      </Point>
    </Placemark>
    <Placemark>
      <name>Austin Patsy Carol</name>
      <styleUrl>#tier1</styleUrl>
      <description>&lt;b&gt;Tier 1&lt;/b&gt; | Score: 96&lt;br&gt;Owner: Austin Patsy Carol&lt;br&gt;Address: Airport Rd, Siler City, NC&lt;br&gt;Acreage: 16.199&lt;br&gt;APN: 13370</description>
      <Point>
        <coordinates>-79.51651382927739,35.667891314340274,0</coordinates>
      </Point>
    </Placemark>
    <Placemark>
      <name>Briggs Council Alan, Briggs Helen Council</name>
      <styleUrl>#tier1</styleUrl>
      <description>&lt;b&gt;Tier 1&lt;/b&gt; | Score: 96&lt;br&gt;Owner: Briggs Council Alan, Briggs Helen Council&lt;br&gt;Address: Hortons Pond Rd, Apex, NC&lt;br&gt;Acreage: 24.58&lt;br&gt;APN: 64267</description>
      <Point>
        <coordinates>-78.9756391809569,35.76627159299326,0</coordinates>
      </Point>
    </Placemark>
    <Placemark>
      <name>Johnson  Faydeene R</name>
      <styleUrl>#tier1</styleUrl>
      <description>&lt;b&gt;Tier 1&lt;/b&gt; | Score: 96&lt;br&gt;Owner: Johnson  Faydeene R&lt;br&gt;Address: N Richardson Rd, Siler City, NC&lt;br&gt;Acreage: 16.0&lt;br&gt;APN: 14427</description>
      <Point>
        <coordinates>-79.44618093108004,35.745291201085024,0</coordinates>
      </Point>
    </Placemark>
    <Placemark>
      <name>Moore-thomas Janice W</name>
      <styleUrl>#tier1</styleUrl>
      <description>&lt;b&gt;Tier 1&lt;/b&gt; | Score: 96&lt;br&gt;Owner: Moore-thomas Janice W&lt;br&gt;Address: Henry Oldham Rd, Bear Creek, NC&lt;br&gt;Acreage: 16.544&lt;br&gt;APN: 60928</description>
      <Point>
        <coordinates>-79.27557473965447,35.59106966558828,0</coordinates>
      </Point>
    </Placemark>
    <Placemark>
      <name>Wilson Ruth</name>
      <styleUrl>#tier1</styleUrl>
      <description>&lt;b&gt;Tier 1&lt;/b&gt; | Score: 96&lt;br&gt;Owner: Wilson Ruth&lt;br&gt;Address: Wilson Rd, Apex, NC&lt;br&gt;Acreage: 14.31&lt;br&gt;APN: 19905</description>
      <Point>
        <coordinates>-78.95457223221665,35.81561641191287,0</coordinates>
      </Point>
    </Placemark>
    <Placemark>
      <name>Moore Keith, Moore Miranda</name>
      <styleUrl>#tier1</styleUrl>
      <description>&lt;b&gt;Tier 1&lt;/b&gt; | Score: 96&lt;br&gt;Owner: Moore Keith, Moore Miranda&lt;br&gt;Address: Jessie Bridges Rd, Pittsboro, NC&lt;br&gt;Acreage: 12.116&lt;br&gt;APN: 71456</description>
      <Point>
        <coordinates>-79.41867965790809,35.772810334220985,0</coordinates>
      </Point>
    </Placemark>
    <Placemark>
      <name>Collier Martha Lee, Betton Adriano</name>
      <styleUrl>#tier1</styleUrl>
      <description>&lt;b&gt;Tier 1&lt;/b&gt; | Score: 96&lt;br&gt;Owner: Collier Martha Lee, Betton Adriano&lt;br&gt;Address: Medina Ln, Chapel Hill, NC&lt;br&gt;Acreage: 15.36&lt;br&gt;APN: 75449</description>
      <Point>
        <coordinates>-79.20980191643712,35.8386610066554,0</coordinates>
      </Point>
    </Placemark>
    <Placemark>
      <name>Cox Gerald F, Cox Amy Denise</name>
      <styleUrl>#tier1</styleUrl>
      <description>&lt;b&gt;Tier 1&lt;/b&gt; | Score: 96&lt;br&gt;Owner: Cox Gerald F, Cox Amy Denise&lt;br&gt;Address: Everett Dowdy Rd, Moncure, NC&lt;br&gt;Acreage: 10.089&lt;br&gt;APN: 67251</description>
      <Point>
        <coordinates>-79.23892363943565,35.57111069337982,0</coordinates>
      </Point>
    </Placemark>
    <Placemark>
      <name>Metcalf-beam Family Irrevocable Real Estate T</name>
      <styleUrl>#tier1</styleUrl>
      <description>&lt;b&gt;Tier 1&lt;/b&gt; | Score: 96&lt;br&gt;Owner: Metcalf-beam Family Irrevocable Real Estate T&lt;br&gt;Address: Pete Thomas Rd, Siler City, NC&lt;br&gt;Acreage: 14.98&lt;br&gt;APN: 75816</description>
      <Point>
        <coordinates>-79.27278747719718,35.842130344712004,0</coordinates>
      </Point>
    </Placemark>
    <Placemark>
      <name>Perry Heirs Fannie</name>
      <styleUrl>#tier1</styleUrl>
      <description>&lt;b&gt;Tier 1&lt;/b&gt; | Score: 96&lt;br&gt;Owner: Perry Heirs Fannie&lt;br&gt;Address: Saralyn Rd, Pittsboro, NC&lt;br&gt;Acreage: 28.59&lt;br&gt;APN: 6521</description>
      <Point>
        <coordinates>-79.18122144067827,35.7792584654307,0</coordinates>
      </Point>
    </Placemark>
    <Placemark>
      <name>Wasserman Powers Cheryl</name>
      <styleUrl>#tier1</styleUrl>
      <description>&lt;b&gt;Tier 1&lt;/b&gt; | Score: 96&lt;br&gt;Owner: Wasserman Powers Cheryl&lt;br&gt;Address: Ed Clapp Rd, Snow Camp, NC&lt;br&gt;Acreage: 26.0&lt;br&gt;APN: 60052</description>
      <Point>
        <coordinates>-79.47356040815134,35.78193264223866,0</coordinates>
      </Point>
    </Placemark>
    <Placemark>
      <name>Equity Trust Cust</name>
      <styleUrl>#tier1</styleUrl>
      <description>&lt;b&gt;Tier 1&lt;/b&gt; | Score: 96&lt;br&gt;Owner: Equity Trust Cust&lt;br&gt;Address: Moncure Pittsboro Rd, Moncure, NC&lt;br&gt;Acreage: 29.0&lt;br&gt;APN: 11171</description>
      <Point>
        <coordinates>-79.1059237196105,35.65216490431434,0</coordinates>
      </Point>
    </Placemark>
    <Placemark>
      <name>Johnson Shirley E</name>
      <styleUrl>#tier1</styleUrl>
      <description>&lt;b&gt;Tier 1&lt;/b&gt; | Score: 96&lt;br&gt;Owner: Johnson Shirley E&lt;br&gt;Address: Walter Bright Rd, Sanford, NC&lt;br&gt;Acreage: 21.5&lt;br&gt;APN: 18419</description>
      <Point>
        <coordinates>-79.19608400586631,35.587473557157615,0</coordinates>
      </Point>
    </Placemark>
    <Placemark>
      <name>Ellis James Douglas</name>
      <styleUrl>#tier1</styleUrl>
      <description>&lt;b&gt;Tier 1&lt;/b&gt; | Score: 96&lt;br&gt;Owner: Ellis James Douglas&lt;br&gt;Address: Barker Rd, Pittsboro, NC&lt;br&gt;Acreage: 12.68&lt;br&gt;APN: 66100</description>
      <Point>
        <coordinates>-79.3751951132458,35.635920678976056,0</coordinates>
      </Point>
    </Placemark>
    <Placemark>
      <name>Stout Martha Teague</name>
      <styleUrl>#tier1</styleUrl>
      <description>&lt;b&gt;Tier 1&lt;/b&gt; | Score: 96&lt;br&gt;Owner: Stout Martha Teague&lt;br&gt;Address: Ernest Teague Rd, Siler City, NC&lt;br&gt;Acreage: 33.07&lt;br&gt;APN: 464</description>
      <Point>
        <coordinates>-79.47612190408204,35.84011985403667,0</coordinates>
      </Point>
    </Placemark>
    <Placemark>
      <name>Buchanan Phyllis Tilley</name>
      <styleUrl>#tier1</styleUrl>
      <description>&lt;b&gt;Tier 1&lt;/b&gt; | Score: 96&lt;br&gt;Owner: Buchanan Phyllis Tilley&lt;br&gt;Address: 2361 Corinth Rd, Moncure, NC&lt;br&gt;Acreage: 46.8&lt;br&gt;APN: 5751</description>
      <Point>
        <coordinates>-79.03044653828061,35.59349470289955,0</coordinates>
      </Point>
    </Placemark>
    <Placemark>
      <name>Willis Robert J, Norman Rebecca L</name>
      <styleUrl>#tier1</styleUrl>
      <description>&lt;b&gt;Tier 1&lt;/b&gt; | Score: 96&lt;br&gt;Owner: Willis Robert J, Norman Rebecca L&lt;br&gt;Address: Deercorn Path, Pittsboro, NC&lt;br&gt;Acreage: 11.153&lt;br&gt;APN: 78298</description>
      <Point>
        <coordinates>-79.1447187878849,35.62423052729649,0</coordinates>
      </Point>
    </Placemark>
    <Placemark>
      <name>Neal David Michael, Neal Joan P</name>
      <styleUrl>#tier1</styleUrl>
      <description>&lt;b&gt;Tier 1&lt;/b&gt; | Score: 96&lt;br&gt;Owner: Neal David Michael, Neal Joan P&lt;br&gt;Address: N Carolina Highway 42, Pittsboro, NC&lt;br&gt;Acreage: 10.3&lt;br&gt;APN: 71451</description>
      <Point>
        <coordinates>-79.4529527637606,35.52353700392685,0</coordinates>
      </Point>
    </Placemark>
    <Placemark>
      <name>Phillips Roland M</name>
      <styleUrl>#tier1</styleUrl>
      <description>&lt;b&gt;Tier 1&lt;/b&gt; | Score: 96&lt;br&gt;Owner: Phillips Roland M&lt;br&gt;Address: Winfred Brady Rd, Bennett, NC&lt;br&gt;Acreage: 14.6&lt;br&gt;APN: 3787</description>
      <Point>
        <coordinates>-79.49069632698506,35.53571374921462,0</coordinates>
      </Point>
    </Placemark>
    <Placemark>
      <name>Cunningham Deborah W, Womble James I</name>
      <styleUrl>#tier1</styleUrl>
      <description>&lt;b&gt;Tier 1&lt;/b&gt; | Score: 96&lt;br&gt;Owner: Cunningham Deborah W, Womble James I&lt;br&gt;Address: Alex Cockman Rd, Pittsboro, NC&lt;br&gt;Acreage: 46.14&lt;br&gt;APN: 12287</description>
      <Point>
        <coordinates>-79.27407206724757,35.71621602475074,0</coordinates>
      </Point>
    </Placemark>
    <Placemark>
      <name>Mann  Julian, Mann Diane Parker</name>
      <styleUrl>#tier1</styleUrl>
      <description>&lt;b&gt;Tier 1&lt;/b&gt; | Score: 96&lt;br&gt;Owner: Mann  Julian, Mann Diane Parker&lt;br&gt;Address: 714 Turtle Creek Dr, Pittsboro, NC&lt;br&gt;Acreage: 10.01&lt;br&gt;APN: 65403</description>
      <Point>
        <coordinates>-79.0642998834486,35.72774715038392,0</coordinates>
      </Point>
    </Placemark>
    <Placemark>
      <name>Smith Paul Franklin, Lare Kimberly S</name>
      <styleUrl>#tier1</styleUrl>
      <description>&lt;b&gt;Tier 1&lt;/b&gt; | Score: 96&lt;br&gt;Owner: Smith Paul Franklin, Lare Kimberly S&lt;br&gt;Address: Moons Chapel Rd, Siler City, NC&lt;br&gt;Acreage: 10.635&lt;br&gt;APN: 61106</description>
      <Point>
        <coordinates>-79.54072200386463,35.735237352653726,0</coordinates>
      </Point>
    </Placemark>
    <Placemark>
      <name>Bright David E, Bright Shelia J</name>
      <styleUrl>#tier1</styleUrl>
      <description>&lt;b&gt;Tier 1&lt;/b&gt; | Score: 96&lt;br&gt;Owner: Bright David E, Bright Shelia J&lt;br&gt;Address: Easy St, Pittsboro, NC&lt;br&gt;Acreage: 10.466&lt;br&gt;APN: 76155</description>
      <Point>
        <coordinates>-79.14700326356457,35.80698483162818,0</coordinates>
      </Point>
    </Placemark>
    <Placemark>
      <name>Bell Sandra Pate</name>
      <styleUrl>#tier1</styleUrl>
      <description>&lt;b&gt;Tier 1&lt;/b&gt; | Score: 96&lt;br&gt;Owner: Bell Sandra Pate&lt;br&gt;Address: W Third Ave, Siler City, NC&lt;br&gt;Acreage: 14.17&lt;br&gt;APN: 16166</description>
      <Point>
        <coordinates>-79.47652548856847,35.71931560358149,0</coordinates>
      </Point>
    </Placemark>
    <Placemark>
      <name>Griffin William B, Griffin Brenda M</name>
      <styleUrl>#tier1</styleUrl>
      <description>&lt;b&gt;Tier 1&lt;/b&gt; | Score: 96&lt;br&gt;Owner: Griffin William B, Griffin Brenda M&lt;br&gt;Address: Ralph Griffin Rd, Bear Creek, NC&lt;br&gt;Acreage: 14.3&lt;br&gt;APN: 9545</description>
      <Point>
        <coordinates>-79.29340735240095,35.63728133865928,0</coordinates>
      </Point>
    </Placemark>
    <Placemark>
      <name>Smith Pat Ray, Smith Margaret B</name>
      <styleUrl>#tier1</styleUrl>
      <description>&lt;b&gt;Tier 1&lt;/b&gt; | Score: 96&lt;br&gt;Owner: Smith Pat Ray, Smith Margaret B&lt;br&gt;Address: Mt View Church Rd, Moncure, NC&lt;br&gt;Acreage: 15.12&lt;br&gt;APN: 11086</description>
      <Point>
        <coordinates>-79.12986262965217,35.65033798290936,0</coordinates>
      </Point>
    </Placemark>
    <Placemark>
      <name>Fields Michael</name>
      <styleUrl>#tier1</styleUrl>
      <description>&lt;b&gt;Tier 1&lt;/b&gt; | Score: 96&lt;br&gt;Owner: Fields Michael&lt;br&gt;Address: Rives Chapel Church Rd, Siler City, NC&lt;br&gt;Acreage: 18.7&lt;br&gt;APN: 11859</description>
      <Point>
        <coordinates>-79.36000117080009,35.663952906462406,0</coordinates>
      </Point>
    </Placemark>
    <Placemark>
      <name>Browning Susan Dark, Browning Robert M</name>
      <styleUrl>#tier1</styleUrl>
      <description>&lt;b&gt;Tier 1&lt;/b&gt; | Score: 96&lt;br&gt;Owner: Browning Susan Dark, Browning Robert M&lt;br&gt;Address: Glosson Rd, Siler City, NC&lt;br&gt;Acreage: 14.07&lt;br&gt;APN: 14049</description>
      <Point>
        <coordinates>-79.46443155492466,35.693799545430366,0</coordinates>
      </Point>
    </Placemark>
    <Placemark>
      <name>Emily B Smith Irrevocable Trust, Peacock</name>
      <styleUrl>#tier1</styleUrl>
      <description>&lt;b&gt;Tier 1&lt;/b&gt; | Score: 96&lt;br&gt;Owner: Emily B Smith Irrevocable Trust, Peacock&lt;br&gt;Address: Bonlee Carbonton Rd, Bear Creek, NC&lt;br&gt;Acreage: 49.0&lt;br&gt;APN: 8584</description>
      <Point>
        <coordinates>-79.40225008935624,35.597250292313205,0</coordinates>
      </Point>
    </Placemark>
    <Placemark>
      <name>Brooks Ronald L</name>
      <styleUrl>#tier1</styleUrl>
      <description>&lt;b&gt;Tier 1&lt;/b&gt; | Score: 96&lt;br&gt;Owner: Brooks Ronald L&lt;br&gt;Address: Gilmore Lodge Rd, Siler City, NC&lt;br&gt;Acreage: 13.291&lt;br&gt;APN: 63004</description>
      <Point>
        <coordinates>-79.4061192079223,35.66767690141144,0</coordinates>
      </Point>
    </Placemark>
    <Placemark>
      <name>Albright Gaynelle C</name>
      <styleUrl>#tier1</styleUrl>
      <description>&lt;b&gt;Tier 1&lt;/b&gt; | Score: 96&lt;br&gt;Owner: Albright Gaynelle C&lt;br&gt;Address: Joe Brown Rd, Siler City, NC&lt;br&gt;Acreage: 14.651&lt;br&gt;APN: 61101</description>
      <Point>
        <coordinates>-79.48407424460416,35.65833863957522,0</coordinates>
      </Point>
    </Placemark>
    <Placemark>
      <name>Adams William C, Couch Mandy Adams</name>
      <styleUrl>#tier1</styleUrl>
      <description>&lt;b&gt;Tier 1&lt;/b&gt; | Score: 96&lt;br&gt;Owner: Adams William C, Couch Mandy Adams&lt;br&gt;Address: N Carolina Highway 902, Siler City, NC&lt;br&gt;Acreage: 32.0&lt;br&gt;APN: 12075</description>
      <Point>
        <coordinates>-79.32545324828845,35.65053230451204,0</coordinates>
      </Point>
    </Placemark>
    <Placemark>
      <name>Phillips Vaughn Linda</name>
      <styleUrl>#tier1</styleUrl>
      <description>&lt;b&gt;Tier 1&lt;/b&gt; | Score: 96&lt;br&gt;Owner: Phillips Vaughn Linda&lt;br&gt;Address: Wilson Rd, Bear Creek, NC&lt;br&gt;Acreage: 36.062&lt;br&gt;APN: 4526</description>
      <Point>
        <coordinates>-79.42130430557839,35.5422354367859,0</coordinates>
      </Point>
    </Placemark>
    <Placemark>
      <name>Umberger Polok Rebecca, Umberger Alan Thompson</name>
      <styleUrl>#tier1</styleUrl>
      <description>&lt;b&gt;Tier 1&lt;/b&gt; | Score: 96&lt;br&gt;Owner: Umberger Polok Rebecca, Umberger Alan Thompson&lt;br&gt;Address: Willie Duncan Rd, Bear Creek, NC&lt;br&gt;Acreage: 24.277&lt;br&gt;APN: 81249</description>
      <Point>
        <coordinates>-79.45816081370526,35.82776338894351,0</coordinates>
      </Point>
    </Placemark>
    <Placemark>
      <name>Gunter Harvey D, Williams Mary G</name>
      <styleUrl>#tier1</styleUrl>
      <description>&lt;b&gt;Tier 1&lt;/b&gt; | Score: 96&lt;br&gt;Owner: Gunter Harvey D, Williams Mary G&lt;br&gt;Address: Moncure Pittsboro Rd, Moncure, NC&lt;br&gt;Acreage: 26.42&lt;br&gt;APN: 7405</description>
      <Point>
        <coordinates>-79.14862566404324,35.68042224361827,0</coordinates>
      </Point>
    </Placemark>
    <Placemark>
      <name>Tyson John M</name>
      <styleUrl>#tier1</styleUrl>
      <description>&lt;b&gt;Tier 1&lt;/b&gt; | Score: 96&lt;br&gt;Owner: Tyson John M&lt;br&gt;Address: St Luke Church Rd, Goldston, NC&lt;br&gt;Acreage: 33.752&lt;br&gt;APN: 9719</description>
      <Point>
        <coordinates>-79.30488365101841,35.598514447413656,0</coordinates>
      </Point>
    </Placemark>
    <Placemark>
      <name>Thorn Wayne E, Whitten Robin</name>
      <styleUrl>#tier1</styleUrl>
      <description>&lt;b&gt;Tier 1&lt;/b&gt; | Score: 96&lt;br&gt;Owner: Thorn Wayne E, Whitten Robin&lt;br&gt;Address: 2310 Jay Shambley Rd, Pittsboro, NC&lt;br&gt;Acreage: 21.99&lt;br&gt;APN: 61977</description>
      <Point>
        <coordinates>-79.3257240398639,35.714238220445,0</coordinates>
      </Point>
    </Placemark>
    <Placemark>
      <name>Reitzel Patricia, Brown Mildred T</name>
      <styleUrl>#tier1</styleUrl>
      <description>&lt;b&gt;Tier 1&lt;/b&gt; | Score: 96&lt;br&gt;Owner: Reitzel Patricia, Brown Mildred T&lt;br&gt;Address: Nc Hwy 902, Pittsboro, NC&lt;br&gt;Acreage: 27.24&lt;br&gt;APN: 12342</description>
      <Point>
        <coordinates>-79.26823380532474,35.692816475799624,0</coordinates>
      </Point>
    </Placemark>
    <Placemark>
      <name>Cheek  Robert Vance</name>
      <styleUrl>#tier1</styleUrl>
      <description>&lt;b&gt;Tier 1&lt;/b&gt; | Score: 96&lt;br&gt;Owner: Cheek  Robert Vance&lt;br&gt;Address: Piney Grove Church Rd, Siler City, NC&lt;br&gt;Acreage: 14.9&lt;br&gt;APN: 304</description>
      <Point>
        <coordinates>-79.4958033323195,35.80956156095961,0</coordinates>
      </Point>
    </Placemark>
    <Placemark>
      <name>Nettles Lou Ann</name>
      <styleUrl>#tier1</styleUrl>
      <description>&lt;b&gt;Tier 1&lt;/b&gt; | Score: 96&lt;br&gt;Owner: Nettles Lou Ann&lt;br&gt;Address: Russell Chapel Ch Rd, Pittsboro, NC&lt;br&gt;Acreage: 47.25&lt;br&gt;APN: 6727</description>
      <Point>
        <coordinates>-79.17536552214348,35.764928796476525,0</coordinates>
      </Point>
    </Placemark>
    <Placemark>
      <name>Totten Shirley G</name>
      <styleUrl>#tier1</styleUrl>
      <description>&lt;b&gt;Tier 1&lt;/b&gt; | Score: 96&lt;br&gt;Owner: Totten Shirley G&lt;br&gt;Address: Glovers Church Rd, Bear Creek, NC&lt;br&gt;Acreage: 10.0&lt;br&gt;APN: 60356</description>
      <Point>
        <coordinates>-79.52064360064196,35.60419603878924,0</coordinates>
      </Point>
    </Placemark>
    <Placemark>
      <name>Marsh Julia, Marsh Vincent</name>
      <styleUrl>#tier1</styleUrl>
      <description>&lt;b&gt;Tier 1&lt;/b&gt; | Score: 96&lt;br&gt;Owner: Marsh Julia, Marsh Vincent&lt;br&gt;Address: Mitchells Chapel Rd, Pittsboro, NC&lt;br&gt;Acreage: 10.0&lt;br&gt;APN: 6142</description>
      <Point>
        <coordinates>-79.22681896268716,35.751769844685,0</coordinates>
      </Point>
    </Placemark>
    <Placemark>
      <name>Gunter Ricky Darrell, Gunter Jill H</name>
      <styleUrl>#tier1</styleUrl>
      <description>&lt;b&gt;Tier 1&lt;/b&gt; | Score: 96&lt;br&gt;Owner: Gunter Ricky Darrell, Gunter Jill H&lt;br&gt;Address: Bear Creek Church Rd, Bear Creek, NC&lt;br&gt;Acreage: 11.6&lt;br&gt;APN: 8643</description>
      <Point>
        <coordinates>-79.3887213635567,35.595604264016245,0</coordinates>
      </Point>
    </Placemark>
    <Placemark>
      <name>Mcmasters Barbara H, Glosson Linda H</name>
      <styleUrl>#tier1</styleUrl>
      <description>&lt;b&gt;Tier 1&lt;/b&gt; | Score: 96&lt;br&gt;Owner: Mcmasters Barbara H, Glosson Linda H&lt;br&gt;Address: Chapel Ch Rd, Pittsboro, NC&lt;br&gt;Acreage: 29.83&lt;br&gt;APN: 6559</description>
      <Point>
        <coordinates>-79.17310416383168,35.75966360312539,0</coordinates>
      </Point>
    </Placemark>
    <Placemark>
      <name>Pilkington Michael W, Pilkington Anne T</name>
      <styleUrl>#tier1</styleUrl>
      <description>&lt;b&gt;Tier 1&lt;/b&gt; | Score: 96&lt;br&gt;Owner: Pilkington Michael W, Pilkington Anne T&lt;br&gt;Address: Mays Chapel Rd, Bear Creek, NC&lt;br&gt;Acreage: 38.005&lt;br&gt;APN: 10304</description>
      <Point>
        <coordinates>-79.24271966486245,35.63395576772429,0</coordinates>
      </Point>
    </Placemark>
    <Placemark>
      <name>Carroll Christopher Lee, Carroll Timothy R</name>
      <styleUrl>#tier1</styleUrl>
      <description>&lt;b&gt;Tier 1&lt;/b&gt; | Score: 96&lt;br&gt;Owner: Carroll Christopher Lee, Carroll Timothy R&lt;br&gt;Address: Devils Tramping Ground Dr, Bear Creek, NC&lt;br&gt;Acreage: 13.178&lt;br&gt;APN: 75910</description>
      <Point>
        <coordinates>-79.48806465071473,35.585349734988235,0</coordinates>
      </Point>
    </Placemark>
    <Placemark>
      <name>Moore Brian Kent, Sanchez-gill Danielle Nicole</name>
      <styleUrl>#tier1</styleUrl>
      <description>&lt;b&gt;Tier 1&lt;/b&gt; | Score: 96&lt;br&gt;Owner: Moore Brian Kent, Sanchez-gill Danielle Nicole&lt;br&gt;Address: Henry Oldham Rd, Bear Creek, NC&lt;br&gt;Acreage: 44.0&lt;br&gt;APN: 10040</description>
      <Point>
        <coordinates>-79.27762271738797,35.58934241804508,0</coordinates>
      </Point>
    </Placemark>
    <Placemark>
      <name>Collins Laura Anne, Johnson Luanne M</name>
      <styleUrl>#tier1</styleUrl>
      <description>&lt;b&gt;Tier 1&lt;/b&gt; | Score: 96&lt;br&gt;Owner: Collins Laura Anne, Johnson Luanne M&lt;br&gt;Address: Nc 902 Hwy, Goldston, NC&lt;br&gt;Acreage: 45.096&lt;br&gt;APN: 60908</description>
      <Point>
        <coordinates>-79.37393572524559,35.628678207883056,0</coordinates>
      </Point>
    </Placemark>
    <Placemark>
      <name>Pilkington Michael, Pilkington Anne</name>
      <styleUrl>#tier1</styleUrl>
      <description>&lt;b&gt;Tier 1&lt;/b&gt; | Score: 96&lt;br&gt;Owner: Pilkington Michael, Pilkington Anne&lt;br&gt;Address: Mays Chapel Rd, Bear Creek, NC&lt;br&gt;Acreage: 38.94&lt;br&gt;APN: 10318</description>
      <Point>
        <coordinates>-79.23984755993106,35.633671145969124,0</coordinates>
      </Point>
    </Placemark>
    <Placemark>
      <name>Greene Richard V, Greene Julie J</name>
      <styleUrl>#tier1</styleUrl>
      <description>&lt;b&gt;Tier 1&lt;/b&gt; | Score: 96&lt;br&gt;Owner: Greene Richard V, Greene Julie J&lt;br&gt;Address: N Carolina Highway 902, Bennett, NC&lt;br&gt;Acreage: 30.0&lt;br&gt;APN: 3389</description>
      <Point>
        <coordinates>-79.53414653115884,35.54927151797196,0</coordinates>
      </Point>
    </Placemark>
    <Placemark>
      <name>Squires Jennifer Kate</name>
      <styleUrl>#tier1</styleUrl>
      <description>&lt;b&gt;Tier 1&lt;/b&gt; | Score: 96&lt;br&gt;Owner: Squires Jennifer Kate&lt;br&gt;Address: 406 Big Dusty, Pittsboro, NC&lt;br&gt;Acreage: 11.0&lt;br&gt;APN: 79833</description>
      <Point>
        <coordinates>-79.246087351719,35.66053248517949,0</coordinates>
      </Point>
    </Placemark>
    <Placemark>
      <name>Self Joanne J, Self Ostia Ralph</name>
      <styleUrl>#tier1</styleUrl>
      <description>&lt;b&gt;Tier 1&lt;/b&gt; | Score: 96&lt;br&gt;Owner: Self Joanne J, Self Ostia Ralph&lt;br&gt;Address: Center Church Rd, Pittsboro, NC&lt;br&gt;Acreage: 42.0&lt;br&gt;APN: 78757</description>
      <Point>
        <coordinates>-79.33344270289501,35.84310727623625,0</coordinates>
      </Point>
    </Placemark>
    <Placemark>
      <name>Meacham Eddie Hubert</name>
      <styleUrl>#tier1</styleUrl>
      <description>&lt;b&gt;Tier 1&lt;/b&gt; | Score: 96&lt;br&gt;Owner: Meacham Eddie Hubert&lt;br&gt;Address: Gilmore Rd, Chapel Hill, NC&lt;br&gt;Acreage: 35.0&lt;br&gt;APN: 2221</description>
      <Point>
        <coordinates>-79.1308891875986,35.85540401439055,0</coordinates>
      </Point>
    </Placemark>
    <Placemark>
      <name>Perry Ethan Wesley, Perry Bevin Briana</name>
      <styleUrl>#tier1</styleUrl>
      <description>&lt;b&gt;Tier 1&lt;/b&gt; | Score: 96&lt;br&gt;Owner: Perry Ethan Wesley, Perry Bevin Briana&lt;br&gt;Address: 5506 Silk Hope Gum Springs Rd, Siler City, NC&lt;br&gt;Acreage: 25.058&lt;br&gt;APN: 60064</description>
      <Point>
        <coordinates>-79.32439504330118,35.77815761080523,0</coordinates>
      </Point>
    </Placemark>
    <Placemark>
      <name>Tysinger Tony Ned, Tysinger Linda Little</name>
      <styleUrl>#tier1</styleUrl>
      <description>&lt;b&gt;Tier 1&lt;/b&gt; | Score: 96&lt;br&gt;Owner: Tysinger Tony Ned, Tysinger Linda Little&lt;br&gt;Address: N Carolina Highway 42, Goldston, NC&lt;br&gt;Acreage: 10.644&lt;br&gt;APN: 8793</description>
      <Point>
        <coordinates>-79.3663875022483,35.52887359556924,0</coordinates>
      </Point>
    </Placemark>
    <Placemark>
      <name>Richard Newton Johnson Jr Irrevocable Trust, Johnson</name>
      <styleUrl>#tier1</styleUrl>
      <description>&lt;b&gt;Tier 1&lt;/b&gt; | Score: 96&lt;br&gt;Owner: Richard Newton Johnson Jr Irrevocable Trust, Johnson&lt;br&gt;Address: Otis Johnson Rd, Pittsboro, NC&lt;br&gt;Acreage: 44.642&lt;br&gt;APN: 68676</description>
      <Point>
        <coordinates>-79.30358481420075,35.83635428336539,0</coordinates>
      </Point>
    </Placemark>
    <Placemark>
      <name>2023 Kester Family Trust, Kester</name>
      <styleUrl>#tier1</styleUrl>
      <description>&lt;b&gt;Tier 1&lt;/b&gt; | Score: 96&lt;br&gt;Owner: 2023 Kester Family Trust, Kester&lt;br&gt;Address: Alton King Rd, Pittsboro, NC&lt;br&gt;Acreage: 25.606&lt;br&gt;APN: 84462</description>
      <Point>
        <coordinates>-79.327080450192,35.55146870841922,0</coordinates>
      </Point>
    </Placemark>
    <Placemark>
      <name>Mitchell Calvin H, Mitchell Linda H</name>
      <styleUrl>#tier1</styleUrl>
      <description>&lt;b&gt;Tier 1&lt;/b&gt; | Score: 96&lt;br&gt;Owner: Mitchell Calvin H, Mitchell Linda H&lt;br&gt;Address: B Bray Rd, Siler City, NC&lt;br&gt;Acreage: 17.3&lt;br&gt;APN: 63454</description>
      <Point>
        <coordinates>-79.54786458461373,35.66598140270371,0</coordinates>
      </Point>
    </Placemark>
    <Placemark>
      <name>Barnes Patricia H</name>
      <styleUrl>#tier1</styleUrl>
      <description>&lt;b&gt;Tier 1&lt;/b&gt; | Score: 96&lt;br&gt;Owner: Barnes Patricia H&lt;br&gt;Address: Mt Vernon Springs Rd, Pittsboro, NC&lt;br&gt;Acreage: 10.438&lt;br&gt;APN: 79266</description>
      <Point>
        <coordinates>-79.45265128831645,35.654052548079164,0</coordinates>
      </Point>
    </Placemark>
    <Placemark>
      <name>Davis Dianne Gaines</name>
      <styleUrl>#tier1</styleUrl>
      <description>&lt;b&gt;Tier 1&lt;/b&gt; | Score: 96&lt;br&gt;Owner: Davis Dianne Gaines&lt;br&gt;Address: Goldston Glendon Rd, Bear Creek, NC&lt;br&gt;Acreage: 25.4&lt;br&gt;APN: 75250</description>
      <Point>
        <coordinates>-79.40139721630301,35.54880374357488,0</coordinates>
      </Point>
    </Placemark>
    <Placemark>
      <name>Barnes Patricia H</name>
      <styleUrl>#tier1</styleUrl>
      <description>&lt;b&gt;Tier 1&lt;/b&gt; | Score: 96&lt;br&gt;Owner: Barnes Patricia H&lt;br&gt;Address: Mt Vernon Springs Rd, Pittsboro, NC&lt;br&gt;Acreage: 12.264&lt;br&gt;APN: 79265</description>
      <Point>
        <coordinates>-79.45401370503018,35.652911718277394,0</coordinates>
      </Point>
    </Placemark>
    <Placemark>
      <name>Caudle Charles O, Caudle Betty M</name>
      <styleUrl>#tier1</styleUrl>
      <description>&lt;b&gt;Tier 1&lt;/b&gt; | Score: 96&lt;br&gt;Owner: Caudle Charles O, Caudle Betty M&lt;br&gt;Address: 996 Bonlee Bennett Rd, Siler City, NC&lt;br&gt;Acreage: 11.34&lt;br&gt;APN: 68108</description>
      <Point>
        <coordinates>-79.43316118026814,35.645390461919014,0</coordinates>
      </Point>
    </Placemark>
    <Placemark>
      <name>Cueva Luis, Cueva Karin</name>
      <styleUrl>#tier1</styleUrl>
      <description>&lt;b&gt;Tier 1&lt;/b&gt; | Score: 96&lt;br&gt;Owner: Cueva Luis, Cueva Karin&lt;br&gt;Address: Lydia Perry Rd, Sanford, NC&lt;br&gt;Acreage: 10.01&lt;br&gt;APN: 82891</description>
      <Point>
        <coordinates>-79.21332732388672,35.59973017988905,0</coordinates>
      </Point>
    </Placemark>
    <Placemark>
      <name>Allen Troy Leonard, Allen Louise</name>
      <styleUrl>#tier1</styleUrl>
      <description>&lt;b&gt;Tier 1&lt;/b&gt; | Score: 96&lt;br&gt;Owner: Allen Troy Leonard, Allen Louise&lt;br&gt;Address: Us 64 W, Siler City, NC&lt;br&gt;Acreage: 11.064&lt;br&gt;APN: 13111</description>
      <Point>
        <coordinates>-79.48599569572994,35.7339492127793,0</coordinates>
      </Point>
    </Placemark>
    <Placemark>
      <name>Hargett Ann B, Atwater Barbara B</name>
      <styleUrl>#tier1</styleUrl>
      <description>&lt;b&gt;Tier 1&lt;/b&gt; | Score: 96&lt;br&gt;Owner: Hargett Ann B, Atwater Barbara B&lt;br&gt;Address: Burnett Cir, Pittsboro, NC&lt;br&gt;Acreage: 12.0&lt;br&gt;APN: 1420</description>
      <Point>
        <coordinates>-79.17562502134166,35.857247992395514,0</coordinates>
      </Point>
    </Placemark>
    <Placemark>
      <name>Barnes Patricia H</name>
      <styleUrl>#tier1</styleUrl>
      <description>&lt;b&gt;Tier 1&lt;/b&gt; | Score: 96&lt;br&gt;Owner: Barnes Patricia H&lt;br&gt;Address: Mt Vernon Springs Rd, Pittsboro, NC&lt;br&gt;Acreage: 10.34&lt;br&gt;APN: 79263</description>
      <Point>
        <coordinates>-79.4571541945023,35.65254425537009,0</coordinates>
      </Point>
    </Placemark>
    <Placemark>
      <name>Murray Edwin Lee Co-(trustee) Resley Alan (co-trustee)</name>
      <styleUrl>#tier1</styleUrl>
      <description>&lt;b&gt;Tier 1&lt;/b&gt; | Score: 96&lt;br&gt;Owner: Murray Edwin Lee Co-(trustee) Resley Alan (co-trustee)&lt;br&gt;Address: Alex Cockman Rd, Pittsboro, NC&lt;br&gt;Acreage: 28.06&lt;br&gt;APN: 12340</description>
      <Point>
        <coordinates>-79.26879022758098,35.694924674445986,0</coordinates>
      </Point>
    </Placemark>
    <Placemark>
      <name>Stovall William L</name>
      <styleUrl>#tier1</styleUrl>
      <description>&lt;b&gt;Tier 1&lt;/b&gt; | Score: 96&lt;br&gt;Owner: Stovall William L&lt;br&gt;Address: 1055 Oren Gaines Rd, Goldston, NC&lt;br&gt;Acreage: 26.088&lt;br&gt;APN: 4932</description>
      <Point>
        <coordinates>-79.40770974730556,35.540360959437294,0</coordinates>
      </Point>
    </Placemark>
    <Placemark>
      <name>Harris Cecil Lee, Kinte Negest</name>
      <styleUrl>#tier1</styleUrl>
      <description>&lt;b&gt;Tier 1&lt;/b&gt; | Score: 96&lt;br&gt;Owner: Harris Cecil Lee, Kinte Negest&lt;br&gt;Address: Gum Springs Church Rd, Moncure, NC&lt;br&gt;Acreage: 15.0&lt;br&gt;APN: 11119</description>
      <Point>
        <coordinates>-79.11106674161937,35.64764237736729,0</coordinates>
      </Point>
    </Placemark>
    <Placemark>
      <name>Wilson Braxton Vernon, Wilson Dougherty Jane</name>
      <styleUrl>#tier1</styleUrl>
      <description>&lt;b&gt;Tier 1&lt;/b&gt; | Score: 96&lt;br&gt;Owner: Wilson Braxton Vernon, Wilson Dougherty Jane&lt;br&gt;Address: Old Siler City Rd, Chapel Hill, NC&lt;br&gt;Acreage: 22.94&lt;br&gt;APN: 68163</description>
      <Point>
        <coordinates>-79.21924505868976,35.72756278286454,0</coordinates>
      </Point>
    </Placemark>
    <Placemark>
      <name>Kendall Jonathan L, Kendall Tina S</name>
      <styleUrl>#tier1</styleUrl>
      <description>&lt;b&gt;Tier 1&lt;/b&gt; | Score: 96&lt;br&gt;Owner: Kendall Jonathan L, Kendall Tina S&lt;br&gt;Address: Hamlets Chapel Rd, Pittsboro, NC&lt;br&gt;Acreage: 18.004&lt;br&gt;APN: 1792</description>
      <Point>
        <coordinates>-79.14435549165755,35.79787996773798,0</coordinates>
      </Point>
    </Placemark>
    <Placemark>
      <name>Williams Phyllis I</name>
      <styleUrl>#tier1</styleUrl>
      <description>&lt;b&gt;Tier 1&lt;/b&gt; | Score: 96&lt;br&gt;Owner: Williams Phyllis I&lt;br&gt;Address: Old Sanford Rd, Pittsboro, NC&lt;br&gt;Acreage: 29.16&lt;br&gt;APN: 75014</description>
      <Point>
        <coordinates>-79.1856498689246,35.68522346762866,0</coordinates>
      </Point>
    </Placemark>
    <Placemark>
      <name>Grantham Virginia M</name>
      <styleUrl>#tier1</styleUrl>
      <description>&lt;b&gt;Tier 1&lt;/b&gt; | Score: 96&lt;br&gt;Owner: Grantham Virginia M&lt;br&gt;Address: Hamlets Chapel Rd, Pittsboro, NC&lt;br&gt;Acreage: 21.068&lt;br&gt;APN: 1546</description>
      <Point>
        <coordinates>-79.17075380976064,35.821887702751596,0</coordinates>
      </Point>
    </Placemark>
    <Placemark>
      <name>Molitor Loretta M Trustee</name>
      <styleUrl>#tier1</styleUrl>
      <description>&lt;b&gt;Tier 1&lt;/b&gt; | Score: 96&lt;br&gt;Owner: Molitor Loretta M Trustee&lt;br&gt;Address: E Eleventh St, Siler City, NC&lt;br&gt;Acreage: 11.866&lt;br&gt;APN: 14303</description>
      <Point>
        <coordinates>-79.43295723150922,35.731943758352955,0</coordinates>
      </Point>
    </Placemark>
    <Placemark>
      <name>Lovingood James</name>
      <styleUrl>#tier1</styleUrl>
      <description>&lt;b&gt;Tier 1&lt;/b&gt; | Score: 96&lt;br&gt;Owner: Lovingood James&lt;br&gt;Address: 990 Eddie Perry Rd, Pittsboro, NC&lt;br&gt;Acreage: 10.047&lt;br&gt;APN: 6476</description>
      <Point>
        <coordinates>-79.17026355455148,35.77967017931277,0</coordinates>
      </Point>
    </Placemark>
    <Placemark>
      <name>Harris Welford D</name>
      <styleUrl>#tier1</styleUrl>
      <description>&lt;b&gt;Tier 1&lt;/b&gt; | Score: 96&lt;br&gt;Owner: Harris Welford D&lt;br&gt;Address: Moons Chapel Rd, Siler City, NC&lt;br&gt;Acreage: 30.55&lt;br&gt;APN: 12607</description>
      <Point>
        <coordinates>-79.54253490992801,35.716259518589865,0</coordinates>
      </Point>
    </Placemark>
    <Placemark>
      <name>Culberson Hal Keith, Culberson Phyllis</name>
      <styleUrl>#tier1</styleUrl>
      <description>&lt;b&gt;Tier 1&lt;/b&gt; | Score: 96&lt;br&gt;Owner: Culberson Hal Keith, Culberson Phyllis&lt;br&gt;Address: Wrenn Culberson Rd, Siler City, NC&lt;br&gt;Acreage: 14.38&lt;br&gt;APN: 751</description>
      <Point>
        <coordinates>-79.43923796234216,35.79419007865732,0</coordinates>
      </Point>
    </Placemark>
    <Placemark>
      <name>Key Thomas C</name>
      <styleUrl>#tier1</styleUrl>
      <description>&lt;b&gt;Tier 1&lt;/b&gt; | Score: 96&lt;br&gt;Owner: Key Thomas C&lt;br&gt;Address: Grandale Dr, Chapel Hill, NC&lt;br&gt;Acreage: 10.583&lt;br&gt;APN: 74975</description>
      <Point>
        <coordinates>-78.91695907824342,35.86608891790588,0</coordinates>
      </Point>
    </Placemark>
    <Placemark>
      <name>Austin Larry Eugene, Austin Patsy Carol</name>
      <styleUrl>#tier1</styleUrl>
      <description>&lt;b&gt;Tier 1&lt;/b&gt; | Score: 96&lt;br&gt;Owner: Austin Larry Eugene, Austin Patsy Carol&lt;br&gt;Address: Airport Rd, Siler City, NC&lt;br&gt;Acreage: 21.595&lt;br&gt;APN: 63401</description>
      <Point>
        <coordinates>-79.52173030274281,35.66619535926864,0</coordinates>
      </Point>
    </Placemark>
    <Placemark>
      <name>Blackman Loyd T</name>
      <styleUrl>#tier1</styleUrl>
      <description>&lt;b&gt;Tier 1&lt;/b&gt; | Score: 96&lt;br&gt;Owner: Blackman Loyd T&lt;br&gt;Address: Hollands Chapel Rd, Apex, NC&lt;br&gt;Acreage: 12.617&lt;br&gt;APN: 17814</description>
      <Point>
        <coordinates>-78.97536249691552,35.77969570541446,0</coordinates>
      </Point>
    </Placemark>
    <Placemark>
      <name>Britt Nancy W</name>
      <styleUrl>#tier1</styleUrl>
      <description>&lt;b&gt;Tier 1&lt;/b&gt; | Score: 96&lt;br&gt;Owner: Britt Nancy W&lt;br&gt;Address: Jack Bennett Rd, Chapel Hill, NC&lt;br&gt;Acreage: 23.03&lt;br&gt;APN: 19509</description>
      <Point>
        <coordinates>-79.0489335510323,35.812974618846354,0</coordinates>
      </Point>
    </Placemark>