<?xml version='1.0' encoding='UTF-8'?>
<kml xmlns="http://www.opengis.net/kml/2.2">
  <Document>
    <name>FLC - Maury TN - Brenda</name>
    <Style id="tier1">
      <IconStyle>
        <color>ff0000ff</color>
        <Icon>
          <href>http://maps.google.com/mapfiles/kml/paddle/wht-blank.png</href>
        </Icon>
      </IconStyle>
    </Style>
    <Style id="tier2">
      <IconStyle>
        <color>ff00ffff</color>
        <Icon>
          <href>http://maps.google.com/mapfiles/kml/paddle/wht-blank.png</href>
        </Icon>
      </IconStyle>
    </Style>
    <Style id="satellite">
      <IconStyle>
        <color>ffff0000</color>
        <Icon>
          <href>http://maps.google.com/mapfiles/kml/paddle/wht-blank.png</href>
        </Icon>
      </IconStyle>
    </Style>
    <Placemark>
      <name>Heller-eckstein Family Trust, Heller David C</name>
      <styleUrl>#tier1</styleUrl>
      <description>&lt;b&gt;Tier 1&lt;/b&gt; | Score: 97&lt;br&gt;Owner: Heller-eckstein Family Trust, Heller David C&lt;br&gt;Address: Zion Rd, Columbia, TN&lt;br&gt;Acreage: 44.0&lt;br&gt;APN: 102-028.02</description>
      <Point>
        <coordinates>-87.13802303011332,35.61122597727245,0</coordinates>
      </Point>
    </Placemark>
    <Placemark>
      <name>Allen Kevin, Allen Andra</name>
      <styleUrl>#tier1</styleUrl>
      <description>&lt;b&gt;Tier 1&lt;/b&gt; | Score: 97&lt;br&gt;Owner: Allen Kevin, Allen Andra&lt;br&gt;Address: 4038 Cantebury Dr, Culleoka, TN&lt;br&gt;Acreage: 40.62&lt;br&gt;APN: 158-015.03</description>
      <Point>
        <coordinates>-87.0420163159796,35.49206264750204,0</coordinates>
      </Point>
    </Placemark>
    <Placemark>
      <name>Fox Family Real Estate Llc</name>
      <styleUrl>#tier1</styleUrl>
      <description>&lt;b&gt;Tier 1&lt;/b&gt; | Score: 95&lt;br&gt;Owner: Fox Family Real Estate Llc&lt;br&gt;Address: Chestnut Ridge Rd, Santa Fe, TN&lt;br&gt;Acreage: 23.0&lt;br&gt;APN: 014-010.00</description>
      <Point>
        <coordinates>-87.06222309602182,35.79069217799881,0</coordinates>
      </Point>
    </Placemark>
    <Placemark>
      <name>Deats Jason A, Deats Wendy K</name>
      <styleUrl>#tier1</styleUrl>
      <description>&lt;b&gt;Tier 1&lt;/b&gt; | Score: 95&lt;br&gt;Owner: Deats Jason A, Deats Wendy K&lt;br&gt;Address: Newcut Rd, Columbia, TN&lt;br&gt;Acreage: 31.73&lt;br&gt;APN: 140-002.02</description>
      <Point>
        <coordinates>-86.88707742454736,35.541778286546645,0</coordinates>
      </Point>
    </Placemark>
    <Placemark>
      <name>Wright Stacy G</name>
      <styleUrl>#tier1</styleUrl>
      <description>&lt;b&gt;Tier 1&lt;/b&gt; | Score: 95&lt;br&gt;Owner: Wright Stacy G&lt;br&gt;Address: 2671 Baptist Branch Rd, Mount Pleasant, TN&lt;br&gt;Acreage: 35.02&lt;br&gt;APN: 129-040.00</description>
      <Point>
        <coordinates>-87.29970325139374,35.54990527090746,0</coordinates>
      </Point>
    </Placemark>
    <Placemark>
      <name>Stevenson Ryan D, Stevenson Kimberly Cay</name>
      <styleUrl>#tier1</styleUrl>
      <description>&lt;b&gt;Tier 1&lt;/b&gt; | Score: 95&lt;br&gt;Owner: Stevenson Ryan D, Stevenson Kimberly Cay&lt;br&gt;Address: Scribners Mill Rd, Culleoka, TN&lt;br&gt;Acreage: 34.0&lt;br&gt;APN: 161-021.00</description>
      <Point>
        <coordinates>-86.9132455393748,35.49684407855061,0</coordinates>
      </Point>
    </Placemark>
    <Placemark>
      <name>Dinwiddie William R</name>
      <styleUrl>#tier1</styleUrl>
      <description>&lt;b&gt;Tier 1&lt;/b&gt; | Score: 95&lt;br&gt;Owner: Dinwiddie William R&lt;br&gt;Address: Hampshire Pike, Mount Pleasant, TN&lt;br&gt;Acreage: 22.18&lt;br&gt;APN: 102-029.26</description>
      <Point>
        <coordinates>-87.15031013368917,35.610749150825484,0</coordinates>
      </Point>
    </Placemark>
    <Placemark>
      <name>Pennington Raymond, Pennington Penny</name>
      <styleUrl>#tier1</styleUrl>
      <description>&lt;b&gt;Tier 1&lt;/b&gt; | Score: 95&lt;br&gt;Owner: Pennington Raymond, Pennington Penny&lt;br&gt;Address: Greenfield Bend Rd, Williamsport, TN&lt;br&gt;Acreage: 25.55&lt;br&gt;APN: 057-018.00</description>
      <Point>
        <coordinates>-87.2537257786505,35.68979899273728,0</coordinates>
      </Point>
    </Placemark>
    <Placemark>
      <name>Jones Bumpus James, Bumpus James J</name>
      <styleUrl>#tier1</styleUrl>
      <description>&lt;b&gt;Tier 1&lt;/b&gt; | Score: 95&lt;br&gt;Owner: Jones Bumpus James, Bumpus James J&lt;br&gt;Address: Howell Rd, Mt Pleasant, TN&lt;br&gt;Acreage: 36.0&lt;br&gt;APN: 170-012.00</description>
      <Point>
        <coordinates>-87.20471985447293,35.47258098105539,0</coordinates>
      </Point>
    </Placemark>
    <Placemark>
      <name>Webb David, Webb Heather</name>
      <styleUrl>#tier1</styleUrl>
      <description>&lt;b&gt;Tier 1&lt;/b&gt; | Score: 95&lt;br&gt;Owner: Webb David, Webb Heather&lt;br&gt;Address: Rummage Rd, Columbia, TN&lt;br&gt;Acreage: 15.15&lt;br&gt;APN: 117-010.01</description>
      <Point>
        <coordinates>-86.87014526371698,35.581792163020026,0</coordinates>
      </Point>
    </Placemark>
    <Placemark>
      <name>Fisk Stacie L</name>
      <styleUrl>#tier1</styleUrl>
      <description>&lt;b&gt;Tier 1&lt;/b&gt; | Score: 95&lt;br&gt;Owner: Fisk Stacie L&lt;br&gt;Address: Golf Club Rd, Columbia, TN&lt;br&gt;Acreage: 26.25&lt;br&gt;APN: 155-006.23</description>
      <Point>
        <coordinates>-87.20102985988234,35.502229438146244,0</coordinates>
      </Point>
    </Placemark>
    <Placemark>
      <name>Bailey James L</name>
      <styleUrl>#tier1</styleUrl>
      <description>&lt;b&gt;Tier 1&lt;/b&gt; | Score: 95&lt;br&gt;Owner: Bailey James L&lt;br&gt;Address: Parrish Hollow Rd N, Culleoka, TN&lt;br&gt;Acreage: 17.7&lt;br&gt;APN: 177-003.01</description>
      <Point>
        <coordinates>-87.11218013061423,35.4529771769715,0</coordinates>
      </Point>
    </Placemark>
    <Placemark>
      <name>Erisman Karl A, Erisman Sushila</name>
      <styleUrl>#tier1</styleUrl>
      <description>&lt;b&gt;Tier 1&lt;/b&gt; | Score: 95&lt;br&gt;Owner: Erisman Karl A, Erisman Sushila&lt;br&gt;Address: 4910 Jones Valley Rd, Williamsport, TN&lt;br&gt;Acreage: 17.71&lt;br&gt;APN: 034-004.00</description>
      <Point>
        <coordinates>-87.20856911426276,35.74650566721249,0</coordinates>
      </Point>
    </Placemark>
    <Placemark>
      <name>Hudson Pamela W</name>
      <styleUrl>#tier1</styleUrl>
      <description>&lt;b&gt;Tier 1&lt;/b&gt; | Score: 95&lt;br&gt;Owner: Hudson Pamela W&lt;br&gt;Address: Mcanally Rd, Mt Pleasant, TN&lt;br&gt;Acreage: 20.19&lt;br&gt;APN: 109-025.03</description>
      <Point>
        <coordinates>-87.25090485479024,35.57580108067612,0</coordinates>
      </Point>
    </Placemark>
    <Placemark>
      <name>Smith Carol C</name>
      <styleUrl>#tier1</styleUrl>
      <description>&lt;b&gt;Tier 1&lt;/b&gt; | Score: 95&lt;br&gt;Owner: Smith Carol C&lt;br&gt;Address: 4249 Dry Fork Rd, Hampshire, TN&lt;br&gt;Acreage: 28.44&lt;br&gt;APN: 105-047.00</description>
      <Point>
        <coordinates>-87.3112379276447,35.5958032157217,0</coordinates>
      </Point>
    </Placemark>
    <Placemark>
      <name>Holden William L, Holden Eve B</name>
      <styleUrl>#tier1</styleUrl>
      <description>&lt;b&gt;Tier 1&lt;/b&gt; | Score: 95&lt;br&gt;Owner: Holden William L, Holden Eve B&lt;br&gt;Address: Ricketts Mill Rd, Mt Pleasant, TN&lt;br&gt;Acreage: 17.4&lt;br&gt;APN: 151-015.02</description>
      <Point>
        <coordinates>-87.2595172769795,35.52863950144547,0</coordinates>
      </Point>
    </Placemark>
    <Placemark>
      <name>Harris Rebecca Y, Harris Michael J</name>
      <styleUrl>#tier1</styleUrl>
      <description>&lt;b&gt;Tier 1&lt;/b&gt; | Score: 95&lt;br&gt;Owner: Harris Rebecca Y, Harris Michael J&lt;br&gt;Address: Bristow Rd, Columbia, TN&lt;br&gt;Acreage: 31.83&lt;br&gt;APN: 140-011.03</description>
      <Point>
        <coordinates>-86.88946284900827,35.53231608105031,0</coordinates>
      </Point>
    </Placemark>
    <Placemark>
      <name>Jessey Christine R</name>
      <styleUrl>#tier1</styleUrl>
      <description>&lt;b&gt;Tier 1&lt;/b&gt; | Score: 95&lt;br&gt;Owner: Jessey Christine R&lt;br&gt;Address: Lick Creek Rd N, Primm Springs, TN&lt;br&gt;Acreage: 22.39&lt;br&gt;APN: 001-003.00</description>
      <Point>
        <coordinates>-87.19620371220438,35.84368740967011,0</coordinates>
      </Point>
    </Placemark>
    <Placemark>
      <name>Reasonover Family Trust, Reasonover Camille</name>
      <styleUrl>#tier1</styleUrl>
      <description>&lt;b&gt;Tier 1&lt;/b&gt; | Score: 95&lt;br&gt;Owner: Reasonover Family Trust, Reasonover Camille&lt;br&gt;Address: Godwin Rd, Santa Fe, TN&lt;br&gt;Acreage: 38.58&lt;br&gt;APN: 015-020.01</description>
      <Point>
        <coordinates>-87.09033703849101,35.77285334787224,0</coordinates>
      </Point>
    </Placemark>
    <Placemark>
      <name>Ronald Neal James, Lane Nancy</name>
      <styleUrl>#tier1</styleUrl>
      <description>&lt;b&gt;Tier 1&lt;/b&gt; | Score: 95&lt;br&gt;Owner: Ronald Neal James, Lane Nancy&lt;br&gt;Address: Joe Peay Rd, Spring Hill, TN&lt;br&gt;Acreage: 49.75&lt;br&gt;APN: 044-019.11</description>
      <Point>
        <coordinates>-86.85751533966716,35.71002180873873,0</coordinates>
      </Point>
    </Placemark>
    <Placemark>
      <name>Cathey Larry</name>
      <styleUrl>#tier1</styleUrl>
      <description>&lt;b&gt;Tier 1&lt;/b&gt; | Score: 92&lt;br&gt;Owner: Cathey Larry&lt;br&gt;Address: Williamsport Pike, Williamsport, TN&lt;br&gt;Acreage: 12.3&lt;br&gt;APN: 036-007.05</description>
      <Point>
        <coordinates>-87.24798753302531,35.71708057769384,0</coordinates>
      </Point>
    </Placemark>
    <Placemark>
      <name>Tipps Valerie F Carter, Carter Allen Foster</name>
      <styleUrl>#tier1</styleUrl>
      <description>&lt;b&gt;Tier 1&lt;/b&gt; | Score: 92&lt;br&gt;Owner: Tipps Valerie F Carter, Carter Allen Foster&lt;br&gt;Address: Scribners Mill Rd, Culleoka, TN&lt;br&gt;Acreage: 30.5&lt;br&gt;APN: 161-016.02</description>
      <Point>
        <coordinates>-86.93910618208469,35.49328347974285,0</coordinates>
      </Point>
    </Placemark>
    <Placemark>
      <name>Boston Cynthia Lee</name>
      <styleUrl>#tier1</styleUrl>
      <description>&lt;b&gt;Tier 1&lt;/b&gt; | Score: 92&lt;br&gt;Owner: Boston Cynthia Lee&lt;br&gt;Address: I 65, Columbia, TN&lt;br&gt;Acreage: 46.5&lt;br&gt;APN: 144-022.00</description>
      <Point>
        <coordinates>-86.89774444898326,35.52946340026922,0</coordinates>
      </Point>
    </Placemark>
    <Placemark>
      <name>Walker Earlene Critz Living Trust, Walker Earlene</name>
      <styleUrl>#tier1</styleUrl>
      <description>&lt;b&gt;Tier 1&lt;/b&gt; | Score: 92&lt;br&gt;Owner: Walker Earlene Critz Living Trust, Walker Earlene&lt;br&gt;Address: Dowell Branch Rd, Columbia, TN&lt;br&gt;Acreage: 14.0&lt;br&gt;APN: 040-035.04</description>
      <Point>
        <coordinates>-87.05523625305187,35.7110468145154,0</coordinates>
      </Point>
    </Placemark>
    <Placemark>
      <name>Hearns William, Hearns Linnette</name>
      <styleUrl>#tier1</styleUrl>
      <description>&lt;b&gt;Tier 1&lt;/b&gt; | Score: 92&lt;br&gt;Owner: Hearns William, Hearns Linnette&lt;br&gt;Address: Morel Rd, Columbia, TN&lt;br&gt;Acreage: 16.86&lt;br&gt;APN: 079-017.12</description>
      <Point>
        <coordinates>-87.18886117170922,35.64831120292747,0</coordinates>
      </Point>
    </Placemark>
    <Placemark>
      <name>Luna Ronald Shane, Luna Patrick Scott</name>
      <styleUrl>#tier1</styleUrl>
      <description>&lt;b&gt;Tier 1&lt;/b&gt; | Score: 92&lt;br&gt;Owner: Luna Ronald Shane, Luna Patrick Scott&lt;br&gt;Address: Campbells Sta Rd E, Culleoka, TN&lt;br&gt;Acreage: 47.52&lt;br&gt;APN: 180-005.00</description>
      <Point>
        <coordinates>-86.96531606784421,35.46194568205223,0</coordinates>
      </Point>
    </Placemark>
    <Placemark>
      <name>Armstrong Boyd Waltnelle</name>
      <styleUrl>#tier1</styleUrl>
      <description>&lt;b&gt;Tier 1&lt;/b&gt; | Score: 92&lt;br&gt;Owner: Armstrong Boyd Waltnelle&lt;br&gt;Address: Williamsport Pike, Williamsport, TN&lt;br&gt;Acreage: 19.0&lt;br&gt;APN: 078-041.00</description>
      <Point>
        <coordinates>-87.17327705530147,35.65805441905166,0</coordinates>
      </Point>
    </Placemark>
    <Placemark>
      <name>Kimmelman Gila Revocable Trust, Barak Shapiro Revocable Trust</name>
      <styleUrl>#tier1</styleUrl>
      <description>&lt;b&gt;Tier 1&lt;/b&gt; | Score: 92&lt;br&gt;Owner: Kimmelman Gila Revocable Trust, Barak Shapiro Revocable Trust&lt;br&gt;Address: 6411 Beard Rd, Primm Springs, TN&lt;br&gt;Acreage: 30.0&lt;br&gt;APN: 005-006.19</description>
      <Point>
        <coordinates>-87.20740402329548,35.82427973208671,0</coordinates>
      </Point>
    </Placemark>
    <Placemark>
      <name>Cathey Brooks &amp; Sadie Heirs Of</name>
      <styleUrl>#tier1</styleUrl>
      <description>&lt;b&gt;Tier 1&lt;/b&gt; | Score: 92&lt;br&gt;Owner: Cathey Brooks &amp; Sadie Heirs Of&lt;br&gt;Address: Williamsport Pike, Williamsport, TN&lt;br&gt;Acreage: 10.9&lt;br&gt;APN: 036-007.04</description>
      <Point>
        <coordinates>-87.2486766307974,35.71711750053629,0</coordinates>
      </Point>
    </Placemark>
    <Placemark>
      <name>Vest Ruskin</name>
      <styleUrl>#tier1</styleUrl>
      <description>&lt;b&gt;Tier 1&lt;/b&gt; | Score: 92&lt;br&gt;Owner: Vest Ruskin&lt;br&gt;Address: Carthell Rd, Columbia, TN&lt;br&gt;Acreage: 47.38&lt;br&gt;APN: 103-013.03</description>
      <Point>
        <coordinates>-87.18924819391057,35.60485149534555,0</coordinates>
      </Point>
    </Placemark>
    <Placemark>
      <name>Stewart Jason</name>
      <styleUrl>#tier1</styleUrl>
      <description>&lt;b&gt;Tier 1&lt;/b&gt; | Score: 92&lt;br&gt;Owner: Stewart Jason&lt;br&gt;Address: Ollie Chunn Rd, Spring Hill, TN&lt;br&gt;Acreage: 11.4&lt;br&gt;APN: 048-025.02</description>
      <Point>
        <coordinates>-86.84786945157377,35.69338659958427,0</coordinates>
      </Point>
    </Placemark>
    <Placemark>
      <name>Hargrove William Matthew, Hargrove Elizabeth Marie</name>
      <styleUrl>#tier1</styleUrl>
      <description>&lt;b&gt;Tier 1&lt;/b&gt; | Score: 92&lt;br&gt;Owner: Hargrove William Matthew, Hargrove Elizabeth Marie&lt;br&gt;Address: Mcintosh Dr, Columbia, TN&lt;br&gt;Acreage: 15.67&lt;br&gt;APN: 113-023.07</description>
      <Point>
        <coordinates>-87.05697204488393,35.58820457581202,0</coordinates>
      </Point>
    </Placemark>
    <Placemark>
      <name>Neidhardt Frances Elam</name>
      <styleUrl>#tier1</styleUrl>
      <description>&lt;b&gt;Tier 1&lt;/b&gt; | Score: 92&lt;br&gt;Owner: Neidhardt Frances Elam&lt;br&gt;Address: Raleigh Elam Rd, Santa Fe, TN&lt;br&gt;Acreage: 17.66&lt;br&gt;APN: 016-045.06</description>
      <Point>
        <coordinates>-87.15983611350106,35.783155676787956,0</coordinates>
      </Point>
    </Placemark>
    <Placemark>
      <name>Payne Mary Helen Ragsda, Payne Danny C</name>
      <styleUrl>#tier1</styleUrl>
      <description>&lt;b&gt;Tier 1&lt;/b&gt; | Score: 92&lt;br&gt;Owner: Payne Mary Helen Ragsda, Payne Danny C&lt;br&gt;Address: 3409 Williamsport Pike, Williamsport, TN&lt;br&gt;Acreage: 23.1&lt;br&gt;APN: 062-001.00</description>
      <Point>
        <coordinates>-87.21285961507398,35.67848006855945,0</coordinates>
      </Point>
    </Placemark>
    <Placemark>
      <name>Gv Spring Hill Llc</name>
      <styleUrl>#tier1</styleUrl>
      <description>&lt;b&gt;Tier 1&lt;/b&gt; | Score: 92&lt;br&gt;Owner: Gv Spring Hill Llc&lt;br&gt;Address: Jim Warren Rd, Spring Hill, TN&lt;br&gt;Acreage: 39.73&lt;br&gt;APN: 045-001.00</description>
      <Point>
        <coordinates>-86.8481900682388,35.72643616489904,0</coordinates>
      </Point>
    </Placemark>
    <Placemark>
      <name>Brown Estrelita</name>
      <styleUrl>#tier1</styleUrl>
      <description>&lt;b&gt;Tier 1&lt;/b&gt; | Score: 92&lt;br&gt;Owner: Brown Estrelita&lt;br&gt;Address: Sam Johnson Rd, Columbia, TN&lt;br&gt;Acreage: 15.55&lt;br&gt;APN: 067-031.00</description>
      <Point>
        <coordinates>-86.97645353001076,35.668535898932326,0</coordinates>
      </Point>
    </Placemark>
    <Placemark>
      <name>Lochridge James Lewis, Lochridge Martha Lucille</name>
      <styleUrl>#tier1</styleUrl>
      <description>&lt;b&gt;Tier 1&lt;/b&gt; | Score: 92&lt;br&gt;Owner: Lochridge James Lewis, Lochridge Martha Lucille&lt;br&gt;Address: Tom Lunn Rd, Spring Hill, TN&lt;br&gt;Acreage: 10.81&lt;br&gt;APN: 043-010.02</description>
      <Point>
        <coordinates>-86.89663262591387,35.72565235354688,0</coordinates>
      </Point>
    </Placemark>
    <Placemark>
      <name>Barron Carol Lindsey</name>
      <styleUrl>#tier1</styleUrl>
      <description>&lt;b&gt;Tier 1&lt;/b&gt; | Score: 92&lt;br&gt;Owner: Barron Carol Lindsey&lt;br&gt;Address: Blackburn Ln, Santa Fe, TN&lt;br&gt;Acreage: 17.55&lt;br&gt;APN: 073-006.04</description>
      <Point>
        <coordinates>-86.91731588998334,35.652725437410936,0</coordinates>
      </Point>
    </Placemark>
    <Placemark>
      <name>Jasaitis Zeno V</name>
      <styleUrl>#tier1</styleUrl>
      <description>&lt;b&gt;Tier 1&lt;/b&gt; | Score: 92&lt;br&gt;Owner: Jasaitis Zeno V&lt;br&gt;Address: Hampshire Pike, Mount Pleasant, TN&lt;br&gt;Acreage: 32.32&lt;br&gt;APN: 102-035.00</description>
      <Point>
        <coordinates>-87.15946427986128,35.61141783775989,0</coordinates>
      </Point>
    </Placemark>
    <Placemark>
      <name>Reinoehl Joshua</name>
      <styleUrl>#tier1</styleUrl>
      <description>&lt;b&gt;Tier 1&lt;/b&gt; | Score: 92&lt;br&gt;Owner: Reinoehl Joshua&lt;br&gt;Address: 2621 Gilliam Ln, Columbia, TN&lt;br&gt;Acreage: 15.3&lt;br&gt;APN: 116-014.09</description>
      <Point>
        <coordinates>-86.91357936439212,35.58768804456027,0</coordinates>
      </Point>
    </Placemark>
    <Placemark>
      <name>Equity Trust Co Custodian</name>
      <styleUrl>#tier1</styleUrl>
      <description>&lt;b&gt;Tier 1&lt;/b&gt; | Score: 92&lt;br&gt;Owner: Equity Trust Co Custodian&lt;br&gt;Address: Campbellsville Pike, Columbia, TN&lt;br&gt;Acreage: 16.39&lt;br&gt;APN: 113-075.02</description>
      <Point>
        <coordinates>-87.0641085169525,35.57618744562252,0</coordinates>
      </Point>
    </Placemark>
    <Placemark>
      <name>Clark James, Clark Laura</name>
      <styleUrl>#tier1</styleUrl>
      <description>&lt;b&gt;Tier 1&lt;/b&gt; | Score: 92&lt;br&gt;Owner: Clark James, Clark Laura&lt;br&gt;Address: New Highway 7, Santa Fe, TN&lt;br&gt;Acreage: 15.11&lt;br&gt;APN: 005-009.09</description>
      <Point>
        <coordinates>-87.20722178267765,35.8153276588893,0</coordinates>
      </Point>
    </Placemark>
    <Placemark>
      <name>Hoge Bell Estate Of</name>
      <styleUrl>#tier1</styleUrl>
      <description>&lt;b&gt;Tier 1&lt;/b&gt; | Score: 92&lt;br&gt;Owner: Hoge Bell Estate Of&lt;br&gt;Address: 8521 W Sheepneck Rd, Culleoka, TN&lt;br&gt;Acreage: 17.5&lt;br&gt;APN: 171-164.00</description>
      <Point>
        <coordinates>-87.23329152091782,35.46914313410533,0</coordinates>
      </Point>
    </Placemark>
    <Placemark>
      <name>Mark Johnson David, Mcmillin Marlea</name>
      <styleUrl>#tier1</styleUrl>
      <description>&lt;b&gt;Tier 1&lt;/b&gt; | Score: 92&lt;br&gt;Owner: Mark Johnson David, Mcmillin Marlea&lt;br&gt;Address: Arthur Sampson Rd, Lewisburg, TN&lt;br&gt;Acreage: 11.61&lt;br&gt;APN: 141-003.03</description>
      <Point>
        <coordinates>-86.84377620774961,35.550546289928434,0</coordinates>
      </Point>
    </Placemark>
    <Placemark>
      <name>Truman Ronald J, Truman Rose A</name>
      <styleUrl>#tier1</styleUrl>
      <description>&lt;b&gt;Tier 1&lt;/b&gt; | Score: 92&lt;br&gt;Owner: Truman Ronald J, Truman Rose A&lt;br&gt;Address: Lawrenceburg Hwy, Mount Pleasant, TN&lt;br&gt;Acreage: 21.91&lt;br&gt;APN: 171-117.01</description>
      <Point>
        <coordinates>-87.25259203046718,35.470401816439974,0</coordinates>
      </Point>
    </Placemark>
    <Placemark>
      <name>Armstrong Spence M Trust</name>
      <styleUrl>#tier1</styleUrl>
      <description>&lt;b&gt;Tier 1&lt;/b&gt; | Score: 92&lt;br&gt;Owner: Armstrong Spence M Trust&lt;br&gt;Address: Trotwood Ave, Columbia, TN&lt;br&gt;Acreage: 30.14&lt;br&gt;APN: 111-029.00</description>
      <Point>
        <coordinates>-87.13125779653731,35.578550751600716,0</coordinates>
      </Point>
    </Placemark>
    <Placemark>
      <name>Cruikshank William B Iii Living Trust, Cruikshank William B</name>
      <styleUrl>#tier1</styleUrl>
      <description>&lt;b&gt;Tier 1&lt;/b&gt; | Score: 92&lt;br&gt;Owner: Cruikshank William B Iii Living Trust, Cruikshank William B&lt;br&gt;Address: Chavers Farm Rd, Mt Pleasant, TN&lt;br&gt;Acreage: 11.8&lt;br&gt;APN: 154-022.04</description>
      <Point>
        <coordinates>-87.24483947997679,35.49704044786495,0</coordinates>
      </Point>
    </Placemark>
    <Placemark>
      <name>Chavers John W, Chavers Darryl</name>
      <styleUrl>#tier1</styleUrl>
      <description>&lt;b&gt;Tier 1&lt;/b&gt; | Score: 92&lt;br&gt;Owner: Chavers John W, Chavers Darryl&lt;br&gt;Address: Chavers Farm Rd W Of, Mount Pleasant, TN&lt;br&gt;Acreage: 31.5&lt;br&gt;APN: 154-026.00</description>
      <Point>
        <coordinates>-87.25089389572952,35.49381495455414,0</coordinates>
      </Point>
    </Placemark>
    <Placemark>
      <name>Palmer Mary Bailey, Palmer Kelly</name>
      <styleUrl>#tier1</styleUrl>
      <description>&lt;b&gt;Tier 1&lt;/b&gt; | Score: 92&lt;br&gt;Owner: Palmer Mary Bailey, Palmer Kelly&lt;br&gt;Address: Mooresville Pike, Columbia, TN&lt;br&gt;Acreage: 19.08&lt;br&gt;APN: 159-032.02</description>
      <Point>
        <coordinates>-87.00827300729918,35.49347561368564,0</coordinates>
      </Point>
    </Placemark>
    <Placemark>
      <name>Jasaitis Zeno V, Jasaitis Co</name>
      <styleUrl>#tier1</styleUrl>
      <description>&lt;b&gt;Tier 1&lt;/b&gt; | Score: 92&lt;br&gt;Owner: Jasaitis Zeno V, Jasaitis Co&lt;br&gt;Address: Hampshire Pike, Mount Pleasant, TN&lt;br&gt;Acreage: 30.32&lt;br&gt;APN: 102-035.02</description>
      <Point>
        <coordinates>-87.15742000428111,35.611205557181464,0</coordinates>
      </Point>
    </Placemark>
    <Placemark>
      <name>Klein Jennifer A</name>
      <styleUrl>#tier1</styleUrl>
      <description>&lt;b&gt;Tier 1&lt;/b&gt; | Score: 92&lt;br&gt;Owner: Klein Jennifer A&lt;br&gt;Address: Cole Bend Rd, Columbia, TN&lt;br&gt;Acreage: 11.4&lt;br&gt;APN: 095-011.20</description>
      <Point>
        <coordinates>-86.84437385142246,35.60359739254807,0</coordinates>
      </Point>
    </Placemark>
    <Placemark>
      <name>Trice Dudley</name>
      <styleUrl>#tier1</styleUrl>
      <description>&lt;b&gt;Tier 1&lt;/b&gt; | Score: 92&lt;br&gt;Owner: Trice Dudley&lt;br&gt;Address: 877 Southport Rd, Mount Pleasant, TN&lt;br&gt;Acreage: 14.2&lt;br&gt;APN: 149-001.01</description>
      <Point>
        <coordinates>-87.16577588617429,35.526144358945615,0</coordinates>
      </Point>
    </Placemark>
    <Placemark>
      <name>Richardson Patricia V</name>
      <styleUrl>#tier1</styleUrl>
      <description>&lt;b&gt;Tier 1&lt;/b&gt; | Score: 92&lt;br&gt;Owner: Richardson Patricia V&lt;br&gt;Address: Harris Rd, Spring Hill, TN&lt;br&gt;Acreage: 36.84&lt;br&gt;APN: 123-031.02</description>
      <Point>
        <coordinates>-87.01606692463862,35.564066150632854,0</coordinates>
      </Point>
    </Placemark>
    <Placemark>
      <name>Dean William G, Dean Jewell</name>
      <styleUrl>#tier1</styleUrl>
      <description>&lt;b&gt;Tier 1&lt;/b&gt; | Score: 92&lt;br&gt;Owner: Dean William G, Dean Jewell&lt;br&gt;Address: 2452 New Lewisburg Hwy, Columbia, TN&lt;br&gt;Acreage: 49.6&lt;br&gt;APN: 144-019.01</description>
      <Point>
        <coordinates>-86.91112243401658,35.5197202370536,0</coordinates>
      </Point>
    </Placemark>
    <Placemark>
      <name>Press Benjamin Family Real Estate Llc</name>
      <styleUrl>#tier1</styleUrl>
      <description>&lt;b&gt;Tier 1&lt;/b&gt; | Score: 92&lt;br&gt;Owner: Press Benjamin Family Real Estate Llc&lt;br&gt;Address: Rock Springs Cemetery Rd, Columbia, TN&lt;br&gt;Acreage: 20.45&lt;br&gt;APN: 116-014.18</description>
      <Point>
        <coordinates>-86.92029086380985,35.5886244750159,0</coordinates>
      </Point>
    </Placemark>
    <Placemark>
      <name>Ndukwe Stephen Akachuku</name>
      <styleUrl>#tier1</styleUrl>
      <description>&lt;b&gt;Tier 1&lt;/b&gt; | Score: 92&lt;br&gt;Owner: Ndukwe Stephen Akachuku&lt;br&gt;Address: Perry Hill Church Rd, Columbia, TN&lt;br&gt;Acreage: 13.76&lt;br&gt;APN: 158-005.07</description>
      <Point>
        <coordinates>-87.0728885026464,35.49900262354831,0</coordinates>
      </Point>
    </Placemark>
    <Placemark>
      <name>Walker James &amp; Susan Family Trust, Walker Susan</name>
      <styleUrl>#tier1</styleUrl>
      <description>&lt;b&gt;Tier 1&lt;/b&gt; | Score: 92&lt;br&gt;Owner: Walker James &amp; Susan Family Trust, Walker Susan&lt;br&gt;Address: Rally Hill Rd, Columbia, TN&lt;br&gt;Acreage: 10.85&lt;br&gt;APN: 070-023.06</description>
      <Point>
        <coordinates>-86.8428801400002,35.66484217263563,0</coordinates>
      </Point>
    </Placemark>
    <Placemark>
      <name>Funderburk Jordan, Funderburk Cayce</name>
      <styleUrl>#tier1</styleUrl>
      <description>&lt;b&gt;Tier 1&lt;/b&gt; | Score: 92&lt;br&gt;Owner: Funderburk Jordan, Funderburk Cayce&lt;br&gt;Address: Rally Hill Rd, Columbia, TN&lt;br&gt;Acreage: 10.09&lt;br&gt;APN: 070-023.03</description>
      <Point>
        <coordinates>-86.8404304527553,35.66477412262278,0</coordinates>
      </Point>
    </Placemark>
    <Placemark>
      <name>Busch Danny Charles, Busch Carey J</name>
      <styleUrl>#tier1</styleUrl>
      <description>&lt;b&gt;Tier 1&lt;/b&gt; | Score: 92&lt;br&gt;Owner: Busch Danny Charles, Busch Carey J&lt;br&gt;Address: 2078 Lasea Rd, Spring Hill, TN&lt;br&gt;Acreage: 10.65&lt;br&gt;APN: 069-046.00</description>
      <Point>
        <coordinates>-86.883281960846,35.66612119298415,0</coordinates>
      </Point>
    </Placemark>
    <Placemark>
      <name>Holland John</name>
      <styleUrl>#tier1</styleUrl>
      <description>&lt;b&gt;Tier 1&lt;/b&gt; | Score: 92&lt;br&gt;Owner: Holland John&lt;br&gt;Address: Pickard Hollow Rd, Mt Pleasant, TN&lt;br&gt;Acreage: 36.5&lt;br&gt;APN: 171-019.00</description>
      <Point>
        <coordinates>-87.24946722984987,35.48155212478247,0</coordinates>
      </Point>
    </Placemark>
    <Placemark>
      <name>Smith Hardison Minnie Gail</name>
      <styleUrl>#tier1</styleUrl>
      <description>&lt;b&gt;Tier 1&lt;/b&gt; | Score: 92&lt;br&gt;Owner: Smith Hardison Minnie Gail&lt;br&gt;Address: Monsanto Rd, Columbia, TN&lt;br&gt;Acreage: 10.6&lt;br&gt;APN: 088-014.03</description>
      <Point>
        <coordinates>-87.10705069465732,35.63312487681499,0</coordinates>
      </Point>
    </Placemark>
    <Placemark>
      <name>Kennedy Delana Joy</name>
      <styleUrl>#tier1</styleUrl>
      <description>&lt;b&gt;Tier 1&lt;/b&gt; | Score: 92&lt;br&gt;Owner: Kennedy Delana Joy&lt;br&gt;Address: William Ln, Columbia, TN&lt;br&gt;Acreage: 10.0&lt;br&gt;APN: 093-012.21</description>
      <Point>
        <coordinates>-86.87605719039531,35.62839839086902,0</coordinates>
      </Point>
    </Placemark>
    <Placemark>
      <name>Pol John, Pol Nancy</name>
      <styleUrl>#tier1</styleUrl>
      <description>&lt;b&gt;Tier 1&lt;/b&gt; | Score: 92&lt;br&gt;Owner: Pol John, Pol Nancy&lt;br&gt;Address: Concord Church Rd, Columbia, TN&lt;br&gt;Acreage: 40.86&lt;br&gt;APN: 063-025.21</description>
      <Point>
        <coordinates>-87.14281986004067,35.66224959357781,0</coordinates>
      </Point>
    </Placemark>
    <Placemark>
      <name>Maples Joe Lee</name>
      <styleUrl>#tier1</styleUrl>
      <description>&lt;b&gt;Tier 1&lt;/b&gt; | Score: 92&lt;br&gt;Owner: Maples Joe Lee&lt;br&gt;Address: Center Star Rd, Columbia, TN&lt;br&gt;Acreage: 12.7&lt;br&gt;APN: 074-008.00</description>
      <Point>
        <coordinates>-86.9617291156414,35.654887562908314,0</coordinates>
      </Point>
    </Placemark>
    <Placemark>
      <name>Wolff Charles Ralph, Wolff Karen L</name>
      <styleUrl>#tier1</styleUrl>
      <description>&lt;b&gt;Tier 1&lt;/b&gt; | Score: 92&lt;br&gt;Owner: Wolff Charles Ralph, Wolff Karen L&lt;br&gt;Address: Kedron Rd, Spring Hill, TN&lt;br&gt;Acreage: 40.1&lt;br&gt;APN: 028-019.00</description>
      <Point>
        <coordinates>-86.92661723694872,35.729327560951305,0</coordinates>
      </Point>
    </Placemark>
    <Placemark>
      <name>Johnston Stephen R, Johnston Paige C</name>
      <styleUrl>#tier1</styleUrl>
      <description>&lt;b&gt;Tier 1&lt;/b&gt; | Score: 92&lt;br&gt;Owner: Johnston Stephen R, Johnston Paige C&lt;br&gt;Address: Newcut Rd, Columbia, TN&lt;br&gt;Acreage: 39.8&lt;br&gt;APN: 139-014.02</description>
      <Point>
        <coordinates>-86.89604966018655,35.54059544466013,0</coordinates>
      </Point>
    </Placemark>
    <Placemark>
      <name>Dale Thomas S, Dale Jennifer S</name>
      <styleUrl>#tier1</styleUrl>
      <description>&lt;b&gt;Tier 1&lt;/b&gt; | Score: 92&lt;br&gt;Owner: Dale Thomas S, Dale Jennifer S&lt;br&gt;Address: 1392 Sam Johnson Rd, Columbia, TN&lt;br&gt;Acreage: 11.39&lt;br&gt;APN: 067-021.00</description>
      <Point>
        <coordinates>-86.98457392435769,35.66876075452481,0</coordinates>
      </Point>
    </Placemark>
    <Placemark>
      <name>Fields Paul, Fields Julie</name>
      <styleUrl>#tier1</styleUrl>
      <description>&lt;b&gt;Tier 1&lt;/b&gt; | Score: 92&lt;br&gt;Owner: Fields Paul, Fields Julie&lt;br&gt;Address: 1384 Cliff Amos Rd, Spring Hill, TN&lt;br&gt;Acreage: 15.0&lt;br&gt;APN: 073-004.13</description>
      <Point>
        <coordinates>-86.92226028386875,35.65515861044652,0</coordinates>
      </Point>
    </Placemark>
    <Placemark>
      <name>Hickman Dorothy Ann, Hickman Wayne</name>
      <styleUrl>#tier1</styleUrl>
      <description>&lt;b&gt;Tier 1&lt;/b&gt; | Score: 92&lt;br&gt;Owner: Hickman Dorothy Ann, Hickman Wayne&lt;br&gt;Address: 3609 Pulaski Hwy, Columbia, TN&lt;br&gt;Acreage: 24.3&lt;br&gt;APN: 158-012.00</description>
      <Point>
        <coordinates>-87.05265889546118,35.505001199907156,0</coordinates>
      </Point>
    </Placemark>
    <Placemark>
      <name>Fairmont Trust, Pulliam Cary W</name>
      <styleUrl>#tier1</styleUrl>
      <description>&lt;b&gt;Tier 1&lt;/b&gt; | Score: 92&lt;br&gt;Owner: Fairmont Trust, Pulliam Cary W&lt;br&gt;Address: 729 Mooresville Pike, Columbia, TN&lt;br&gt;Acreage: 22.9&lt;br&gt;APN: 114-017.00</description>
      <Point>
        <coordinates>-87.02368052909372,35.59053745569508,0</coordinates>
      </Point>
    </Placemark>
    <Placemark>
      <name>Rogers Hewitt</name>
      <styleUrl>#tier1</styleUrl>
      <description>&lt;b&gt;Tier 1&lt;/b&gt; | Score: 92&lt;br&gt;Owner: Rogers Hewitt&lt;br&gt;Address: Reece Church Rd, Columbia, TN&lt;br&gt;Acreage: 49.23&lt;br&gt;APN: 148-021.00</description>
      <Point>
        <coordinates>-87.12726768805416,35.52481041644384,0</coordinates>
      </Point>
    </Placemark>
    <Placemark>
      <name>Kelley Marilyn</name>
      <styleUrl>#tier1</styleUrl>
      <description>&lt;b&gt;Tier 1&lt;/b&gt; | Score: 92&lt;br&gt;Owner: Kelley Marilyn&lt;br&gt;Address: Porters Branch Rd, Santa Fe, TN&lt;br&gt;Acreage: 37.14&lt;br&gt;APN: 004-018.01</description>
      <Point>
        <coordinates>-87.17562183655258,35.81678406017262,0</coordinates>
      </Point>
    </Placemark>
    <Placemark>
      <name>Anderson James Thomas, Anderson Jade Denease</name>
      <styleUrl>#tier1</styleUrl>
      <description>&lt;b&gt;Tier 1&lt;/b&gt; | Score: 92&lt;br&gt;Owner: Anderson James Thomas, Anderson Jade Denease&lt;br&gt;Address: 3352 Hickman Ln, Columbia, TN&lt;br&gt;Acreage: 25.8&lt;br&gt;APN: 137-030.17</description>
      <Point>
        <coordinates>-87.02577138730595,35.53636216983927,0</coordinates>
      </Point>
    </Placemark>
    <Placemark>
      <name>Hargrove William Matthew, Hargrove Elizabeth Marie</name>
      <styleUrl>#tier1</styleUrl>
      <description>&lt;b&gt;Tier 1&lt;/b&gt; | Score: 92&lt;br&gt;Owner: Hargrove William Matthew, Hargrove Elizabeth Marie&lt;br&gt;Address: 2712 Mcintosh Dr, Columbia, TN&lt;br&gt;Acreage: 18.95&lt;br&gt;APN: 113-023.04</description>
      <Point>
        <coordinates>-87.05891496548638,35.588127998064586,0</coordinates>
      </Point>
    </Placemark>
    <Placemark>
      <name>Staggs Carlton</name>
      <styleUrl>#tier1</styleUrl>
      <description>&lt;b&gt;Tier 1&lt;/b&gt; | Score: 92&lt;br&gt;Owner: Staggs Carlton&lt;br&gt;Address: 8667 New Lawrenceburg Hwy, Mount Pleasant, TN&lt;br&gt;Acreage: 27.7&lt;br&gt;APN: 171-135.00</description>
      <Point>
        <coordinates>-87.26461380816286,35.46473666642713,0</coordinates>
      </Point>
    </Placemark>
    <Placemark>
      <name>Kelley Marilyn</name>
      <styleUrl>#tier1</styleUrl>
      <description>&lt;b&gt;Tier 1&lt;/b&gt; | Score: 92&lt;br&gt;Owner: Kelley Marilyn&lt;br&gt;Address: Natchez Trace Pkwy, Santa Fe, TN&lt;br&gt;Acreage: 14.31&lt;br&gt;APN: 007-005.00</description>
      <Point>
        <coordinates>-87.17338421347534,35.81264484571931,0</coordinates>
      </Point>
    </Placemark>
    <Placemark>
      <name>Rogers Anthony Cameron</name>
      <styleUrl>#tier1</styleUrl>
      <description>&lt;b&gt;Tier 1&lt;/b&gt; | Score: 92&lt;br&gt;Owner: Rogers Anthony Cameron&lt;br&gt;Address: Reece Church Rd, Columbia, TN&lt;br&gt;Acreage: 49.23&lt;br&gt;APN: 149-007.02</description>
      <Point>
        <coordinates>-87.13083228047654,35.528672805601204,0</coordinates>
      </Point>
    </Placemark>
    <Placemark>
      <name>Bowley William, Hudson-bowley Julie Ann</name>
      <styleUrl>#tier1</styleUrl>
      <description>&lt;b&gt;Tier 1&lt;/b&gt; | Score: 92&lt;br&gt;Owner: Bowley William, Hudson-bowley Julie Ann&lt;br&gt;Address: 2563 Williamsport Pike, Columbia, TN&lt;br&gt;Acreage: 24.41&lt;br&gt;APN: 078-052.02</description>
      <Point>
        <coordinates>-87.16202505500175,35.642350722067036,0</coordinates>
      </Point>
    </Placemark>
    <Placemark>
      <name>Rogers Hewitt</name>
      <styleUrl>#tier1</styleUrl>
      <description>&lt;b&gt;Tier 1&lt;/b&gt; | Score: 92&lt;br&gt;Owner: Rogers Hewitt&lt;br&gt;Address: Reece Church Rd, Columbia, TN&lt;br&gt;Acreage: 49.23&lt;br&gt;APN: 149-007.01</description>
      <Point>
        <coordinates>-87.12867544956232,35.526852558094745,0</coordinates>
      </Point>
    </Placemark>
    <Placemark>
      <name>Dial Andrew L, Dial Dorothy L</name>
      <styleUrl>#tier1</styleUrl>
      <description>&lt;b&gt;Tier 1&lt;/b&gt; | Score: 92&lt;br&gt;Owner: Dial Andrew L, Dial Dorothy L&lt;br&gt;Address: 6198 Tom Rail Rd, Santa Fe, TN&lt;br&gt;Acreage: 21.5&lt;br&gt;APN: 005-006.11</description>
      <Point>
        <coordinates>-87.18627696363285,35.81883747134826,0</coordinates>
      </Point>
    </Placemark>
    <Placemark>
      <name>Coley Reed A, Coley Rebecca L</name>
      <styleUrl>#tier1</styleUrl>
      <description>&lt;b&gt;Tier 1&lt;/b&gt; | Score: 92&lt;br&gt;Owner: Coley Reed A, Coley Rebecca L&lt;br&gt;Address: Joe Brown Rd, Spring Hill, TN&lt;br&gt;Acreage: 15.0&lt;br&gt;APN: 072-032.01</description>
      <Point>
        <coordinates>-86.87355998375317,35.648107682334796,0</coordinates>
      </Point>
    </Placemark>
    <Placemark>
      <name>Hill Tina M, Hill Timothy S</name>
      <styleUrl>#tier1</styleUrl>
      <description>&lt;b&gt;Tier 1&lt;/b&gt; | Score: 92&lt;br&gt;Owner: Hill Tina M, Hill Timothy S&lt;br&gt;Address: 1412 Center Star Rd, Columbia, TN&lt;br&gt;Acreage: 21.55&lt;br&gt;APN: 074-009.00</description>
      <Point>
        <coordinates>-86.96126952053353,35.66175195715688,0</coordinates>
      </Point>
    </Placemark>
    <Placemark>
      <name>Upshaw Stephen L, Upshaw Aaron M</name>
      <styleUrl>#tier1</styleUrl>
      <description>&lt;b&gt;Tier 1&lt;/b&gt; | Score: 92&lt;br&gt;Owner: Upshaw Stephen L, Upshaw Aaron M&lt;br&gt;Address: 4094 Roy Thompson Rd, Mount Pleasant, TN&lt;br&gt;Acreage: 34.4&lt;br&gt;APN: 109-019.08</description>
      <Point>
        <coordinates>-87.2611484854283,35.5881028737347,0</coordinates>
      </Point>
    </Placemark>
    <Placemark>
      <name>Eatherly Jd</name>
      <styleUrl>#tier1</styleUrl>
      <description>&lt;b&gt;Tier 1&lt;/b&gt; | Score: 92&lt;br&gt;Owner: Eatherly Jd&lt;br&gt;Address: Creekside Ln, Spring Hill, TN&lt;br&gt;Acreage: 37.8&lt;br&gt;APN: 043-019.01</description>
      <Point>
        <coordinates>-86.92382872891821,35.71141919053035,0</coordinates>
      </Point>
    </Placemark>
    <Placemark>
      <name>King Stephanie, King James Anthony</name>
      <styleUrl>#tier1</styleUrl>
      <description>&lt;b&gt;Tier 1&lt;/b&gt; | Score: 92&lt;br&gt;Owner: King Stephanie, King James Anthony&lt;br&gt;Address: Tom Fitzgerald Rd, Columbia, TN&lt;br&gt;Acreage: 25.06&lt;br&gt;APN: 032-059.11</description>
      <Point>
        <coordinates>-87.09685007950876,35.727081261884315,0</coordinates>
      </Point>
    </Placemark>
    <Placemark>
      <name>Dodson John B, Arlene Wynn Sachs Living Trust</name>
      <styleUrl>#tier1</styleUrl>
      <description>&lt;b&gt;Tier 1&lt;/b&gt; | Score: 92&lt;br&gt;Owner: Dodson John B, Arlene Wynn Sachs Living Trust&lt;br&gt;Address: Leipers Creek Rd, Santa Fe, TN&lt;br&gt;Acreage: 46.21&lt;br&gt;APN: 008-025.01</description>
      <Point>
        <coordinates>-87.09708503739259,35.806475557925026,0</coordinates>
      </Point>
    </Placemark>
    <Placemark>
      <name>Merritt Jim</name>
      <styleUrl>#tier1</styleUrl>
      <description>&lt;b&gt;Tier 1&lt;/b&gt; | Score: 90&lt;br&gt;Owner: Merritt Jim&lt;br&gt;Address: Chestnut Ridge Rd, Santa Fe, TN&lt;br&gt;Acreage: 18.5&lt;br&gt;APN: 014-002.00</description>
      <Point>
        <coordinates>-87.08424963719456,35.78744234378374,0</coordinates>
      </Point>
    </Placemark>
    <Placemark>
      <name>Watkins Steven Charles</name>
      <styleUrl>#tier1</styleUrl>
      <description>&lt;b&gt;Tier 1&lt;/b&gt; | Score: 90&lt;br&gt;Owner: Watkins Steven Charles&lt;br&gt;Address: 4011 Skelley Rd, Santa Fe, TN&lt;br&gt;Acreage: 22.8&lt;br&gt;APN: 015-042.00</description>
      <Point>
        <coordinates>-87.10020916946264,35.782896471406595,0</coordinates>
      </Point>
    </Placemark>
    <Placemark>
      <name>Penrod Michael D</name>
      <styleUrl>#tier1</styleUrl>
      <description>&lt;b&gt;Tier 1&lt;/b&gt; | Score: 90&lt;br&gt;Owner: Penrod Michael D&lt;br&gt;Address: Santa Fe Pike, Santa Fe, TN&lt;br&gt;Acreage: 13.01&lt;br&gt;APN: 076-072.02</description>
      <Point>
        <coordinates>-87.04328193504931,35.645254579740794,0</coordinates>
      </Point>
    </Placemark>
    <Placemark>
      <name>Jenkins Russell K, Jenkins Jennie M</name>
      <styleUrl>#tier1</styleUrl>
      <description>&lt;b&gt;Tier 1&lt;/b&gt; | Score: 90&lt;br&gt;Owner: Jenkins Russell K, Jenkins Jennie M&lt;br&gt;Address: Les Robinson Rd, Columbia, TN&lt;br&gt;Acreage: 47.06&lt;br&gt;APN: 013-008.01</description>
      <Point>
        <coordinates>-87.01017236299495,35.7777037198573,0</coordinates>
      </Point>
    </Placemark>
    <Placemark>
      <name>Usher Mark B</name>
      <styleUrl>#tier1</styleUrl>
      <description>&lt;b&gt;Tier 1&lt;/b&gt; | Score: 90&lt;br&gt;Owner: Usher Mark B&lt;br&gt;Address: 4935 Cole Bend Rd, Columbia, TN&lt;br&gt;Acreage: 10.83&lt;br&gt;APN: 095-011.12</description>
      <Point>
        <coordinates>-86.83926933930209,35.599871219640434,0</coordinates>
      </Point>
    </Placemark>
    <Placemark>
      <name>Macer Zebulun A, Macer Dara Beth</name>
      <styleUrl>#tier1</styleUrl>
      <description>&lt;b&gt;Tier 1&lt;/b&gt; | Score: 90&lt;br&gt;Owner: Macer Zebulun A, Macer Dara Beth&lt;br&gt;Address: Bear Creek Pike, Columbia, TN&lt;br&gt;Acreage: 12.0&lt;br&gt;APN: 091-031.00-001</description>
      <Point>
        <coordinates>-86.96140110066361,35.63283530547444,0</coordinates>
      </Point>
    </Placemark>
    <Placemark>
      <name>Lunn Harry, Lunn Evaline K</name>
      <styleUrl>#tier1</styleUrl>
      <description>&lt;b&gt;Tier 1&lt;/b&gt; | Score: 90&lt;br&gt;Owner: Lunn Harry, Lunn Evaline K&lt;br&gt;Address: Bear Creek Pike, Columbia, TN&lt;br&gt;Acreage: 17.49&lt;br&gt;APN: 091-024.05-001</description>
      <Point>
        <coordinates>-86.9516018497964,35.63227225139578,0</coordinates>
      </Point>
    </Placemark>
    <Placemark>
      <name>Webster W Michael W W, Webster Jill B</name>
      <styleUrl>#tier1</styleUrl>
      <description>&lt;b&gt;Tier 1&lt;/b&gt; | Score: 90&lt;br&gt;Owner: Webster W Michael W W, Webster Jill B&lt;br&gt;Address: 3062 Hampshire Pike, Mount Pleasant, TN&lt;br&gt;Acreage: 48.06&lt;br&gt;APN: 086-019.01</description>
      <Point>
        <coordinates>-87.21472161496666,35.62172917909477,0</coordinates>
      </Point>
    </Placemark>
    <Placemark>
      <name>Booker Thomas Jr Sherry L Booker, Miles Jacqueline</name>
      <styleUrl>#tier1</styleUrl>
      <description>&lt;b&gt;Tier 1&lt;/b&gt; | Score: 90&lt;br&gt;Owner: Booker Thomas Jr Sherry L Booker, Miles Jacqueline&lt;br&gt;Address: Ridley Chapel Rd, Mt Pleasant, TN&lt;br&gt;Acreage: 13.0&lt;br&gt;APN: 085-028.00</description>
      <Point>
        <coordinates>-87.25423072237777,35.626978106793686,0</coordinates>
      </Point>
    </Placemark>
    <Placemark>
      <name>Pruitt Jerry P, Pruitt Barbara A</name>
      <styleUrl>#tier1</styleUrl>
      <description>&lt;b&gt;Tier 1&lt;/b&gt; | Score: 90&lt;br&gt;Owner: Pruitt Jerry P, Pruitt Barbara A&lt;br&gt;Address: Booker Farm Rd, Mt Pleasant, TN&lt;br&gt;Acreage: 17.0&lt;br&gt;APN: 085-002.02</description>
      <Point>
        <coordinates>-87.26837269661546,35.6371568693919,0</coordinates>
      </Point>
    </Placemark>
    <Placemark>
      <name>Johnson Jacob</name>
      <styleUrl>#tier1</styleUrl>
      <description>&lt;b&gt;Tier 1&lt;/b&gt; | Score: 90&lt;br&gt;Owner: Johnson Jacob&lt;br&gt;Address: Catheys Creek Rd, Hampshire, TN&lt;br&gt;Acreage: 29.5&lt;br&gt;APN: 083-011.00</description>
      <Point>
        <coordinates>-87.33491902846342,35.63390462250996,0</coordinates>
      </Point>
    </Placemark>
    <Placemark>
      <name>Blackmun Bessie</name>
      <styleUrl>#tier1</styleUrl>
      <description>&lt;b&gt;Tier 1&lt;/b&gt; | Score: 90&lt;br&gt;Owner: Blackmun Bessie&lt;br&gt;Address: Chestnut Ridge Rd, Santa Fe, TN&lt;br&gt;Acreage: 24.2&lt;br&gt;APN: 014-003.00</description>
      <Point>
        <coordinates>-87.08212289773047,35.790746644049676,0</coordinates>
      </Point>
    </Placemark>
    <Placemark>
      <name>Hubbell Larry, Hubbell Jane D</name>
      <styleUrl>#tier1</styleUrl>
      <description>&lt;b&gt;Tier 1&lt;/b&gt; | Score: 90&lt;br&gt;Owner: Hubbell Larry, Hubbell Jane D&lt;br&gt;Address: Scribners Mill Rd, Culleoka, TN&lt;br&gt;Acreage: 50.19&lt;br&gt;APN: 145-022.00</description>
      <Point>
        <coordinates>-86.97680811325283,35.514638882118845,0</coordinates>
      </Point>
    </Placemark>
    <Placemark>
      <name>Colvert Robert K</name>
      <styleUrl>#tier1</styleUrl>
      <description>&lt;b&gt;Tier 1&lt;/b&gt; | Score: 90&lt;br&gt;Owner: Colvert Robert K&lt;br&gt;Address: Goodman Ln, Hampshire, TN&lt;br&gt;Acreage: 10.45&lt;br&gt;APN: 105-047.08</description>
      <Point>
        <coordinates>-87.31137385766611,35.60240420590627,0</coordinates>
      </Point>
    </Placemark>
    <Placemark>
      <name>Staley Colvert D</name>
      <styleUrl>#tier1</styleUrl>
      <description>&lt;b&gt;Tier 1&lt;/b&gt; | Score: 90&lt;br&gt;Owner: Staley Colvert D&lt;br&gt;Address: Dry Fork Rd, Hampshire, TN&lt;br&gt;Acreage: 12.34&lt;br&gt;APN: 105-047.03</description>
      <Point>
        <coordinates>-87.31436554624682,35.59777185972676,0</coordinates>
      </Point>
    </Placemark>
    <Placemark>
      <name>Stutts Dustin R, Stutts Melissa A</name>
      <styleUrl>#tier1</styleUrl>
      <description>&lt;b&gt;Tier 1&lt;/b&gt; | Score: 90&lt;br&gt;Owner: Stutts Dustin R, Stutts Melissa A&lt;br&gt;Address: Scott Branch Rd, Duck River, TN&lt;br&gt;Acreage: 17.35&lt;br&gt;APN: 082-012.01</description>
      <Point>
        <coordinates>-87.3288534632971,35.64725369691357,0</coordinates>
      </Point>
    </Placemark>
    <Placemark>
      <name>Shockney Lois</name>
      <styleUrl>#tier1</styleUrl>
      <description>&lt;b&gt;Tier 1&lt;/b&gt; | Score: 90&lt;br&gt;Owner: Shockney Lois&lt;br&gt;Address: 3702 Franklin Pike, Lewisburg, TN&lt;br&gt;Acreage: 10.0&lt;br&gt;APN: 095-013.03</description>
      <Point>
        <coordinates>-86.82689163784468,35.60146413825781,0</coordinates>
      </Point>
    </Placemark>
    <Placemark>
      <name>Currey Courtney Elizabeth</name>
      <styleUrl>#tier1</styleUrl>
      <description>&lt;b&gt;Tier 1&lt;/b&gt; | Score: 90&lt;br&gt;Owner: Currey Courtney Elizabeth&lt;br&gt;Address: Carthell Rd, Columbia, TN&lt;br&gt;Acreage: 45.0&lt;br&gt;APN: 103-006.02</description>
      <Point>
        <coordinates>-87.19548336673492,35.605428395442594,0</coordinates>
      </Point>
    </Placemark>
    <Placemark>
      <name>Akin Sheila</name>
      <styleUrl>#tier1</styleUrl>
      <description>&lt;b&gt;Tier 1&lt;/b&gt; | Score: 90&lt;br&gt;Owner: Akin Sheila&lt;br&gt;Address: Sam Johnson Rd, Columbia, TN&lt;br&gt;Acreage: 11.11&lt;br&gt;APN: 075-011.11</description>
      <Point>
        <coordinates>-86.99642293828984,35.66207998616687,0</coordinates>
      </Point>
    </Placemark>
    <Placemark>
      <name>Walker Ronnie L, Walker Janice M</name>
      <styleUrl>#tier1</styleUrl>
      <description>&lt;b&gt;Tier 1&lt;/b&gt; | Score: 90&lt;br&gt;Owner: Walker Ronnie L, Walker Janice M&lt;br&gt;Address: Rally Hill Rd, Columbia, TN&lt;br&gt;Acreage: 20.32&lt;br&gt;APN: 070-023.04</description>
      <Point>
        <coordinates>-86.84606277783206,35.664343053559094,0</coordinates>
      </Point>
    </Placemark>
    <Placemark>
      <name>Williams Cindy Cathey</name>
      <styleUrl>#tier1</styleUrl>
      <description>&lt;b&gt;Tier 1&lt;/b&gt; | Score: 90&lt;br&gt;Owner: Williams Cindy Cathey&lt;br&gt;Address: Nashville Hwy, Columbia, TN&lt;br&gt;Acreage: 39.19&lt;br&gt;APN: 075-011.01</description>
      <Point>
        <coordinates>-87.00407854921517,35.660922057991755,0</coordinates>
      </Point>
    </Placemark>
    <Placemark>
      <name>Davis Starling P Trust For The Family Of, Starling Davis Clark</name>
      <styleUrl>#tier1</styleUrl>
      <description>&lt;b&gt;Tier 1&lt;/b&gt; | Score: 90&lt;br&gt;Owner: Davis Starling P Trust For The Family Of, Starling Davis Clark&lt;br&gt;Address: Tom Sharp Rd, Columbia, TN&lt;br&gt;Acreage: 11.8&lt;br&gt;APN: 074-039.00</description>
      <Point>
        <coordinates>-86.96731285506834,35.648584579805785,0</coordinates>
      </Point>
    </Placemark>
    <Placemark>
      <name>Stanfill Vallie C</name>
      <styleUrl>#tier1</styleUrl>
      <description>&lt;b&gt;Tier 1&lt;/b&gt; | Score: 90&lt;br&gt;Owner: Stanfill Vallie C&lt;br&gt;Address: Scott Branch Rd, Duck River, TN&lt;br&gt;Acreage: 19.7&lt;br&gt;APN: 082-006.00</description>
      <Point>
        <coordinates>-87.32216966245844,35.65390321651584,0</coordinates>
      </Point>
    </Placemark>
    <Placemark>
      <name>Howard James, Howard Sujitra J</name>
      <styleUrl>#tier1</styleUrl>
      <description>&lt;b&gt;Tier 1&lt;/b&gt; | Score: 90&lt;br&gt;Owner: Howard James, Howard Sujitra J&lt;br&gt;Address: 1981 Mack Benderman Rd, Culleoka, TN&lt;br&gt;Acreage: 42.31&lt;br&gt;APN: 168-016.07</description>
      <Point>
        <coordinates>-87.12344082901876,35.47224673395967,0</coordinates>
      </Point>
    </Placemark>
    <Placemark>
      <name>Everett Jeremy, Everett Holly</name>
      <styleUrl>#tier1</styleUrl>
      <description>&lt;b&gt;Tier 1&lt;/b&gt; | Score: 90&lt;br&gt;Owner: Everett Jeremy, Everett Holly&lt;br&gt;Address: 2091 Arthur Hardison Rd, Columbia, TN&lt;br&gt;Acreage: 42.18&lt;br&gt;APN: 096-007.00</description>
      <Point>
        <coordinates>-86.88093104968698,35.612922218914576,0</coordinates>
      </Point>
    </Placemark>
    <Placemark>
      <name>Montgomery Judy</name>
      <styleUrl>#tier1</styleUrl>
      <description>&lt;b&gt;Tier 1&lt;/b&gt; | Score: 90&lt;br&gt;Owner: Montgomery Judy&lt;br&gt;Address: Zion Ln, Columbia, TN&lt;br&gt;Acreage: 10.71&lt;br&gt;APN: 102-056.05</description>
      <Point>
        <coordinates>-87.1663386652395,35.59907214433716,0</coordinates>
      </Point>
    </Placemark>
    <Placemark>
      <name>Dodd Jacsun Erik</name>
      <styleUrl>#tier1</styleUrl>
      <description>&lt;b&gt;Tier 1&lt;/b&gt; | Score: 90&lt;br&gt;Owner: Dodd Jacsun Erik&lt;br&gt;Address: Chesley Cheek Rd, Columbia, TN&lt;br&gt;Acreage: 12.0&lt;br&gt;APN: 139-010.01</description>
      <Point>
        <coordinates>-86.90616383462331,35.54894875557028,0</coordinates>
      </Point>
    </Placemark>
    <Placemark>
      <name>Jones Wayne M</name>
      <styleUrl>#tier1</styleUrl>
      <description>&lt;b&gt;Tier 1&lt;/b&gt; | Score: 90&lt;br&gt;Owner: Jones Wayne M&lt;br&gt;Address: Dry Fork Rd, Hampshire, TN&lt;br&gt;Acreage: 34.7&lt;br&gt;APN: 106-009.00</description>
      <Point>
        <coordinates>-87.32657902117072,35.60768027547693,0</coordinates>
      </Point>
    </Placemark>
    <Placemark>
      <name>Patrick Vera F</name>
      <styleUrl>#tier1</styleUrl>
      <description>&lt;b&gt;Tier 1&lt;/b&gt; | Score: 90&lt;br&gt;Owner: Patrick Vera F&lt;br&gt;Address: Trousdale Ln, Columbia, TN&lt;br&gt;Acreage: 12.8&lt;br&gt;APN: 125-038.00</description>
      <Point>
        <coordinates>-87.10312836419112,35.55864221841573,0</coordinates>
      </Point>
    </Placemark>
    <Placemark>
      <name>Vest Family Limited Partnership</name>
      <styleUrl>#tier1</styleUrl>
      <description>&lt;b&gt;Tier 1&lt;/b&gt; | Score: 90&lt;br&gt;Owner: Vest Family Limited Partnership&lt;br&gt;Address: Ashwood Rd, Mt Pleasant, TN&lt;br&gt;Acreage: 67.8&lt;br&gt;APN: 110-006.00</description>
      <Point>
        <coordinates>-87.18634892957303,35.588771851783854,0</coordinates>
      </Point>
    </Placemark>
    <Placemark>
      <name>Mccanless Steven</name>
      <styleUrl>#tier1</styleUrl>
      <description>&lt;b&gt;Tier 1&lt;/b&gt; | Score: 90&lt;br&gt;Owner: Mccanless Steven&lt;br&gt;Address: 874 Blue Springs Rd, Columbia, TN&lt;br&gt;Acreage: 11.89&lt;br&gt;APN: 114-095.01</description>
      <Point>
        <coordinates>-86.99970869625685,35.576019613570004,0</coordinates>
      </Point>
    </Placemark>
    <Placemark>
      <name>Grooms Jason</name>
      <styleUrl>#tier1</styleUrl>
      <description>&lt;b&gt;Tier 1&lt;/b&gt; | Score: 90&lt;br&gt;Owner: Grooms Jason&lt;br&gt;Address: Dog Branch Rd, Mt Pleasant, TN&lt;br&gt;Acreage: 44.16&lt;br&gt;APN: 175-006.00</description>
      <Point>
        <coordinates>-87.18309899772625,35.45358529539363,0</coordinates>
      </Point>
    </Placemark>
    <Placemark>
      <name>Davis Richard A, Davis Deborah</name>
      <styleUrl>#tier1</styleUrl>
      <description>&lt;b&gt;Tier 1&lt;/b&gt; | Score: 90&lt;br&gt;Owner: Davis Richard A, Davis Deborah&lt;br&gt;Address: 1941 New Lawrenceburg Hwy, Mt Pleasant, TN&lt;br&gt;Acreage: 18.15&lt;br&gt;APN: 173-031.02</description>
      <Point>
        <coordinates>-87.27587750888736,35.44288529916136,0</coordinates>
      </Point>
    </Placemark>
    <Placemark>
      <name>Dycus Robert Walker, Delk Nancy Dycus</name>
      <styleUrl>#tier1</styleUrl>
      <description>&lt;b&gt;Tier 1&lt;/b&gt; | Score: 90&lt;br&gt;Owner: Dycus Robert Walker, Delk Nancy Dycus&lt;br&gt;Address: Leipers Creek Rd, Santa Fe, TN&lt;br&gt;Acreage: 41.8&lt;br&gt;APN: 037-003.04</description>
      <Point>
        <coordinates>-87.19131335353987,35.71897279788357,0</coordinates>
      </Point>
    </Placemark>
    <Placemark>
      <name>Corbin David Jeremy, Corbin David Leon</name>
      <styleUrl>#tier1</styleUrl>
      <description>&lt;b&gt;Tier 1&lt;/b&gt; | Score: 90&lt;br&gt;Owner: Corbin David Jeremy, Corbin David Leon&lt;br&gt;Address: Highway 20, Summertown, TN&lt;br&gt;Acreage: 34.96&lt;br&gt;APN: 173-017.00</description>
      <Point>
        <coordinates>-87.28718292880205,35.44341862095092,0</coordinates>
      </Point>
    </Placemark>
    <Placemark>
      <name>Woody George W, Walters Barbara</name>
      <styleUrl>#tier1</styleUrl>
      <description>&lt;b&gt;Tier 1&lt;/b&gt; | Score: 90&lt;br&gt;Owner: Woody George W, Walters Barbara&lt;br&gt;Address: Snow Creek Rd S, Santa Fe, TN&lt;br&gt;Acreage: 44.4&lt;br&gt;APN: 038-022.01</description>
      <Point>
        <coordinates>-87.16290042784847,35.70557078698564,0</coordinates>
      </Point>
    </Placemark>
    <Placemark>
      <name>Padilla Ramon Huerta</name>
      <styleUrl>#tier1</styleUrl>
      <description>&lt;b&gt;Tier 1&lt;/b&gt; | Score: 90&lt;br&gt;Owner: Padilla Ramon Huerta&lt;br&gt;Address: W Sheepneck Rd, Culleoka, TN&lt;br&gt;Acreage: 12.86&lt;br&gt;APN: 171-171.00</description>
      <Point>
        <coordinates>-87.22909315313038,35.46484217549383,0</coordinates>
      </Point>
    </Placemark>
    <Placemark>
      <name>Cothran Rosemarie</name>
      <styleUrl>#tier1</styleUrl>
      <description>&lt;b&gt;Tier 1&lt;/b&gt; | Score: 90&lt;br&gt;Owner: Cothran Rosemarie&lt;br&gt;Address: Davis Cothran Rd, Mt Pleasant, TN&lt;br&gt;Acreage: 17.5&lt;br&gt;APN: 171-136.00</description>
      <Point>
        <coordinates>-87.26358063527843,35.46667021566445,0</coordinates>
      </Point>
    </Placemark>
    <Placemark>
      <name>Sewell Marion</name>
      <styleUrl>#tier1</styleUrl>
      <description>&lt;b&gt;Tier 1&lt;/b&gt; | Score: 90&lt;br&gt;Owner: Sewell Marion&lt;br&gt;Address: Snow Creek Rd, Columbia, TN&lt;br&gt;Acreage: 31.51&lt;br&gt;APN: 038-022.03</description>
      <Point>
        <coordinates>-87.14848725993741,35.710724545931775,0</coordinates>
      </Point>
    </Placemark>
    <Placemark>
      <name>Curtis David B</name>
      <styleUrl>#tier1</styleUrl>
      <description>&lt;b&gt;Tier 1&lt;/b&gt; | Score: 90&lt;br&gt;Owner: Curtis David B&lt;br&gt;Address: New Lawrenceburg Hwy, Mt Pleasant, TN&lt;br&gt;Acreage: 11.76&lt;br&gt;APN: 171-135.01</description>
      <Point>
        <coordinates>-87.2674535277526,35.467968776257955,0</coordinates>
      </Point>
    </Placemark>
    <Placemark>
      <name>Givens Steven Wayne</name>
      <styleUrl>#tier1</styleUrl>
      <description>&lt;b&gt;Tier 1&lt;/b&gt; | Score: 90&lt;br&gt;Owner: Givens Steven Wayne&lt;br&gt;Address: Pigg Schoolhouse Rd, Santa Fe, TN&lt;br&gt;Acreage: 15.75&lt;br&gt;APN: 038-032.00</description>
      <Point>
        <coordinates>-87.1400769354936,35.70754276746277,0</coordinates>
      </Point>
    </Placemark>
    <Placemark>
      <name>Mclendon Dana C</name>
      <styleUrl>#tier1</styleUrl>
      <description>&lt;b&gt;Tier 1&lt;/b&gt; | Score: 90&lt;br&gt;Owner: Mclendon Dana C&lt;br&gt;Address: Trotwood Ave, Columbia, TN&lt;br&gt;Acreage: 33.96&lt;br&gt;APN: 111-029.06</description>
      <Point>
        <coordinates>-87.13576377902157,35.57814634343951,0</coordinates>
      </Point>
    </Placemark>
    <Placemark>
      <name>Welsh Brien, Welsh Maureen</name>
      <styleUrl>#tier1</styleUrl>
      <description>&lt;b&gt;Tier 1&lt;/b&gt; | Score: 90&lt;br&gt;Owner: Welsh Brien, Welsh Maureen&lt;br&gt;Address: 4176 Skelley Rd, Santa Fe, TN&lt;br&gt;Acreage: 17.95&lt;br&gt;APN: 008-029.06</description>
      <Point>
        <coordinates>-87.101621323603,35.79567904155988,0</coordinates>
      </Point>
    </Placemark>
    <Placemark>
      <name>Floyd Michael R</name>
      <styleUrl>#tier1</styleUrl>
      <description>&lt;b&gt;Tier 1&lt;/b&gt; | Score: 90&lt;br&gt;Owner: Floyd Michael R&lt;br&gt;Address: Hampshire Pike, Mount Pleasant, TN&lt;br&gt;Acreage: 10.82&lt;br&gt;APN: 088-071.00</description>
      <Point>
        <coordinates>-87.09816930462407,35.62380016617918,0</coordinates>
      </Point>
    </Placemark>
    <Placemark>
      <name>Lynch Michael O, Lynch Rebecca A</name>
      <styleUrl>#tier1</styleUrl>
      <description>&lt;b&gt;Tier 1&lt;/b&gt; | Score: 90&lt;br&gt;Owner: Lynch Michael O, Lynch Rebecca A&lt;br&gt;Address: Williamsport Pike, Williamsport, TN&lt;br&gt;Acreage: 67.46&lt;br&gt;APN: 036-028.00</description>
      <Point>
        <coordinates>-87.23294157782392,35.70583113107417,0</coordinates>
      </Point>
    </Placemark>
    <Placemark>
      <name>Schendel Paul Marcus, Janaye Arnold</name>
      <styleUrl>#tier1</styleUrl>
      <description>&lt;b&gt;Tier 1&lt;/b&gt; | Score: 90&lt;br&gt;Owner: Schendel Paul Marcus, Janaye Arnold&lt;br&gt;Address: 6737 Leipers Creek Rd, Columbia, TN&lt;br&gt;Acreage: 17.13&lt;br&gt;APN: 009-001.18</description>
      <Point>
        <coordinates>-87.08341588816528,35.80650899430405,0</coordinates>
      </Point>
    </Placemark>
    <Placemark>
      <name>Hampton Elliott K, Hampton Cathy B</name>
      <styleUrl>#tier1</styleUrl>
      <description>&lt;b&gt;Tier 1&lt;/b&gt; | Score: 90&lt;br&gt;Owner: Hampton Elliott K, Hampton Cathy B&lt;br&gt;Address: Ashwood Rd, Mt Pleasant, TN&lt;br&gt;Acreage: 12.0&lt;br&gt;APN: 111-015.01</description>
      <Point>
        <coordinates>-87.16844875883237,35.586262574868265,0</coordinates>
      </Point>
    </Placemark>
    <Placemark>
      <name>Briggs Donald F, Briggs Linda C</name>
      <styleUrl>#tier1</styleUrl>
      <description>&lt;b&gt;Tier 1&lt;/b&gt; | Score: 90&lt;br&gt;Owner: Briggs Donald F, Briggs Linda C&lt;br&gt;Address: Covey Hollow Rd, Culleoka, TN&lt;br&gt;Acreage: 27.45&lt;br&gt;APN: 159-022.00</description>
      <Point>
        <coordinates>-87.02914975891792,35.496007179189206,0</coordinates>
      </Point>
    </Placemark>
    <Placemark>
      <name>Fields Jeffrey, Fields Judith Warden</name>
      <styleUrl>#tier1</styleUrl>
      <description>&lt;b&gt;Tier 1&lt;/b&gt; | Score: 90&lt;br&gt;Owner: Fields Jeffrey, Fields Judith Warden&lt;br&gt;Address: 2055 Mooresville Pike, Culleoka, TN&lt;br&gt;Acreage: 19.49&lt;br&gt;APN: 159-015.03</description>
      <Point>
        <coordinates>-87.01441001024455,35.500980343377464,0</coordinates>
      </Point>
    </Placemark>
    <Placemark>
      <name>Adkisson Alice G</name>
      <styleUrl>#tier1</styleUrl>
      <description>&lt;b&gt;Tier 1&lt;/b&gt; | Score: 90&lt;br&gt;Owner: Adkisson Alice G&lt;br&gt;Address: Buck Daniels Rd, Culleoka, TN&lt;br&gt;Acreage: 25.7&lt;br&gt;APN: 146-006.00</description>
      <Point>
        <coordinates>-86.99487884153534,35.52088248475201,0</coordinates>
      </Point>
    </Placemark>
    <Placemark>
      <name>Maynard Terrell Geoffrey</name>
      <styleUrl>#tier1</styleUrl>
      <description>&lt;b&gt;Tier 1&lt;/b&gt; | Score: 90&lt;br&gt;Owner: Maynard Terrell Geoffrey&lt;br&gt;Address: Nashville Hwy, Columbia, TN&lt;br&gt;Acreage: 14.1&lt;br&gt;APN: 066-010.03</description>
      <Point>
        <coordinates>-86.99966289601844,35.68277419380435,0</coordinates>
      </Point>
    </Placemark>
    <Placemark>
      <name>Toombs William, Toombs Sandra</name>
      <styleUrl>#tier1</styleUrl>
      <description>&lt;b&gt;Tier 1&lt;/b&gt; | Score: 90&lt;br&gt;Owner: Toombs William, Toombs Sandra&lt;br&gt;Address: Hopewell Rd, Culleoka, TN&lt;br&gt;Acreage: 14.15&lt;br&gt;APN: 167-006.04</description>
      <Point>
        <coordinates>-87.06360279081584,35.4762813137469,0</coordinates>
      </Point>
    </Placemark>
    <Placemark>
      <name>Southall Oneal Kennedy</name>
      <styleUrl>#tier1</styleUrl>
      <description>&lt;b&gt;Tier 1&lt;/b&gt; | Score: 90&lt;br&gt;Owner: Southall Oneal Kennedy&lt;br&gt;Address: Sowell Hollow Rd, Columbia, TN&lt;br&gt;Acreage: 10.0&lt;br&gt;APN: 135-028.00</description>
      <Point>
        <coordinates>-87.11638015457379,35.53256962482554,0</coordinates>
      </Point>
    </Placemark>
    <Placemark>
      <name>Fox Family Real Estate Llc</name>
      <styleUrl>#tier1</styleUrl>
      <description>&lt;b&gt;Tier 1&lt;/b&gt; | Score: 90&lt;br&gt;Owner: Fox Family Real Estate Llc&lt;br&gt;Address: Sulphur Springs Brch Rd, Columbia, TN&lt;br&gt;Acreage: 41.96&lt;br&gt;APN: 014-019.05</description>
      <Point>
        <coordinates>-87.05283839352043,35.79000748167927,0</coordinates>
      </Point>
    </Placemark>
    <Placemark>
      <name>Fox Family Real Estate Llc</name>
      <styleUrl>#tier1</styleUrl>
      <description>&lt;b&gt;Tier 1&lt;/b&gt; | Score: 90&lt;br&gt;Owner: Fox Family Real Estate Llc&lt;br&gt;Address: Chestnut Ridge Rd, Santa Fe, TN&lt;br&gt;Acreage: 30.0&lt;br&gt;APN: 015-039.00</description>
      <Point>
        <coordinates>-87.10200871494857,35.7731230141319,0</coordinates>
      </Point>
    </Placemark>
    <Placemark>
      <name>Cochran Goad Diana Jane</name>
      <styleUrl>#tier1</styleUrl>
      <description>&lt;b&gt;Tier 1&lt;/b&gt; | Score: 90&lt;br&gt;Owner: Cochran Goad Diana Jane&lt;br&gt;Address: Williamsport Pike, Williamsport, TN&lt;br&gt;Acreage: 11.18&lt;br&gt;APN: 088-059.01</description>
      <Point>
        <coordinates>-87.10519466684448,35.62632205857542,0</coordinates>
      </Point>
    </Placemark>
    <Placemark>
      <name>Woody Paula G</name>
      <styleUrl>#tier1</styleUrl>
      <description>&lt;b&gt;Tier 1&lt;/b&gt; | Score: 90&lt;br&gt;Owner: Woody Paula G&lt;br&gt;Address: Beechcroft Rd, Spring Hill, TN&lt;br&gt;Acreage: 12.68&lt;br&gt;APN: 023-018.04</description>
      <Point>
        <coordinates>-87.00750355634693,35.7551040572999,0</coordinates>
      </Point>
    </Placemark>
    <Placemark>
      <name>Beard Milton Wade, Beard Donna</name>
      <styleUrl>#tier1</styleUrl>
      <description>&lt;b&gt;Tier 1&lt;/b&gt; | Score: 90&lt;br&gt;Owner: Beard Milton Wade, Beard Donna&lt;br&gt;Address: Beard Rd, Primm Springs, TN&lt;br&gt;Acreage: 50.0&lt;br&gt;APN: 006-004.15</description>
      <Point>
        <coordinates>-87.18836777977414,35.811567335186794,0</coordinates>
      </Point>
    </Placemark>
    <Placemark>
      <name>Smith Billy H</name>
      <styleUrl>#tier1</styleUrl>
      <description>&lt;b&gt;Tier 1&lt;/b&gt; | Score: 90&lt;br&gt;Owner: Smith Billy H&lt;br&gt;Address: West Point Rd, Mt Pleasant, TN&lt;br&gt;Acreage: 17.0&lt;br&gt;APN: 109-009.00</description>
      <Point>
        <coordinates>-87.2344561233489,35.59222827398581,0</coordinates>
      </Point>
    </Placemark>
    <Placemark>
      <name>Tua Janice Ring Revocable Trust, Ring</name>
      <styleUrl>#tier1</styleUrl>
      <description>&lt;b&gt;Tier 1&lt;/b&gt; | Score: 90&lt;br&gt;Owner: Tua Janice Ring Revocable Trust, Ring&lt;br&gt;Address: Saturn Pkwy, Spring Hill, TN&lt;br&gt;Acreage: 20.07&lt;br&gt;APN: 028-010.08</description>
      <Point>
        <coordinates>-86.90522398596396,35.73456789865973,0</coordinates>
      </Point>
    </Placemark>
    <Placemark>
      <name>Fox Thomas Collie</name>
      <styleUrl>#tier1</styleUrl>
      <description>&lt;b&gt;Tier 1&lt;/b&gt; | Score: 90&lt;br&gt;Owner: Fox Thomas Collie&lt;br&gt;Address: Gaskill Branch Rd, Santa Fe, TN&lt;br&gt;Acreage: 33.28&lt;br&gt;APN: 021-014.00</description>
      <Point>
        <coordinates>-87.1086951759354,35.765043870605275,0</coordinates>
      </Point>
    </Placemark>
    <Placemark>
      <name>Holloway Robert L, Holloway James E</name>
      <styleUrl>#tier1</styleUrl>
      <description>&lt;b&gt;Tier 1&lt;/b&gt; | Score: 90&lt;br&gt;Owner: Holloway Robert L, Holloway James E&lt;br&gt;Address: Royal Park Blvd, Spring Hill, TN&lt;br&gt;Acreage: 13.12&lt;br&gt;APN: 028-010.02</description>
      <Point>
        <coordinates>-86.92340230579897,35.728824207189135,0</coordinates>
      </Point>
    </Placemark>
    <Placemark>
      <name>Turner Craig, Turner Andrea</name>
      <styleUrl>#tier1</styleUrl>
      <description>&lt;b&gt;Tier 1&lt;/b&gt; | Score: 90&lt;br&gt;Owner: Turner Craig, Turner Andrea&lt;br&gt;Address: Southport Rd, Mt Pleasant, TN&lt;br&gt;Acreage: 57.7&lt;br&gt;APN: 133-028.00</description>
      <Point>
        <coordinates>-87.19077923102589,35.5313460587714,0</coordinates>
      </Point>
    </Placemark>
    <Placemark>
      <name>Richardson James A, Richardson Joseph K</name>
      <styleUrl>#tier1</styleUrl>
      <description>&lt;b&gt;Tier 1&lt;/b&gt; | Score: 90&lt;br&gt;Owner: Richardson James A, Richardson Joseph K&lt;br&gt;Address: Old Natchez Trce, Santa Fe, TN&lt;br&gt;Acreage: 12.24&lt;br&gt;APN: 007-004.00</description>
      <Point>
        <coordinates>-87.17174679744168,35.81173515528437,0</coordinates>
      </Point>
    </Placemark>
    <Placemark>
      <name>Mangrum Cathy G, Mangrum Jo Lynn</name>
      <styleUrl>#tier1</styleUrl>
      <description>&lt;b&gt;Tier 1&lt;/b&gt; | Score: 90&lt;br&gt;Owner: Mangrum Cathy G, Mangrum Jo Lynn&lt;br&gt;Address: Fly Hollow Rd, Santa Fe, TN&lt;br&gt;Acreage: 14.51&lt;br&gt;APN: 007-004.01</description>
      <Point>
        <coordinates>-87.17182974756552,35.8093817255062,0</coordinates>
      </Point>
    </Placemark>
    <Placemark>
      <name>Arroyo Martin, Arroyo Karen</name>
      <styleUrl>#tier1</styleUrl>
      <description>&lt;b&gt;Tier 1&lt;/b&gt; | Score: 90&lt;br&gt;Owner: Arroyo Martin, Arroyo Karen&lt;br&gt;Address: Water Valley Rd, Santa Fe, TN&lt;br&gt;Acreage: 29.72&lt;br&gt;APN: 033-019.01</description>
      <Point>
        <coordinates>-87.17491144581561,35.7381578040155,0</coordinates>
      </Point>
    </Placemark>
    <Placemark>
      <name>Love Brian C, Love Richard D</name>
      <styleUrl>#tier1</styleUrl>
      <description>&lt;b&gt;Tier 1&lt;/b&gt; | Score: 90&lt;br&gt;Owner: Love Brian C, Love Richard D&lt;br&gt;Address: Double Branch Rd, Columbia, TN&lt;br&gt;Acreage: 37.25&lt;br&gt;APN: 051-050.00</description>
      <Point>
        <coordinates>-86.94683298686854,35.686037179237445,0</coordinates>
      </Point>
    </Placemark>
    <Placemark>
      <name>Harris Phillip J, Harris Mary K</name>
      <styleUrl>#tier1</styleUrl>
      <description>&lt;b&gt;Tier 1&lt;/b&gt; | Score: 90&lt;br&gt;Owner: Harris Phillip J, Harris Mary K&lt;br&gt;Address: New Highway 7, Santa Fe, TN&lt;br&gt;Acreage: 12.22&lt;br&gt;APN: 033-006.02</description>
      <Point>
        <coordinates>-87.1402277868779,35.74114678354805,0</coordinates>
      </Point>
    </Placemark>
    <Placemark>
      <name>Lee Owen Deborah</name>
      <styleUrl>#tier1</styleUrl>
      <description>&lt;b&gt;Tier 1&lt;/b&gt; | Score: 90&lt;br&gt;Owner: Lee Owen Deborah&lt;br&gt;Address: Fly Hollow Rd, Santa Fe, TN&lt;br&gt;Acreage: 12.2&lt;br&gt;APN: 007-004.03</description>
      <Point>
        <coordinates>-87.17199687349273,35.80587175068202,0</coordinates>
      </Point>
    </Placemark>
    <Placemark>
      <name>Strickroot Matthew, Strickroot Anne</name>
      <styleUrl>#tier1</styleUrl>
      <description>&lt;b&gt;Tier 1&lt;/b&gt; | Score: 90&lt;br&gt;Owner: Strickroot Matthew, Strickroot Anne&lt;br&gt;Address: Flat Creek Rd, Spring Hill, TN&lt;br&gt;Acreage: 15.0&lt;br&gt;APN: 046-002.00</description>
      <Point>
        <coordinates>-86.80160363942282,35.70940915158407,0</coordinates>
      </Point>
    </Placemark>
    <Placemark>
      <name>Collier Yvonne C Marital Trust, Collier Jerry F</name>
      <styleUrl>#tier1</styleUrl>
      <description>&lt;b&gt;Tier 1&lt;/b&gt; | Score: 90&lt;br&gt;Owner: Collier Yvonne C Marital Trust, Collier Jerry F&lt;br&gt;Address: Leipers Creek Rd, Santa Fe, TN&lt;br&gt;Acreage: 47.45&lt;br&gt;APN: 056-008.02</description>
      <Point>
        <coordinates>-87.20055502341157,35.69987736607918,0</coordinates>
      </Point>
    </Placemark>
    <Placemark>
      <name>Nixon Mary Jordan Irrevocable Trust, Nixon John Beebe</name>
      <styleUrl>#tier1</styleUrl>
      <description>&lt;b&gt;Tier 1&lt;/b&gt; | Score: 90&lt;br&gt;Owner: Nixon Mary Jordan Irrevocable Trust, Nixon John Beebe&lt;br&gt;Address: New Highway 7, Santa Fe, TN&lt;br&gt;Acreage: 27.84&lt;br&gt;APN: 006-002.07</description>
      <Point>
        <coordinates>-87.20233388497655,35.812035378450155,0</coordinates>
      </Point>
    </Placemark>
    <Placemark>
      <name>Bruner Collier Larry</name>
      <styleUrl>#tier1</styleUrl>
      <description>&lt;b&gt;Tier 1&lt;/b&gt; | Score: 90&lt;br&gt;Owner: Bruner Collier Larry&lt;br&gt;Address: Leipers Creek Rd, Santa Fe, TN&lt;br&gt;Acreage: 36.25&lt;br&gt;APN: 056-008.00</description>
      <Point>
        <coordinates>-87.19634789876719,35.700076697873726,0</coordinates>
      </Point>
    </Placemark>
    <Placemark>
      <name>Grandy Gregory L, Hale Michelle K</name>
      <styleUrl>#tier1</styleUrl>
      <description>&lt;b&gt;Tier 1&lt;/b&gt; | Score: 90&lt;br&gt;Owner: Grandy Gregory L, Hale Michelle K&lt;br&gt;Address: 1653 Grants Rd, Columbia, TN&lt;br&gt;Acreage: 25.41&lt;br&gt;APN: 023-010.33</description>
      <Point>
        <coordinates>-87.03383066359004,35.75666365203829,0</coordinates>
      </Point>
    </Placemark>
    <Placemark>
      <name>Harris Carl, Harris Katherine P</name>
      <styleUrl>#tier1</styleUrl>
      <description>&lt;b&gt;Tier 1&lt;/b&gt; | Score: 90&lt;br&gt;Owner: Harris Carl, Harris Katherine P&lt;br&gt;Address: Leipers Creek Rd, Santa Fe, TN&lt;br&gt;Acreage: 34.8&lt;br&gt;APN: 056-006.00</description>
      <Point>
        <coordinates>-87.20042255313447,35.69656728131289,0</coordinates>
      </Point>
    </Placemark>
    <Placemark>
      <name>Jones Living Trust, Jones Nancy Phung</name>
      <styleUrl>#tier1</styleUrl>
      <description>&lt;b&gt;Tier 1&lt;/b&gt; | Score: 90&lt;br&gt;Owner: Jones Living Trust, Jones Nancy Phung&lt;br&gt;Address: Leipers Creek Rd, Santa Fe, TN&lt;br&gt;Acreage: 10.89&lt;br&gt;APN: 008-006.08</description>
      <Point>
        <coordinates>-87.08856554491415,35.80065375731597,0</coordinates>
      </Point>
    </Placemark>
    <Placemark>
      <name>Fitzgerald Ronald Marion</name>
      <styleUrl>#tier1</styleUrl>
      <description>&lt;b&gt;Tier 1&lt;/b&gt; | Score: 90&lt;br&gt;Owner: Fitzgerald Ronald Marion&lt;br&gt;Address: Snow Creek Rd, Columbia, TN&lt;br&gt;Acreage: 49.56&lt;br&gt;APN: 022-010.00</description>
      <Point>
        <coordinates>-87.05647760670928,35.766276588741256,0</coordinates>
      </Point>
    </Placemark>
    <Placemark>
      <name>Baker Carlton D</name>
      <styleUrl>#tier1</styleUrl>
      <description>&lt;b&gt;Tier 1&lt;/b&gt; | Score: 90&lt;br&gt;Owner: Baker Carlton D&lt;br&gt;Address: Carters Creek Pike, Columbia, TN&lt;br&gt;Acreage: 40.68&lt;br&gt;APN: 023-007.01</description>
      <Point>
        <coordinates>-87.01116922682327,35.76040842340119,0</coordinates>
      </Point>
    </Placemark>
    <Placemark>
      <name>Sears Joseph D, Sears Jaclyn F</name>
      <styleUrl>#tier1</styleUrl>
      <description>&lt;b&gt;Tier 1&lt;/b&gt; | Score: 90&lt;br&gt;Owner: Sears Joseph D, Sears Jaclyn F&lt;br&gt;Address: 1873 Lochlann Dr, Culleoka, TN&lt;br&gt;Acreage: 80.76&lt;br&gt;APN: 146-019.22</description>
      <Point>
        <coordinates>-87.02666724610182,35.524466555322995,0</coordinates>
      </Point>
    </Placemark>
    <Placemark>
      <name>Ruth James Eleanor, Joyce Ridley Myra</name>
      <styleUrl>#tier1</styleUrl>
      <description>&lt;b&gt;Tier 1&lt;/b&gt; | Score: 90&lt;br&gt;Owner: Ruth James Eleanor, Joyce Ridley Myra&lt;br&gt;Address: Gravel Hill Rd, Columbia, TN&lt;br&gt;Acreage: 24.4&lt;br&gt;APN: 022-019.00</description>
      <Point>
        <coordinates>-87.0424925547388,35.77070874032084,0</coordinates>
      </Point>
    </Placemark>
    <Placemark>
      <name>Anderson James Richard, Aquina Margaret</name>
      <styleUrl>#tier1</styleUrl>
      <description>&lt;b&gt;Tier 1&lt;/b&gt; | Score: 90&lt;br&gt;Owner: Anderson James Richard, Aquina Margaret&lt;br&gt;Address: Leatherwood Rd, Primm Springs, TN&lt;br&gt;Acreage: 10.7&lt;br&gt;APN: 017-016.00</description>
      <Point>
        <coordinates>-87.20680088592556,35.77598987833136,0</coordinates>
      </Point>
    </Placemark>
    <Placemark>
      <name>Barrett D Michele</name>
      <styleUrl>#tier1</styleUrl>
      <description>&lt;b&gt;Tier 1&lt;/b&gt; | Score: 90&lt;br&gt;Owner: Barrett D Michele&lt;br&gt;Address: Porters Branch Rd, Santa Fe, TN&lt;br&gt;Acreage: 95.71&lt;br&gt;APN: 004-003.00</description>
      <Point>
        <coordinates>-87.15896746541034,35.83104673524947,0</coordinates>
      </Point>
    </Placemark>
    <Placemark>
      <name>Rattle &amp; Snap Sportsmen Llc</name>
      <styleUrl>#tier1</styleUrl>
      <description>&lt;b&gt;Tier 1&lt;/b&gt; | Score: 90&lt;br&gt;Owner: Rattle &amp; Snap Sportsmen Llc&lt;br&gt;Address: Rainey St E, Mount Pleasant, TN&lt;br&gt;Acreage: 33.4&lt;br&gt;APN: 133-015.01</description>
      <Point>
        <coordinates>-87.19491943894695,35.536627964184106,0</coordinates>
      </Point>
    </Placemark>
    <Placemark>
      <name>Fox Family Real Estate Llc</name>
      <styleUrl>#tier1</styleUrl>
      <description>&lt;b&gt;Tier 1&lt;/b&gt; | Score: 90&lt;br&gt;Owner: Fox Family Real Estate Llc&lt;br&gt;Address: Snow Creek Rd, Columbia, TN&lt;br&gt;Acreage: 57.82&lt;br&gt;APN: 022-007.00</description>
      <Point>
        <coordinates>-87.06058905695514,35.77109173342955,0</coordinates>
      </Point>
    </Placemark>
    <Placemark>
      <name>Williams Lydia Jean</name>
      <styleUrl>#tier1</styleUrl>
      <description>&lt;b&gt;Tier 1&lt;/b&gt; | Score: 90&lt;br&gt;Owner: Williams Lydia Jean&lt;br&gt;Address: Chestnut Ridge Rd N, Santa Fe, TN&lt;br&gt;Acreage: 18.0&lt;br&gt;APN: 015-024.00</description>
      <Point>
        <coordinates>-87.11250980853507,35.77488167837424,0</coordinates>
      </Point>
    </Placemark>
    <Placemark>
      <name>Santos Pam</name>
      <styleUrl>#tier1</styleUrl>
      <description>&lt;b&gt;Tier 1&lt;/b&gt; | Score: 90&lt;br&gt;Owner: Santos Pam&lt;br&gt;Address: Petty Ln, Columbia, TN&lt;br&gt;Acreage: 17.58&lt;br&gt;APN: 030-008.00</description>
      <Point>
        <coordinates>-86.99425791345595,35.74358678397756,0</coordinates>
      </Point>
    </Placemark>
    <Placemark>
      <name>Mayberry Everett Lee, Mayberry Martha B</name>
      <styleUrl>#tier1</styleUrl>
      <description>&lt;b&gt;Tier 1&lt;/b&gt; | Score: 90&lt;br&gt;Owner: Mayberry Everett Lee, Mayberry Martha B&lt;br&gt;Address: Booker Farm Rd, Mt Pleasant, TN&lt;br&gt;Acreage: 18.04&lt;br&gt;APN: 080-012.01</description>
      <Point>
        <coordinates>-87.24455010214487,35.64421355752389,0</coordinates>
      </Point>
    </Placemark>
    <Placemark>
      <name>Sullens Charles, Sullens Tammy</name>
      <styleUrl>#tier1</styleUrl>
      <description>&lt;b&gt;Tier 1&lt;/b&gt; | Score: 90&lt;br&gt;Owner: Sullens Charles, Sullens Tammy&lt;br&gt;Address: Pickard Hollow Rd, Mt Pleasant, TN&lt;br&gt;Acreage: 14.5&lt;br&gt;APN: 154-018.06</description>
      <Point>
        <coordinates>-87.24693802961026,35.48944851842023,0</coordinates>
      </Point>
    </Placemark>
    <Placemark>
      <name>Davis Mickel E, Davis Lynn A</name>
      <styleUrl>#tier1</styleUrl>
      <description>&lt;b&gt;Tier 1&lt;/b&gt; | Score: 90&lt;br&gt;Owner: Davis Mickel E, Davis Lynn A&lt;br&gt;Address: Old Natchez Trace Pkwy N, Santa Fe, TN&lt;br&gt;Acreage: 37.5&lt;br&gt;APN: 004-010.00</description>
      <Point>
        <coordinates>-87.14707068799302,35.82246706331357,0</coordinates>
      </Point>
    </Placemark>
    <Placemark>
      <name>Phaneuf Scott, Phaneuf Amy</name>
      <styleUrl>#tier1</styleUrl>
      <description>&lt;b&gt;Tier 1&lt;/b&gt; | Score: 90&lt;br&gt;Owner: Phaneuf Scott, Phaneuf Amy&lt;br&gt;Address: Williamsport Pike, Williamsport, TN&lt;br&gt;Acreage: 24.11&lt;br&gt;APN: 088-055.00</description>
      <Point>
        <coordinates>-87.09826712444666,35.62760323829809,0</coordinates>
      </Point>
    </Placemark>
    <Placemark>
      <name>Webster Matilda</name>
      <styleUrl>#tier1</styleUrl>
      <description>&lt;b&gt;Tier 1&lt;/b&gt; | Score: 90&lt;br&gt;Owner: Webster Matilda&lt;br&gt;Address: Monsanto Rd, Columbia, TN&lt;br&gt;Acreage: 15.3&lt;br&gt;APN: 088-019.00</description>
      <Point>
        <coordinates>-87.10187052413738,35.63648340864552,0</coordinates>
      </Point>
    </Placemark>
    <Placemark>
      <name>Cox Larry M, Cox Marie</name>
      <styleUrl>#tier1</styleUrl>
      <description>&lt;b&gt;Tier 1&lt;/b&gt; | Score: 90&lt;br&gt;Owner: Cox Larry M, Cox Marie&lt;br&gt;Address: Lick Creek Rd S, Primm Springs, TN&lt;br&gt;Acreage: 24.5&lt;br&gt;APN: 001-010.00</description>
      <Point>
        <coordinates>-87.20253224526363,35.83683965569581,0</coordinates>
      </Point>
    </Placemark>
    <Placemark>
      <name>Rizzo Donna, Rizzo Gary M</name>
      <styleUrl>#tier1</styleUrl>
      <description>&lt;b&gt;Tier 1&lt;/b&gt; | Score: 90&lt;br&gt;Owner: Rizzo Donna, Rizzo Gary M&lt;br&gt;Address: Old Natchez Trce, Santa Fe, TN&lt;br&gt;Acreage: 37.0&lt;br&gt;APN: 003-004.02</description>
      <Point>
        <coordinates>-87.12415284294651,35.81764064457865,0</coordinates>
      </Point>
    </Placemark>
    <Placemark>
      <name>Sarfehjoo Mohsen, Sarfehjoo Janis C</name>
      <styleUrl>#tier1</styleUrl>
      <description>&lt;b&gt;Tier 1&lt;/b&gt; | Score: 90&lt;br&gt;Owner: Sarfehjoo Mohsen, Sarfehjoo Janis C&lt;br&gt;Address: Leipers Creek Rd, Santa Fe, TN&lt;br&gt;Acreage: 45.36&lt;br&gt;APN: 016-003.01</description>
      <Point>
        <coordinates>-87.16933988118467,35.79175762843235,0</coordinates>
      </Point>
    </Placemark>
    <Placemark>
      <name>Kalluvila Raj Shibu</name>
      <styleUrl>#tier1</styleUrl>
      <description>&lt;b&gt;Tier 1&lt;/b&gt; | Score: 90&lt;br&gt;Owner: Kalluvila Raj Shibu&lt;br&gt;Address: Donra Way, Columbia, TN&lt;br&gt;Acreage: 20.59&lt;br&gt;APN: 072-010.02</description>
      <Point>
        <coordinates>-86.86215805506396,35.65684912788109,0</coordinates>
      </Point>
    </Placemark>
    <Placemark>
      <name>Brooks Cynthia Lynn</name>
      <styleUrl>#tier1</styleUrl>
      <description>&lt;b&gt;Tier 1&lt;/b&gt; | Score: 90&lt;br&gt;Owner: Brooks Cynthia Lynn&lt;br&gt;Address: William Ln, Columbia, TN&lt;br&gt;Acreage: 11.37&lt;br&gt;APN: 093-012.22</description>
      <Point>
        <coordinates>-86.87636452962994,35.630708334399316,0</coordinates>
      </Point>
    </Placemark>
    <Placemark>
      <name>Barrientos Sergio Romo, Martinez Benito Macias</name>
      <styleUrl>#tier1</styleUrl>
      <description>&lt;b&gt;Tier 1&lt;/b&gt; | Score: 90&lt;br&gt;Owner: Barrientos Sergio Romo, Martinez Benito Macias&lt;br&gt;Address: 1989 Luther Sharp Rd, Columbia, TN&lt;br&gt;Acreage: 10.68&lt;br&gt;APN: 093-012.16</description>
      <Point>
        <coordinates>-86.87934507311533,35.626854076310664,0</coordinates>
      </Point>
    </Placemark>
    <Placemark>
      <name>Roberts Samuel &amp; Meagan Living Trust, Roberts Samuel</name>
      <styleUrl>#tier1</styleUrl>
      <description>&lt;b&gt;Tier 1&lt;/b&gt; | Score: 90&lt;br&gt;Owner: Roberts Samuel &amp; Meagan Living Trust, Roberts Samuel&lt;br&gt;Address: Tom Rail Rd, Primm Springs, TN&lt;br&gt;Acreage: 25.06&lt;br&gt;APN: 004-001.07</description>
      <Point>
        <coordinates>-87.17582556760465,35.83192318516153,0</coordinates>
      </Point>
    </Placemark>
    <Placemark>
      <name>Rahuman Abdul, Rahuman Zuwairiya N</name>
      <styleUrl>#tier1</styleUrl>
      <description>&lt;b&gt;Tier 1&lt;/b&gt; | Score: 90&lt;br&gt;Owner: Rahuman Abdul, Rahuman Zuwairiya N&lt;br&gt;Address: Rally Hill Cutoff, Columbia, TN&lt;br&gt;Acreage: 18.53&lt;br&gt;APN: 069-024.03</description>
      <Point>
        <coordinates>-86.84930128214137,35.665961955665594,0</coordinates>
      </Point>
    </Placemark>
    <Placemark>
      <name>Susan K Ivey Income Only Trust, Bassham</name>
      <styleUrl>#tier1</styleUrl>
      <description>&lt;b&gt;Tier 1&lt;/b&gt; | Score: 90&lt;br&gt;Owner: Susan K Ivey Income Only Trust, Bassham&lt;br&gt;Address: Williamsport Pike, Williamsport, TN&lt;br&gt;Acreage: 15.1&lt;br&gt;APN: 062-055.02</description>
      <Point>
        <coordinates>-87.17951848841642,35.665277442873894,0</coordinates>
      </Point>
    </Placemark>
    <Placemark>
      <name>Headden Billy Fay, Headden Linda Gayle</name>
      <styleUrl>#tier1</styleUrl>
      <description>&lt;b&gt;Tier 1&lt;/b&gt; | Score: 90&lt;br&gt;Owner: Headden Billy Fay, Headden Linda Gayle&lt;br&gt;Address: Mckibbon Rd, Culleoka, TN&lt;br&gt;Acreage: 17.8&lt;br&gt;APN: 164-005.12</description>
      <Point>
        <coordinates>-86.92297151108085,35.466988348401145,0</coordinates>
      </Point>
    </Placemark>
    <Placemark>
      <name>Preston Aubrey B</name>
      <styleUrl>#tier1</styleUrl>
      <description>&lt;b&gt;Tier 1&lt;/b&gt; | Score: 90&lt;br&gt;Owner: Preston Aubrey B&lt;br&gt;Address: Porters Branch Rd, Santa Fe, TN&lt;br&gt;Acreage: 48.5&lt;br&gt;APN: 004-005.00</description>
      <Point>
        <coordinates>-87.15238696901936,35.828956476115984,0</coordinates>
      </Point>
    </Placemark>
    <Placemark>
      <name>Wiley Roy W, Wiley Lorene J</name>
      <styleUrl>#tier1</styleUrl>
      <description>&lt;b&gt;Tier 1&lt;/b&gt; | Score: 90&lt;br&gt;Owner: Wiley Roy W, Wiley Lorene J&lt;br&gt;Address: Poplar Creek Rd, Williamsport, TN&lt;br&gt;Acreage: 13.9&lt;br&gt;APN: 062-034.04</description>
      <Point>
        <coordinates>-87.20827673442093,35.671934003691,0</coordinates>
      </Point>
    </Placemark>
    <Placemark>
      <name>Dale Rebecca Lea, Dale James Maston</name>
      <styleUrl>#tier1</styleUrl>
      <description>&lt;b&gt;Tier 1&lt;/b&gt; | Score: 90&lt;br&gt;Owner: Dale Rebecca Lea, Dale James Maston&lt;br&gt;Address: 3848 Booker Farm Rd, Mount Pleasant, TN&lt;br&gt;Acreage: 12.11&lt;br&gt;APN: 080-017.02</description>
      <Point>
        <coordinates>-87.25234129523994,35.64596104223789,0</coordinates>
      </Point>
    </Placemark>
    <Placemark>
      <name>Holton Cynthia D</name>
      <styleUrl>#tier1</styleUrl>
      <description>&lt;b&gt;Tier 1&lt;/b&gt; | Score: 90&lt;br&gt;Owner: Holton Cynthia D&lt;br&gt;Address: Old Highway 99, Columbia, TN&lt;br&gt;Acreage: 13.0&lt;br&gt;APN: 073-029.01</description>
      <Point>
        <coordinates>-86.92080521044466,35.64740186024818,0</coordinates>
      </Point>
    </Placemark>
    <Placemark>
      <name>Patt Mary Ava</name>
      <styleUrl>#tier1</styleUrl>
      <description>&lt;b&gt;Tier 1&lt;/b&gt; | Score: 90&lt;br&gt;Owner: Patt Mary Ava&lt;br&gt;Address: Old Natchez Trace Pkwy, Williamsport, TN&lt;br&gt;Acreage: 17.0&lt;br&gt;APN: 019-003.00</description>
      <Point>
        <coordinates>-87.20522240219972,35.76772694100863,0</coordinates>
      </Point>
    </Placemark>
    <Placemark>
      <name>Pye Pauline</name>
      <styleUrl>#tier1</styleUrl>
      <description>&lt;b&gt;Tier 1&lt;/b&gt; | Score: 90&lt;br&gt;Owner: Pye Pauline&lt;br&gt;Address: Southpoint Ridge Rd, Hampshire, TN&lt;br&gt;Acreage: 15.5&lt;br&gt;APN: 060-022.00</description>
      <Point>
        <coordinates>-87.3038065875817,35.664059271134455,0</coordinates>
      </Point>
    </Placemark>
    <Placemark>
      <name>Martin Willard, Martin Christa S</name>
      <styleUrl>#tier1</styleUrl>
      <description>&lt;b&gt;Tier 1&lt;/b&gt; | Score: 90&lt;br&gt;Owner: Martin Willard, Martin Christa S&lt;br&gt;Address: Cliff Amos Rd, Spring Hill, TN&lt;br&gt;Acreage: 11.22&lt;br&gt;APN: 073-003.09</description>
      <Point>
        <coordinates>-86.92849374502293,35.66154547859248,0</coordinates>
      </Point>
    </Placemark>
    <Placemark>
      <name>Kato Patricia Webster</name>
      <styleUrl>#tier1</styleUrl>
      <description>&lt;b&gt;Tier 1&lt;/b&gt; | Score: 90&lt;br&gt;Owner: Kato Patricia Webster&lt;br&gt;Address: Southpoint Ridge Rd, Hampshire, TN&lt;br&gt;Acreage: 34.5&lt;br&gt;APN: 060-018.00</description>
      <Point>
        <coordinates>-87.29470820800702,35.66200810507529,0</coordinates>
      </Point>
    </Placemark>
    <Placemark>
      <name>Peden Linda F</name>
      <styleUrl>#tier1</styleUrl>
      <description>&lt;b&gt;Tier 1&lt;/b&gt; | Score: 90&lt;br&gt;Owner: Peden Linda F&lt;br&gt;Address: Kettle Mills Rd, Hampshire, TN&lt;br&gt;Acreage: 11.48&lt;br&gt;APN: 060-009.02</description>
      <Point>
        <coordinates>-87.2925949520536,35.67527958635053,0</coordinates>
      </Point>
    </Placemark>
    <Placemark>
      <name>Dean Travis Kenneth</name>
      <styleUrl>#tier1</styleUrl>
      <description>&lt;b&gt;Tier 1&lt;/b&gt; | Score: 90&lt;br&gt;Owner: Dean Travis Kenneth&lt;br&gt;Address: Kettle Mills Rd, Hampshire, TN&lt;br&gt;Acreage: 11.61&lt;br&gt;APN: 060-009.01</description>
      <Point>
        <coordinates>-87.29190818731408,35.674375653607385,0</coordinates>
      </Point>
    </Placemark>
    <Placemark>
      <name>Hagaman James A, Hagaman Gina L</name>
      <styleUrl>#tier1</styleUrl>
      <description>&lt;b&gt;Tier 1&lt;/b&gt; | Score: 90&lt;br&gt;Owner: Hagaman James A, Hagaman Gina L&lt;br&gt;Address: 1807 Barker Rd, Columbia, TN&lt;br&gt;Acreage: 11.23&lt;br&gt;APN: 072-023.03</description>
      <Point>
        <coordinates>-86.88759999083754,35.652263958051776,0</coordinates>
      </Point>
    </Placemark>
    <Placemark>
      <name>Akin Sheila</name>
      <styleUrl>#tier1</styleUrl>
      <description>&lt;b&gt;Tier 1&lt;/b&gt; | Score: 90&lt;br&gt;Owner: Akin Sheila&lt;br&gt;Address: Center Star Rd, Columbia, TN&lt;br&gt;Acreage: 18.5&lt;br&gt;APN: 067-029.17</description>
      <Point>
        <coordinates>-86.98599724524931,35.66319566915105,0</coordinates>
      </Point>
    </Placemark>
    <Placemark>
      <name>Killcrease M C M M, Killcrease Anna</name>
      <styleUrl>#tier1</styleUrl>
      <description>&lt;b&gt;Tier 1&lt;/b&gt; | Score: 90&lt;br&gt;Owner: Killcrease M C M M, Killcrease Anna&lt;br&gt;Address: Sam Johnson Rd, Columbia, TN&lt;br&gt;Acreage: 33.2&lt;br&gt;APN: 067-019.00</description>
      <Point>
        <coordinates>-86.97733450209014,35.6709694790933,0</coordinates>
      </Point>
    </Placemark>
    <Placemark>
      <name>Ewing Joanne Harlan</name>
      <styleUrl>#tier1</styleUrl>
      <description>&lt;b&gt;Tier 1&lt;/b&gt; | Score: 90&lt;br&gt;Owner: Ewing Joanne Harlan&lt;br&gt;Address: Southpoint Ridge Rd, Hampshire, TN&lt;br&gt;Acreage: 29.54&lt;br&gt;APN: 081-015.04</description>
      <Point>
        <coordinates>-87.27780738421845,35.65729429152847,0</coordinates>
      </Point>
    </Placemark>
    <Placemark>
      <name>Graham Mark David, Graham Melissa Jo</name>
      <styleUrl>#tier1</styleUrl>
      <description>&lt;b&gt;Tier 1&lt;/b&gt; | Score: 90&lt;br&gt;Owner: Graham Mark David, Graham Melissa Jo&lt;br&gt;Address: Rally Hill Cutoff, Columbia, TN&lt;br&gt;Acreage: 11.86&lt;br&gt;APN: 069-024.02</description>
      <Point>
        <coordinates>-86.85395632804827,35.66676135459179,0</coordinates>
      </Point>
    </Placemark>
    <Placemark>
      <name>Taylor Rayburn Jennifer</name>
      <styleUrl>#tier1</styleUrl>
      <description>&lt;b&gt;Tier 1&lt;/b&gt; | Score: 90&lt;br&gt;Owner: Taylor Rayburn Jennifer&lt;br&gt;Address: Love Branch Rd, Hampshire, TN&lt;br&gt;Acreage: 20.0&lt;br&gt;APN: 081-007.01</description>
      <Point>
        <coordinates>-87.30263572065556,35.657628270077126,0</coordinates>
      </Point>
    </Placemark>
    <Placemark>
      <name>Young Blake, Young Cindy</name>
      <styleUrl>#tier1</styleUrl>
      <description>&lt;b&gt;Tier 1&lt;/b&gt; | Score: 90&lt;br&gt;Owner: Young Blake, Young Cindy&lt;br&gt;Address: Carpenter Bridge Rd, Columbia, TN&lt;br&gt;Acreage: 35.23&lt;br&gt;APN: 093-018.01</description>
      <Point>
        <coordinates>-86.87146925544032,35.62404170783839,0</coordinates>
      </Point>
    </Placemark>
    <Placemark>
      <name>Walker Ronnie L, Walker Janice M</name>
      <styleUrl>#tier1</styleUrl>
      <description>&lt;b&gt;Tier 1&lt;/b&gt; | Score: 90&lt;br&gt;Owner: Walker Ronnie L, Walker Janice M&lt;br&gt;Address: Rally Hill Rd, Columbia, TN&lt;br&gt;Acreage: 11.69&lt;br&gt;APN: 070-023.05</description>
      <Point>
        <coordinates>-86.84412429412279,35.66487204834023,0</coordinates>
      </Point>
    </Placemark>
    <Placemark>
      <name>Waldrop Mark</name>
      <styleUrl>#tier1</styleUrl>
      <description>&lt;b&gt;Tier 1&lt;/b&gt; | Score: 90&lt;br&gt;Owner: Waldrop Mark&lt;br&gt;Address: Dog Branch Rd, Mt Pleasant, TN&lt;br&gt;Acreage: 24.89&lt;br&gt;APN: 175-010.06</description>
      <Point>
        <coordinates>-87.18464923176447,35.447829068071286,0</coordinates>
      </Point>
    </Placemark>
    <Placemark>
      <name>Wilkes Richard W, White Jean Wilkes</name>
      <styleUrl>#tier1</styleUrl>
      <description>&lt;b&gt;Tier 1&lt;/b&gt; | Score: 90&lt;br&gt;Owner: Wilkes Richard W, White Jean Wilkes&lt;br&gt;Address: Highway 166 Nw, Mt Pleasant, TN&lt;br&gt;Acreage: 27.93&lt;br&gt;APN: 129-030.00</description>
      <Point>
        <coordinates>-87.28075652447369,35.56132242615255,0</coordinates>
      </Point>
    </Placemark>
    <Placemark>
      <name>Belle Camp Investment Services Trust</name>
      <styleUrl>#tier1</styleUrl>
      <description>&lt;b&gt;Tier 1&lt;/b&gt; | Score: 90&lt;br&gt;Owner: Belle Camp Investment Services Trust&lt;br&gt;Address: Fly Hollow Rd, Santa Fe, TN&lt;br&gt;Acreage: 14.03&lt;br&gt;APN: 007-001.04</description>
      <Point>
        <coordinates>-87.17821197346244,35.8075276949604,0</coordinates>
      </Point>
    </Placemark>
    <Placemark>
      <name>Garrett Michael Todd</name>
      <styleUrl>#tier1</styleUrl>
      <description>&lt;b&gt;Tier 1&lt;/b&gt; | Score: 90&lt;br&gt;Owner: Garrett Michael Todd&lt;br&gt;Address: Haywood Hollow Rd, Columbia, TN&lt;br&gt;Acreage: 25.7&lt;br&gt;APN: 031-009.04</description>
      <Point>
        <coordinates>-87.05486396387528,35.74779193064477,0</coordinates>
      </Point>
    </Placemark>
    <Placemark>
      <name>Cheek David Myron</name>
      <styleUrl>#tier1</styleUrl>
      <description>&lt;b&gt;Tier 1&lt;/b&gt; | Score: 90&lt;br&gt;Owner: Cheek David Myron&lt;br&gt;Address: Old Sowell Mill Pike, Columbia, TN&lt;br&gt;Acreage: 18.05&lt;br&gt;APN: 117-021.00</description>
      <Point>
        <coordinates>-86.87423435148014,35.57852952459456,0</coordinates>
      </Point>
    </Placemark>
    <Placemark>
      <name>Howell Nicholas, Howell Casandra</name>
      <styleUrl>#tier1</styleUrl>
      <description>&lt;b&gt;Tier 1&lt;/b&gt; | Score: 90&lt;br&gt;Owner: Howell Nicholas, Howell Casandra&lt;br&gt;Address: Sowell Ford Rd, Columbia, TN&lt;br&gt;Acreage: 17.8&lt;br&gt;APN: 117-014.00</description>
      <Point>
        <coordinates>-86.88688454563365,35.59021287329023,0</coordinates>
      </Point>
    </Placemark>
    <Placemark>
      <name>Cothran John Boyd, Cothran Janet</name>
      <styleUrl>#tier1</styleUrl>
      <description>&lt;b&gt;Tier 1&lt;/b&gt; | Score: 90&lt;br&gt;Owner: Cothran John Boyd, Cothran Janet&lt;br&gt;Address: Pulaski Hwy, Columbia, TN&lt;br&gt;Acreage: 19.24&lt;br&gt;APN: 158-012.01</description>
      <Point>
        <coordinates>-87.05238512405964,35.50321580262789,0</coordinates>
      </Point>
    </Placemark>
    <Placemark>
      <name>Anderson Timothy Lynn</name>
      <styleUrl>#tier1</styleUrl>
      <description>&lt;b&gt;Tier 1&lt;/b&gt; | Score: 90&lt;br&gt;Owner: Anderson Timothy Lynn&lt;br&gt;Address: Robert Truelove Rd, Columbia, TN&lt;br&gt;Acreage: 13.0&lt;br&gt;APN: 117-022.01</description>
      <Point>
        <coordinates>-86.89367919389153,35.58026968950688,0</coordinates>
      </Point>
    </Placemark>
    <Placemark>
      <name>Toombs William M, Toombs Sandra</name>
      <styleUrl>#tier1</styleUrl>
      <description>&lt;b&gt;Tier 1&lt;/b&gt; | Score: 90&lt;br&gt;Owner: Toombs William M, Toombs Sandra&lt;br&gt;Address: Hopewell Rd, Culleoka, TN&lt;br&gt;Acreage: 24.06&lt;br&gt;APN: 158-009.01</description>
      <Point>
        <coordinates>-87.06575604335207,35.50221136067567,0</coordinates>
      </Point>
    </Placemark>
    <Placemark>
      <name>Gilbreath Teresa Vaughn</name>
      <styleUrl>#tier1</styleUrl>
      <description>&lt;b&gt;Tier 1&lt;/b&gt; | Score: 90&lt;br&gt;Owner: Gilbreath Teresa Vaughn&lt;br&gt;Address: Campbellsville Pike, Columbia, TN&lt;br&gt;Acreage: 24.0&lt;br&gt;APN: 157-008.07</description>
      <Point>
        <coordinates>-87.09697915013743,35.489993448550265,0</coordinates>
      </Point>
    </Placemark>
    <Placemark>
      <name>Vandiver Buster</name>
      <styleUrl>#tier1</styleUrl>
      <description>&lt;b&gt;Tier 1&lt;/b&gt; | Score: 90&lt;br&gt;Owner: Vandiver Buster&lt;br&gt;Address: Southport Rd, Mt Pleasant, TN&lt;br&gt;Acreage: 10.37&lt;br&gt;APN: 156-007.09</description>
      <Point>
        <coordinates>-87.1446893113643,35.49904510204807,0</coordinates>
      </Point>
    </Placemark>
    <Placemark>
      <name>Alexander Todd C, Alexander Kristi S</name>
      <styleUrl>#tier1</styleUrl>
      <description>&lt;b&gt;Tier 1&lt;/b&gt; | Score: 90&lt;br&gt;Owner: Alexander Todd C, Alexander Kristi S&lt;br&gt;Address: 5950 Old Natchez Trce, Santa Fe, TN&lt;br&gt;Acreage: 15.1&lt;br&gt;APN: 006-007.03</description>
      <Point>
        <coordinates>-87.18081491522062,35.80448318274179,0</coordinates>
      </Point>
    </Placemark>
    <Placemark>
      <name>Grooms Ricky W, Grooms Amanda Kay</name>
      <styleUrl>#tier1</styleUrl>
      <description>&lt;b&gt;Tier 1&lt;/b&gt; | Score: 90&lt;br&gt;Owner: Grooms Ricky W, Grooms Amanda Kay&lt;br&gt;Address: Terrapin Branch Rd, Mt Pleasant, TN&lt;br&gt;Acreage: 24.27&lt;br&gt;APN: 156-001.17</description>
      <Point>
        <coordinates>-87.15662022078658,35.489197718155,0</coordinates>
      </Point>
    </Placemark>
    <Placemark>
      <name>Burton Paul M, Burton Melissa A</name>
      <styleUrl>#tier1</styleUrl>
      <description>&lt;b&gt;Tier 1&lt;/b&gt; | Score: 90&lt;br&gt;Owner: Burton Paul M, Burton Melissa A&lt;br&gt;Address: Morel Rd, Columbia, TN&lt;br&gt;Acreage: 11.76&lt;br&gt;APN: 079-017.20</description>
      <Point>
        <coordinates>-87.18759018239366,35.64818277636266,0</coordinates>
      </Point>
    </Placemark>
    <Placemark>
      <name>Dickey Mike, Dickey Tracie I</name>
      <styleUrl>#tier1</styleUrl>
      <description>&lt;b&gt;Tier 1&lt;/b&gt; | Score: 90&lt;br&gt;Owner: Dickey Mike, Dickey Tracie I&lt;br&gt;Address: Buck Daniels Rd, Culleoka, TN&lt;br&gt;Acreage: 12.3&lt;br&gt;APN: 146-003.05</description>
      <Point>
        <coordinates>-87.00602404858466,35.52278928187174,0</coordinates>
      </Point>
    </Placemark>
    <Placemark>
      <name>Reischman Katherine Z</name>
      <styleUrl>#tier1</styleUrl>
      <description>&lt;b&gt;Tier 1&lt;/b&gt; | Score: 90&lt;br&gt;Owner: Reischman Katherine Z&lt;br&gt;Address: Haley Ln, Columbia, TN&lt;br&gt;Acreage: 18.07&lt;br&gt;APN: 157-010.11</description>
      <Point>
        <coordinates>-87.12663069585597,35.492849060180816,0</coordinates>
      </Point>
    </Placemark>
    <Placemark>
      <name>Carroll Tommy R, Carroll Tammy</name>
      <styleUrl>#tier1</styleUrl>
      <description>&lt;b&gt;Tier 1&lt;/b&gt; | Score: 90&lt;br&gt;Owner: Carroll Tommy R, Carroll Tammy&lt;br&gt;Address: Scribners Mill Rd, Culleoka, TN&lt;br&gt;Acreage: 28.38&lt;br&gt;APN: 161-010.04</description>
      <Point>
        <coordinates>-86.90577143097576,35.49962541764526,0</coordinates>
      </Point>
    </Placemark>
    <Placemark>
      <name>Mcfarlin James Michael</name>
      <styleUrl>#tier1</styleUrl>
      <description>&lt;b&gt;Tier 1&lt;/b&gt; | Score: 90&lt;br&gt;Owner: Mcfarlin James Michael&lt;br&gt;Address: Tanyard Hollow Rd, Culleoka, TN&lt;br&gt;Acreage: 29.22&lt;br&gt;APN: 183-005.04</description>
      <Point>
        <coordinates>-87.00113296913665,35.43311259117709,0</coordinates>
      </Point>
    </Placemark>
    <Placemark>
      <name>Self Justin, Self Candace</name>
      <styleUrl>#tier1</styleUrl>
      <description>&lt;b&gt;Tier 1&lt;/b&gt; | Score: 90&lt;br&gt;Owner: Self Justin, Self Candace&lt;br&gt;Address: Stiversville Rd, Culleoka, TN&lt;br&gt;Acreage: 10.36&lt;br&gt;APN: 184-004.03</description>
      <Point>
        <coordinates>-87.05865471951964,35.43355124145839,0</coordinates>
      </Point>
    </Placemark>
    <Placemark>
      <name>Williams Jennifer Gay L, Lyles Jason Edward</name>
      <styleUrl>#tier1</styleUrl>
      <description>&lt;b&gt;Tier 1&lt;/b&gt; | Score: 90&lt;br&gt;Owner: Williams Jennifer Gay L, Lyles Jason Edward&lt;br&gt;Address: Martin Hollow Rd, Culleoka, TN&lt;br&gt;Acreage: 48.39&lt;br&gt;APN: 182-012.03</description>
      <Point>
        <coordinates>-86.96437615549057,35.42499359170971,0</coordinates>
      </Point>
    </Placemark>
    <Placemark>
      <name>Williams Jennifer Gay L, Lyles Jason Edward</name>
      <styleUrl>#tier1</styleUrl>
      <description>&lt;b&gt;Tier 1&lt;/b&gt; | Score: 90&lt;br&gt;Owner: Williams Jennifer Gay L, Lyles Jason Edward&lt;br&gt;Address: Martin Hollow Rd, Culleoka, TN&lt;br&gt;Acreage: 34.88&lt;br&gt;APN: 182-008.02</description>
      <Point>
        <coordinates>-86.97926326030309,35.42740869092947,0</coordinates>
      </Point>
    </Placemark>
    <Placemark>
      <name>Northcutt Sharon S</name>
      <styleUrl>#tier1</styleUrl>
      <description>&lt;b&gt;Tier 1&lt;/b&gt; | Score: 90&lt;br&gt;Owner: Northcutt Sharon S&lt;br&gt;Address: Beechcroft Rd, Spring Hill, TN&lt;br&gt;Acreage: 42.8&lt;br&gt;APN: 023-018.03</description>
      <Point>
        <coordinates>-87.00292434754931,35.755186579402235,0</coordinates>
      </Point>
    </Placemark>
    <Placemark>
      <name>Cox Ray, Cox Linda</name>
      <styleUrl>#tier1</styleUrl>
      <description>&lt;b&gt;Tier 1&lt;/b&gt; | Score: 90&lt;br&gt;Owner: Cox Ray, Cox Linda&lt;br&gt;Address: Martin Hollow Rd E Of, Culleoka, TN&lt;br&gt;Acreage: 37.96&lt;br&gt;APN: 180-018.02</description>
      <Point>
        <coordinates>-86.97913718438883,35.44609714411943,0</coordinates>
      </Point>
    </Placemark>
    <Placemark>
      <name>Sharp Christopher</name>
      <styleUrl>#tier1</styleUrl>
      <description>&lt;b&gt;Tier 1&lt;/b&gt; | Score: 90&lt;br&gt;Owner: Sharp Christopher&lt;br&gt;Address: Valley Creek Rd, Culleoka, TN&lt;br&gt;Acreage: 20.54&lt;br&gt;APN: 179-025.12</description>
      <Point>
        <coordinates>-87.02696477030042,35.453527771308806,0</coordinates>
      </Point>
    </Placemark>
    <Placemark>
      <name>Burgess Christopher L, Boggs Jonathan</name>
      <styleUrl>#tier1</styleUrl>
      <description>&lt;b&gt;Tier 1&lt;/b&gt; | Score: 90&lt;br&gt;Owner: Burgess Christopher L, Boggs Jonathan&lt;br&gt;Address: Baptist Branch Rd, Mt Pleasant, TN&lt;br&gt;Acreage: 17.3&lt;br&gt;APN: 129-027.02</description>
      <Point>
        <coordinates>-87.3045401982856,35.56295531198489,0</coordinates>
      </Point>
    </Placemark>
    <Placemark>
      <name>Drone Phillip</name>
      <styleUrl>#tier1</styleUrl>
      <description>&lt;b&gt;Tier 1&lt;/b&gt; | Score: 90&lt;br&gt;Owner: Drone Phillip&lt;br&gt;Address: Enterprise Rd, Mt Pleasant, TN&lt;br&gt;Acreage: 12.08&lt;br&gt;APN: 150-063.12</description>
      <Point>
        <coordinates>-87.20935292229422,35.518233360819394,0</coordinates>
      </Point>
    </Placemark>