<?xml version="1.0" encoding="UTF-8"?>
<kml xmlns="http://www.opengis.net/kml/2.2">
  <Document>
    <name>FLC - Wilson TN - Nate (Tier 1 Part 2)</name>
    <Style id="tier1"><IconStyle><color>ff0000ff</color><Icon><href>http://maps.google.com/mapfiles/kml/paddle/wht-blank.png</href></Icon></IconStyle></Style>
    <Style id="tier2"><IconStyle><color>ff00ffff</color><Icon><href>http://maps.google.com/mapfiles/kml/paddle/wht-blank.png</href></Icon></IconStyle></Style>
    <Style id="tier3"><IconStyle><color>ff00ff00</color><Icon><href>http://maps.google.com/mapfiles/kml/paddle/wht-blank.png</href></Icon></IconStyle></Style>
    <Placemark><name>Cook Robert William, Cook Martha Jane</name><styleUrl>#tier1</styleUrl><description><![CDATA[<b>Tier 1</b> | Score: 77<br>Owner: Cook Robert William, Cook Martha Jane<br>Address: 156 Mires Rd, Mount Juliet, TN<br>Acreage: 9.0<br>APN: 118-028.05<br><a href="https://landportal.com/?property=Zmlwcz00NzE4OSZsbF91dWlkPTE2Nzk2MDk3MSZhcG49MTE4LTAyOC4wNQ==">&#128279; View on LandPortal</a>]]></description><Point><coordinates>-86.48070542049615,36.11172569587915,0</coordinates></Point></Placemark>
    <Placemark><name>Gill Byron M, Gill Katrina P</name><styleUrl>#tier1</styleUrl><description><![CDATA[<b>Tier 1</b> | Score: 77<br>Owner: Gill Byron M, Gill Katrina P<br>Address: 3315a Belotes Ferry Rd, Lebanon, TN<br>Acreage: 5.01<br>APN: 016-031.04<br><a href="https://landportal.com/?property=Zmlwcz00NzE4OSZsbF91dWlkPTEyNTEwNjEzMSZhcG49MDE2LTAzMS4wNA==">&#128279; View on LandPortal</a>]]></description><Point><coordinates>-86.33056110944815,36.3126078262712,0</coordinates></Point></Placemark>
    <Placemark><name>Gill Allen John</name><styleUrl>#tier1</styleUrl><description><![CDATA[<b>Tier 1</b> | Score: 77<br>Owner: Gill Allen John<br>Address: 881 Green Hill Rd, Liberty, TN<br>Acreage: 148.0<br>APN: 182-004.00<br><a href="https://landportal.com/?property=Zmlwcz00NzE4OSZsbF91dWlkPTEyNTE1ODEzNiZhcG49MTgyLTAwNC4wMA==">&#128279; View on LandPortal</a>]]></description><Point><coordinates>-86.02192965561818,35.968067966598994,0</coordinates></Point></Placemark>
    <Placemark><name>Wright Daniel Keith, Patty Wright</name><styleUrl>#tier1</styleUrl><description><![CDATA[<b>Tier 1</b> | Score: 77<br>Owner: Wright Daniel Keith, Patty Wright<br>Address: 8459a Stewarts Ferry Pike, Mount Juliet, TN<br>Acreage: 6.0<br>APN: 116-042.14<br><a href="https://landportal.com/?property=Zmlwcz00NzE4OSZsbF91dWlkPTE2Nzk2MDg4NSZhcG49MTE2LTA0Mi4xNA==">&#128279; View on LandPortal</a>]]></description><Point><coordinates>-86.42581129426853,36.11494769145914,0</coordinates></Point></Placemark>
    <Placemark><name>Tomlinson Tim, Tomlinson Carolyn</name><styleUrl>#tier1</styleUrl><description><![CDATA[<b>Tier 1</b> | Score: 77<br>Owner: Tomlinson Tim, Tomlinson Carolyn<br>Address: 3215 Coles Ferry Park, Lebanon, TN<br>Acreage: 7.48<br>APN: 045-042.04<br><a href="https://landportal.com/?property=Zmlwcz00NzE4OSZsbF91dWlkPTE2Mzc1NTkzMSZhcG49MDQ1LTA0Mi4wNA==">&#128279; View on LandPortal</a>]]></description><Point><coordinates>-86.31129283729729,36.24951359976407,0</coordinates></Point></Placemark>
    <Placemark><name>Lineberry Dewey L, Lineberry Maribel</name><styleUrl>#tier1</styleUrl><description><![CDATA[<b>Tier 1</b> | Score: 77<br>Owner: Lineberry Dewey L, Lineberry Maribel<br>Address: 15841 Central Park, Mount Juliet, TN<br>Acreage: 5.01<br>APN: 101-026.06<br><a href="https://landportal.com/?property=Zmlwcz00NzE4OSZsbF91dWlkPTE2Mzc1NjM0NiZhcG49MTAxLTAyNi4wNg==">&#128279; View on LandPortal</a>]]></description><Point><coordinates>-86.38924385297986,36.12905656241854,0</coordinates></Point></Placemark>
    <Placemark><name>Gillespie Dixon D, Gillespie Judy G</name><styleUrl>#tier1</styleUrl><description><![CDATA[<b>Tier 1</b> | Score: 77<br>Owner: Gillespie Dixon D, Gillespie Judy G<br>Address: 1489 Posey Hill Rd, Mount Juliet, TN<br>Acreage: 5.01<br>APN: 095-042.05<br><a href="https://landportal.com/?property=Zmlwcz00NzE4OSZsbF91dWlkPTE3NTQzNjg5NCZhcG49MDk1LTA0Mi4wNQ==">&#128279; View on LandPortal</a>]]></description><Point><coordinates>-86.43947240882551,36.157118025318425,0</coordinates></Point></Placemark>
    <Placemark><name>Thompson Christian Chad</name><styleUrl>#tier1</styleUrl><description><![CDATA[<b>Tier 1</b> | Score: 77<br>Owner: Thompson Christian Chad<br>Address: Athens Rd, Lebanon, TN<br>Acreage: 6.23<br>APN: 021-001.02<br><a href="https://landportal.com/?property=Zmlwcz00NzE4OSZsbF91dWlkPTE3MDI5NTY2MCZhcG49MDIxLTAwMS4wMg==">&#128279; View on LandPortal</a>]]></description><Point><coordinates>-86.19000368193934,36.2971667711971,0</coordinates></Point></Placemark>
    <Placemark><name>Howell Paul O, Howell Meagan F</name><styleUrl>#tier1</styleUrl><description><![CDATA[<b>Tier 1</b> | Score: 77<br>Owner: Howell Paul O, Howell Meagan F<br>Address: Phillips Rd, Lebanon, TN<br>Acreage: 5.23<br>APN: 043-005.18<br><a href="https://landportal.com/?property=Zmlwcz00NzE4OSZsbF91dWlkPTE3NTQzOTA1NSZhcG49MDQzLTAwNS4xOA==">&#128279; View on LandPortal</a>]]></description><Point><coordinates>-86.20101226067176,36.25312919118,0</coordinates></Point></Placemark>
    <Placemark><name>Schunk James, Schunk Patricia</name><styleUrl>#tier1</styleUrl><description><![CDATA[<b>Tier 1</b> | Score: 77<br>Owner: Schunk James, Schunk Patricia<br>Address: 3200 Saundersville Ferry Rd, Mount Juliet, TN<br>Acreage: 5.89<br>APN: 029-008.13<br><a href="https://landportal.com/?property=Zmlwcz00NzE4OSZsbF91dWlkPTEyNTEyMzY0NyZhcG49MDI5LTAwOC4xMw==">&#128279; View on LandPortal</a>]]></description><Point><coordinates>-86.54549814363642,36.299371828599895,0</coordinates></Point></Placemark>
    <Placemark><name>Horizon Development Llc</name><styleUrl>#tier1</styleUrl><description><![CDATA[<b>Tier 1</b> | Score: 77<br>Owner: Horizon Development Llc<br>Address: 225 Bethlehem Rd, Lebanon, TN<br>Acreage: 78.24<br>APN: 069-013.10<br><a href="https://landportal.com/?property=Zmlwcz00NzE4OSZsbF91dWlkPTE1OTYxNTc4MiZhcG49MDY5LTAxMy4xMA==">&#128279; View on LandPortal</a>]]></description><Point><coordinates>-86.35641668768059,36.21106760738427,0</coordinates></Point></Placemark>
    <Placemark><name>Tenn Tex Development Llc</name><styleUrl>#tier1</styleUrl><description><![CDATA[<b>Tier 1</b> | Score: 77<br>Owner: Tenn Tex Development Llc<br>Address: Curd Rd, Mount Juliet, TN<br>Acreage: 8.28<br>APN: 054-085.06<br><a href="https://landportal.com/?property=Zmlwcz00NzE4OSZsbF91dWlkPTE1NTQ5Nzg0MiZhcG49MDU0LTA4NS4wNg==">&#128279; View on LandPortal</a>]]></description><Point><coordinates>-86.4879358780628,36.224136983296646,0</coordinates></Point></Placemark>
    <Placemark><name>Sba Properties Inc</name><styleUrl>#tier1</styleUrl><description><![CDATA[<b>Tier 1</b> | Score: 77<br>Owner: Sba Properties Inc<br>Address: 3280 Hickory Ridge Rd # A, Lebanon, TN<br>Acreage: 11.2<br>APN: 069-066.02<br><a href="https://landportal.com/?property=Zmlwcz00NzE4OSZsbF91dWlkPTEyNTEzNTMzMyZhcG49MDY5LTA2Ni4wMg==">&#128279; View on LandPortal</a>]]></description><Point><coordinates>-86.35721981923285,36.20047114373037,0</coordinates></Point></Placemark>
    <Placemark><name>Lake Inferior Llc</name><styleUrl>#tier1</styleUrl><description><![CDATA[<b>Tier 1</b> | Score: 77<br>Owner: Lake Inferior Llc<br>Address: Babb Dr, Lebanon, TN<br>Acreage: 8.2<br>APN: 058-021.01<br><a href="https://landportal.com/?property=Zmlwcz00NzE4OSZsbF91dWlkPTEyNTExODY1NCZhcG49MDU4LTAyMS4wMQ==">&#128279; View on LandPortal</a>]]></description><Point><coordinates>-86.32765601833785,36.21722441291031,0</coordinates></Point></Placemark>
    <Placemark><name>Moshinsky Jeffrey H, Moshinsky Amy D</name><styleUrl>#tier1</styleUrl><description><![CDATA[<b>Tier 1</b> | Score: 77<br>Owner: Moshinsky Jeffrey H, Moshinsky Amy D<br>Address: 2203 Cairo Bend Rd, Lebanon, TN<br>Acreage: 5.02<br>APN: 034-046.06<br><a href="https://landportal.com/?property=Zmlwcz00NzE4OSZsbF91dWlkPTE1OTYxNTMzMiZhcG49MDM0LTA0Ni4wNg==">&#128279; View on LandPortal</a>]]></description><Point><coordinates>-86.39327906227172,36.26844224913669,0</coordinates></Point></Placemark>
    <Placemark><name>Phelps Clifford A, Phelps Meagan D</name><styleUrl>#tier1</styleUrl><description><![CDATA[<b>Tier 1</b> | Score: 77<br>Owner: Phelps Clifford A, Phelps Meagan D<br>Address: 1901 Dorchester Dr, Lebanon, TN<br>Acreage: 9.0<br>APN: 080-001.05<br><a href="https://landportal.com/?property=Zmlwcz00NzE4OSZsbF91dWlkPTEyNTE0MjQ3OCZhcG49MDgwLTAwMS4wNQ==">&#128279; View on LandPortal</a>]]></description><Point><coordinates>-86.37099378052054,36.19035757636818,0</coordinates></Point></Placemark>
    <Placemark><name>Mitchell Charles S</name><styleUrl>#tier1</styleUrl><description><![CDATA[<b>Tier 1</b> | Score: 77<br>Owner: Mitchell Charles S<br>Address: N Denny Rd, Lebanon, TN<br>Acreage: 5.18<br>APN: 025-033.06<br><a href="https://landportal.com/?property=Zmlwcz00NzE4OSZsbF91dWlkPTEyNTEwNzQ4MiZhcG49MDI1LTAzMy4wNg==">&#128279; View on LandPortal</a>]]></description><Point><coordinates>-86.3591752347626,36.29567613933017,0</coordinates></Point></Placemark>
    <Placemark><name>Griffin Bart, Griffin Carol Ann</name><styleUrl>#tier1</styleUrl><description><![CDATA[<b>Tier 1</b> | Score: 77<br>Owner: Griffin Bart, Griffin Carol Ann<br>Address: Richmond Rd, Alexandria, TN<br>Acreage: 7.24<br>APN: 107-049.03<br><a href="https://landportal.com/?property=Zmlwcz00NzE4OSZsbF91dWlkPTE1OTYxNTc2NyZhcG49MTA3LTA0OS4wMw==">&#128279; View on LandPortal</a>]]></description><Point><coordinates>-86.09734526212333,36.13948609790245,0</coordinates></Point></Placemark>
    <Placemark><name>Driver Family Trust, Driver</name><styleUrl>#tier1</styleUrl><description><![CDATA[<b>Tier 1</b> | Score: 77<br>Owner: Driver Family Trust, Driver<br>Address: Richmond Rd, Watertown, TN<br>Acreage: 5.01<br>APN: 107-049.02<br><a href="https://landportal.com/?property=Zmlwcz00NzE4OSZsbF91dWlkPTE1OTYxNTc2NiZhcG49MTA3LTA0OS4wMg==">&#128279; View on LandPortal</a>]]></description><Point><coordinates>-86.09894569766755,36.139209374513214,0</coordinates></Point></Placemark>
    <Placemark><name>Cherry A W A A, Cherry Gwendolyn</name><styleUrl>#tier1</styleUrl><description><![CDATA[<b>Tier 1</b> | Score: 77<br>Owner: Cherry A W A A, Cherry Gwendolyn<br>Address: 750 Poplar Hill Rd, Lebanon, TN<br>Acreage: 166.0<br>APN: 089-006.00<br><a href="https://landportal.com/?property=Zmlwcz00NzE4OSZsbF91dWlkPTEyNTEyMjc2NiZhcG49MDg5LTAwNi4wMA==">&#128279; View on LandPortal</a>]]></description><Point><coordinates>-86.15643794461182,36.16084988982679,0</coordinates></Point></Placemark>
    <Placemark><name>Gregory Vance, Gregory Labronya</name><styleUrl>#tier1</styleUrl><description><![CDATA[<b>Tier 1</b> | Score: 77<br>Owner: Gregory Vance, Gregory Labronya<br>Address: E Old Murfreesboro Rd, Lebanon, TN<br>Acreage: 5.47<br>APN: 114-039.05<br><a href="https://landportal.com/?property=Zmlwcz00NzE4OSZsbF91dWlkPTE1OTYxNTAwNyZhcG49MTE0LTAzOS4wNQ==">&#128279; View on LandPortal</a>]]></description><Point><coordinates>-86.32132985045041,36.11634119282016,0</coordinates></Point></Placemark>
    <Placemark><name>Gebhardt Charles J, Gebhardt Ginger G</name><styleUrl>#tier1</styleUrl><description><![CDATA[<b>Tier 1</b> | Score: 77<br>Owner: Gebhardt Charles J, Gebhardt Ginger G<br>Address: Canoe Branch Rd, Lebanon, TN<br>Acreage: 5.01<br>APN: 017-002.01<br><a href="https://landportal.com/?property=Zmlwcz00NzE4OSZsbF91dWlkPTEyNTExNjA1NSZhcG49MDE3LTAwMi4wMQ==">&#128279; View on LandPortal</a>]]></description><Point><coordinates>-86.27952871358906,36.321392519764075,0</coordinates></Point></Placemark>
    <Placemark><name>Nunnery Dale W, Nunnery Barbara</name><styleUrl>#tier1</styleUrl><description><![CDATA[<b>Tier 1</b> | Score: 77<br>Owner: Nunnery Dale W, Nunnery Barbara<br>Address: 8060 Carthage Hwy, Lebanon, TN<br>Acreage: 5.84<br>APN: 041-035.02<br><a href="https://landportal.com/?property=Zmlwcz00NzE4OSZsbF91dWlkPTEyNTEwMzUzOCZhcG49MDQxLTAzNS4wMg==">&#128279; View on LandPortal</a>]]></description><Point><coordinates>-86.12861441104948,36.248018707769376,0</coordinates></Point></Placemark>
    <Placemark><name>Patel Krishna M</name><styleUrl>#tier1</styleUrl><description><![CDATA[<b>Tier 1</b> | Score: 77<br>Owner: Patel Krishna M<br>Address: Murfreesboro Rd, Lebanon, TN<br>Acreage: 7.97<br>APN: 081-086.09<br><a href="https://landportal.com/?property=Zmlwcz00NzE4OSZsbF91dWlkPTEyNTE0MjcxOSZhcG49MDgxLTA4Ni4wOQ==">&#128279; View on LandPortal</a>]]></description><Point><coordinates>-86.3040730425158,36.17281840684525,0</coordinates></Point></Placemark>
    <Placemark><name>Malone Aaron</name><styleUrl>#tier1</styleUrl><description><![CDATA[<b>Tier 1</b> | Score: 77<br>Owner: Malone Aaron<br>Address: Knight Creek Rd, Lebanon, TN<br>Acreage: 8.25<br>APN: 165-048.04<br><a href="https://landportal.com/?property=Zmlwcz00NzE4OSZsbF91dWlkPTE2MTQzNzE4NCZhcG49MTY1LTA0OC4wNA==">&#128279; View on LandPortal</a>]]></description><Point><coordinates>-86.14236210076376,36.00066194262592,0</coordinates></Point></Placemark>
    <Placemark><name>Davis Elbert Dewayne, Davis Susan C</name><styleUrl>#tier1</styleUrl><description><![CDATA[<b>Tier 1</b> | Score: 77<br>Owner: Davis Elbert Dewayne, Davis Susan C<br>Address: W Saulsbury Rd, Lebanon, TN<br>Acreage: 5.02<br>APN: 085-020.08<br><a href="https://landportal.com/?property=Zmlwcz00NzE4OSZsbF91dWlkPTEyNTEyMjA2NCZhcG49MDg1LTAyMC4wOA==">&#128279; View on LandPortal</a>]]></description><Point><coordinates>-86.13045386967875,36.17538318315772,0</coordinates></Point></Placemark>
    <Placemark><name>Dorsch Michael J, Dorsch Amy E</name><styleUrl>#tier1</styleUrl><description><![CDATA[<b>Tier 1</b> | Score: 77<br>Owner: Dorsch Michael J, Dorsch Amy E<br>Address: 460 Charles Smith Rd, Milton, TN<br>Acreage: 5.02<br>APN: 172-017.02<br><a href="https://landportal.com/?property=Zmlwcz00NzE4OSZsbF91dWlkPTEyNTE1NzgxNSZhcG49MTcyLTAxNy4wMg==">&#128279; View on LandPortal</a>]]></description><Point><coordinates>-86.23223466798505,35.98303716693921,0</coordinates></Point></Placemark>
    <Placemark><name>Patel Dharmesh</name><styleUrl>#tier1</styleUrl><description><![CDATA[<b>Tier 1</b> | Score: 77<br>Owner: Patel Dharmesh<br>Address: Lebanon Rd, Lebanon, TN<br>Acreage: 5.94<br>APN: 057-003.04<br><a href="https://landportal.com/?property=Zmlwcz00NzE4OSZsbF91dWlkPTE1NTQ5NzY3NyZhcG49MDU3LTAwMy4wNA==">&#128279; View on LandPortal</a>]]></description><Point><coordinates>-86.37908985978336,36.231317304729885,0</coordinates></Point></Placemark>
    <Placemark><name>Berta Kevin, Loveless Jessica</name><styleUrl>#tier1</styleUrl><description><![CDATA[<b>Tier 1</b> | Score: 77<br>Owner: Berta Kevin, Loveless Jessica<br>Address: 830 Fall Creek Rd, Lebanon, TN<br>Acreage: 9.29<br>APN: 157-001.00<br><a href="https://landportal.com/?property=Zmlwcz00NzE4OSZsbF91dWlkPTEyNTE0NTMzNyZhcG49MTU3LTAwMS4wMA==">&#128279; View on LandPortal</a>]]></description><Point><coordinates>-86.37678937267512,36.03142740628735,0</coordinates></Point></Placemark>
    <Placemark><name>Fahmy George, Fahmy Hany</name><styleUrl>#tier1</styleUrl><description><![CDATA[<b>Tier 1</b> | Score: 77<br>Owner: Fahmy George, Fahmy Hany<br>Address: 126 E High St, Lebanon, TN<br>Acreage: 139.14<br>APN: 068D-G-002.00<br><a href="https://landportal.com/?property=Zmlwcz00NzE4OSZsbF91dWlkPTEyNTE0ODU2NCZhcG49MDY4RC1HLTAwMi4wMA==">&#128279; View on LandPortal</a>]]></description><Point><coordinates>-86.28867880798401,36.21201055798196,0</coordinates></Point></Placemark>
    <Placemark><name>Mcgriff Brian D</name><styleUrl>#tier1</styleUrl><description><![CDATA[<b>Tier 1</b> | Score: 77<br>Owner: Mcgriff Brian D<br>Address: 791 Jennings Pond Rd, Lebanon, TN<br>Acreage: 6.65<br>APN: 142-017.05<br><a href="https://landportal.com/?property=Zmlwcz00NzE4OSZsbF91dWlkPTEyNTEzNDI1MSZhcG49MTQyLTAxNy4wNQ==">&#128279; View on LandPortal</a>]]></description><Point><coordinates>-86.33745926361476,36.056683397209106,0</coordinates></Point></Placemark>
    <Placemark><name>Cole Renae</name><styleUrl>#tier1</styleUrl><description><![CDATA[<b>Tier 1</b> | Score: 77<br>Owner: Cole Renae<br>Address: Cairo Bend Rd, Mount Juliet, TN<br>Acreage: 5.0<br>APN: 008-004.09<br><a href="https://landportal.com/?property=Zmlwcz00NzE4OSZsbF91dWlkPTE1OTYxNTM0NCZhcG49MDA4LTAwNC4wOQ==">&#128279; View on LandPortal</a>]]></description><Point><coordinates>-86.36050729638657,36.34264750311682,0</coordinates></Point></Placemark>
    <Placemark><name>Stewart Investments Llc</name><styleUrl>#tier1</styleUrl><description><![CDATA[<b>Tier 1</b> | Score: 77<br>Owner: Stewart Investments Llc<br>Address: 5665 Highway 109 N, Lebanon, TN<br>Acreage: 5.5<br>APN: 033-042.00<br><a href="https://landportal.com/?property=Zmlwcz00NzE4OSZsbF91dWlkPTEyNTEwMzI0MCZhcG49MDMzLTA0Mi4wMA==">&#128279; View on LandPortal</a>]]></description><Point><coordinates>-86.43847388623672,36.261592750517465,0</coordinates></Point></Placemark>
    <Placemark><name>Complete Exterior Inc</name><styleUrl>#tier1</styleUrl><description><![CDATA[<b>Tier 1</b> | Score: 77<br>Owner: Complete Exterior Inc<br>Address: Beckwith Rd, Mount Juliet, TN<br>Acreage: 14.11<br>APN: 054-082.01<br><a href="https://landportal.com/?property=Zmlwcz00NzE4OSZsbF91dWlkPTE1NTQ5Njk1MyZhcG49MDU0LTA4Mi4wMQ==">&#128279; View on LandPortal</a>]]></description><Point><coordinates>-86.4788050755717,36.229098574009825,0</coordinates></Point></Placemark>
    <Placemark><name>Lgi Homes Tn Llc</name><styleUrl>#tier1</styleUrl><description><![CDATA[<b>Tier 1</b> | Score: 77<br>Owner: Lgi Homes Tn Llc<br>Address: Archwood Vly, Mount Juliet, TN<br>Acreage: 116.74<br>APN: 100-059.00<br><a href="https://landportal.com/?property=Zmlwcz00NzE4OSZsbF91dWlkPTEyNTE1NjA1MCZhcG49MTAwLTA1OS4wMA==">&#128279; View on LandPortal</a>]]></description><Point><coordinates>-86.44355160015746,36.1367305025491,0</coordinates></Point></Placemark>
    <Placemark><name>Underwood Edward Wayne, Underwood Kimberly A</name><styleUrl>#tier1</styleUrl><description><![CDATA[<b>Tier 1</b> | Score: 77<br>Owner: Underwood Edward Wayne, Underwood Kimberly A<br>Address: 550 Hudson Rd, Watertown, TN<br>Acreage: 6.89<br>APN: 110-047.05<br><a href="https://landportal.com/?property=Zmlwcz00NzE4OSZsbF91dWlkPTE1Njg2OTkxMiZhcG49MTEwLTA0Ny4wNQ==">&#128279; View on LandPortal</a>]]></description><Point><coordinates>-86.10464463377483,36.10660471501876,0</coordinates></Point></Placemark>
    <Placemark><name>Underwood Edward Wayne, Underwood Kimberly A</name><styleUrl>#tier1</styleUrl><description><![CDATA[<b>Tier 1</b> | Score: 77<br>Owner: Underwood Edward Wayne, Underwood Kimberly A<br>Address: 550 Hudson Rd, Watertown, TN<br>Acreage: 6.96<br>APN: 110-047.04<br><a href="https://landportal.com/?property=Zmlwcz00NzE4OSZsbF91dWlkPTE1Njg2OTkxMSZhcG49MTEwLTA0Ny4wNA==">&#128279; View on LandPortal</a>]]></description><Point><coordinates>-86.10525533513538,36.10663290444012,0</coordinates></Point></Placemark>
    <Placemark><name>Bennett Richard, Bennett Lisa</name><styleUrl>#tier1</styleUrl><description><![CDATA[<b>Tier 1</b> | Score: 77<br>Owner: Bennett Richard, Bennett Lisa<br>Address: E High St, Lebanon, TN<br>Acreage: 145.0<br>APN: 068D-E-007.00<br><a href="https://landportal.com/?property=Zmlwcz00NzE4OSZsbF91dWlkPTEyNTE0ODQ2NSZhcG49MDY4RC1FLTAwNy4wMA==">&#128279; View on LandPortal</a>]]></description><Point><coordinates>-86.28288895018032,36.2111851677147,0</coordinates></Point></Placemark>
    <Placemark><name>Moles Jason Roy, Moles Rhonda Carter</name><styleUrl>#tier1</styleUrl><description><![CDATA[<b>Tier 1</b> | Score: 77<br>Owner: Moles Jason Roy, Moles Rhonda Carter<br>Address: Puckett Rd, Watertown, TN<br>Acreage: 5.04<br>APN: 145-026.07<br><a href="https://landportal.com/?property=Zmlwcz00NzE4OSZsbF91dWlkPTEyNTE1NzY0OCZhcG49MTQ1LTAyNi4wNw==">&#128279; View on LandPortal</a>]]></description><Point><coordinates>-86.23172689654577,36.042180917428205,0</coordinates></Point></Placemark>
    <Placemark><name>Klemm Brian</name><styleUrl>#tier1</styleUrl><description><![CDATA[<b>Tier 1</b> | Score: 77<br>Owner: Klemm Brian<br>Address: 141 Tomlinson Rd, Lebanon, TN<br>Acreage: 5.08<br>APN: 005-019.10<br><a href="https://landportal.com/?property=Zmlwcz00NzE4OSZsbF91dWlkPTEyNTEwNDE2MCZhcG49MDA1LTAxOS4xMA==">&#128279; View on LandPortal</a>]]></description><Point><coordinates>-86.23457417870213,36.330488713231816,0</coordinates></Point></Placemark>
    <Placemark><name>Brown Michael A, Brown Nancy B</name><styleUrl>#tier1</styleUrl><description><![CDATA[<b>Tier 1</b> | Score: 77<br>Owner: Brown Michael A, Brown Nancy B<br>Address: 1551 Rock Springs Rd, Watertown, TN<br>Acreage: 147.5<br>APN: 148-039.09<br><a href="https://landportal.com/?property=Zmlwcz00NzE4OSZsbF91dWlkPTEyNTE1MTYwNSZhcG49MTQ4LTAzOS4wOQ==">&#128279; View on LandPortal</a>]]></description><Point><coordinates>-86.07908076230488,36.04737504606058,0</coordinates></Point></Placemark>
    <Placemark><name>Front Porch Realty Llc</name><styleUrl>#tier1</styleUrl><description><![CDATA[<b>Tier 1</b> | Score: 77<br>Owner: Front Porch Realty Llc<br>Address: Clemmons Rd, Mount Juliet, TN<br>Acreage: 5.01<br>APN: 072-056.01<br><a href="https://landportal.com/?property=Zmlwcz00NzE4OSZsbF91dWlkPTEyNTEzNjAyOSZhcG49MDcyLTA1Ni4wMQ==">&#128279; View on LandPortal</a>]]></description><Point><coordinates>-86.50372105514101,36.203239530576326,0</coordinates></Point></Placemark>
    <Placemark><name>Beadle Ryan M</name><styleUrl>#tier1</styleUrl><description><![CDATA[<b>Tier 1</b> | Score: 77<br>Owner: Beadle Ryan M<br>Address: Ben Green Rd, Lebanon, TN<br>Acreage: 6.74<br>APN: 061-016.07<br><a href="https://landportal.com/?property=Zmlwcz00NzE4OSZsbF91dWlkPTE1Njg2OTQ0NyZhcG49MDYxLTAxNi4wNw==">&#128279; View on LandPortal</a>]]></description><Point><coordinates>-86.15353605420391,36.235845069287755,0</coordinates></Point></Placemark>
    <Placemark><name>Douglas Krista Diane</name><styleUrl>#tier1</styleUrl><description><![CDATA[<b>Tier 1</b> | Score: 77<br>Owner: Douglas Krista Diane<br>Address: 1026 Academy Rd, Lebanon, TN<br>Acreage: 5.97<br>APN: 026-063.04<br><a href="https://landportal.com/?property=Zmlwcz00NzE4OSZsbF91dWlkPTE1Njg2OTkyMCZhcG49MDI2LTA2My4wNA==">&#128279; View on LandPortal</a>]]></description><Point><coordinates>-86.40824345181866,36.28402649784893,0</coordinates></Point></Placemark>
    <Placemark><name>Chen Feng Chih, Cotrs Helen</name><styleUrl>#tier1</styleUrl><description><![CDATA[<b>Tier 1</b> | Score: 77<br>Owner: Chen Feng Chih, Cotrs Helen<br>Address: Bluebird Rd, Lebanon, TN<br>Acreage: 111.05<br>APN: 083-043.01<br><a href="https://landportal.com/?property=Zmlwcz00NzE4OSZsbF91dWlkPTEyNTEzNTM5MiZhcG49MDgzLTA0My4wMQ==">&#128279; View on LandPortal</a>]]></description><Point><coordinates>-86.2076527147849,36.18584232559715,0</coordinates></Point></Placemark>
    <Placemark><name>Bourini Michael H</name><styleUrl>#tier1</styleUrl><description><![CDATA[<b>Tier 1</b> | Score: 77<br>Owner: Bourini Michael H<br>Address: 1135 Gwynn Ln, Lebanon, TN<br>Acreage: 5.0<br>APN: 142-059.04<br><a href="https://landportal.com/?property=Zmlwcz00NzE4OSZsbF91dWlkPTEyNTEzNDkwNSZhcG49MTQyLTA1OS4wNA==">&#128279; View on LandPortal</a>]]></description><Point><coordinates>-86.37619641584658,36.04300692433034,0</coordinates></Point></Placemark>
    <Placemark><name>Malone Jack Y, Malone Jackie P</name><styleUrl>#tier1</styleUrl><description><![CDATA[<b>Tier 1</b> | Score: 77<br>Owner: Malone Jack Y, Malone Jackie P<br>Address: Burford Rd, Lebanon, TN<br>Acreage: 8.65<br>APN: 024-040.05<br><a href="https://landportal.com/?property=Zmlwcz00NzE4OSZsbF91dWlkPTE1OTYxNDYyOSZhcG49MDI0LTA0MC4wNQ==">&#128279; View on LandPortal</a>]]></description><Point><coordinates>-86.28969782958866,36.28874779173521,0</coordinates></Point></Placemark>
    <Placemark><name>Jones Mcculloch M, Jones Robert A</name><styleUrl>#tier1</styleUrl><description><![CDATA[<b>Tier 1</b> | Score: 77<br>Owner: Jones Mcculloch M, Jones Robert A<br>Address: 5703 Alvin Sperry Rd, Mount Juliet, TN<br>Acreage: 5.05<br>APN: 098-004.03<br><a href="https://landportal.com/?property=Zmlwcz00NzE4OSZsbF91dWlkPTEyNTEyNjg1NiZhcG49MDk4LTAwNC4wMw==">&#128279; View on LandPortal</a>]]></description><Point><coordinates>-86.54391940953238,36.14501668421107,0</coordinates></Point></Placemark>
    <Placemark><name>Jones Mcculloch M, Jones Robert A</name><styleUrl>#tier1</styleUrl><description><![CDATA[<b>Tier 1</b> | Score: 77<br>Owner: Jones Mcculloch M, Jones Robert A<br>Address: 1208 Guill Rd, Mount Juliet, TN<br>Acreage: 5.15<br>APN: 097-084.06<br><a href="https://landportal.com/?property=Zmlwcz00NzE4OSZsbF91dWlkPTEyNTEyNjYzMiZhcG49MDk3LTA4NC4wNg==">&#128279; View on LandPortal</a>]]></description><Point><coordinates>-86.53680790325504,36.14889903156805,0</coordinates></Point></Placemark>
    <Placemark><name>Jones Mcculloch M, Jones Robert A</name><styleUrl>#tier1</styleUrl><description><![CDATA[<b>Tier 1</b> | Score: 77<br>Owner: Jones Mcculloch M, Jones Robert A<br>Address: 1180 Guill Rd, Mount Juliet, TN<br>Acreage: 5.01<br>APN: 097-084.05<br><a href="https://landportal.com/?property=Zmlwcz00NzE4OSZsbF91dWlkPTEyNTEyNjYzMSZhcG49MDk3LTA4NC4wNQ==">&#128279; View on LandPortal</a>]]></description><Point><coordinates>-86.53730250391314,36.149449581190794,0</coordinates></Point></Placemark>
    <Placemark><name>Jones Mcculloch M, Jones Robert A</name><styleUrl>#tier1</styleUrl><description><![CDATA[<b>Tier 1</b> | Score: 77<br>Owner: Jones Mcculloch M, Jones Robert A<br>Address: 1160 Guill Rd, Mount Juliet, TN<br>Acreage: 5.01<br>APN: 097-084.04<br><a href="https://landportal.com/?property=Zmlwcz00NzE4OSZsbF91dWlkPTEyNTEyNjYyOSZhcG49MDk3LTA4NC4wNA==">&#128279; View on LandPortal</a>]]></description><Point><coordinates>-86.5382260628171,36.149449581190794,0</coordinates></Point></Placemark>
    <Placemark><name>Brown Reid Mary Carol, Reid Larry</name><styleUrl>#tier1</styleUrl><description><![CDATA[<b>Tier 1</b> | Score: 77<br>Owner: Brown Reid Mary Carol, Reid Larry<br>Address: Lone Oak Rd, Mount Juliet, TN<br>Acreage: 160.0<br>APN: 121-007.00<br><a href="https://landportal.com/?property=Zmlwcz00NzE4OSZsbF91dWlkPTEyNTE1MDQ5MCZhcG49MTIxLTAwNy4wMA==">&#128279; View on LandPortal</a>]]></description><Point><coordinates>-86.43896273004427,36.09616089516957,0</coordinates></Point></Placemark>
    <Placemark><name>Jones Mcculloch M, Jones Robert A</name><styleUrl>#tier1</styleUrl><description><![CDATA[<b>Tier 1</b> | Score: 77<br>Owner: Jones Mcculloch M, Jones Robert A<br>Address: 1122 Guill Rd, Mount Juliet, TN<br>Acreage: 5.01<br>APN: 097-084.03<br><a href="https://landportal.com/?property=Zmlwcz00NzE4OSZsbF91dWlkPTEyNTEyNjYyNSZhcG49MDk3LTA4NC4wMw==">&#128279; View on LandPortal</a>]]></description><Point><coordinates>-86.5389562890987,36.1503695520486,0</coordinates></Point></Placemark>
    <Placemark><name>Jones Mcculloch M, Jones Robert A</name><styleUrl>#tier1</styleUrl><description><![CDATA[<b>Tier 1</b> | Score: 77<br>Owner: Jones Mcculloch M, Jones Robert A<br>Address: 1100 Guill Rd, Mount Juliet, TN<br>Acreage: 5.01<br>APN: 097-084.02<br><a href="https://landportal.com/?property=Zmlwcz00NzE4OSZsbF91dWlkPTEyNTEyNjYyMyZhcG49MDk3LTA4NC4wMg==">&#128279; View on LandPortal</a>]]></description><Point><coordinates>-86.54035686494423,36.150218741243904,0</coordinates></Point></Placemark>
    <Placemark><name>Jones Mcculloch M, Jones Robert A</name><styleUrl>#tier1</styleUrl><description><![CDATA[<b>Tier 1</b> | Score: 77<br>Owner: Jones Mcculloch M, Jones Robert A<br>Address: 1084 Guill Rd, Mount Juliet, TN<br>Acreage: 5.01<br>APN: 097-084.01<br><a href="https://landportal.com/?property=Zmlwcz00NzE4OSZsbF91dWlkPTEyNTEyNjYyMSZhcG49MDk3LTA4NC4wMQ==">&#128279; View on LandPortal</a>]]></description><Point><coordinates>-86.54003039059647,36.1509589915989,0</coordinates></Point></Placemark>
    <Placemark><name>Bourini Michael H</name><styleUrl>#tier1</styleUrl><description><![CDATA[<b>Tier 1</b> | Score: 77<br>Owner: Bourini Michael H<br>Address: 1137 Gwynn Ln, Lebanon, TN<br>Acreage: 6.11<br>APN: 157-007.01<br><a href="https://landportal.com/?property=Zmlwcz00NzE4OSZsbF91dWlkPTEyNTE0NTQzNSZhcG49MTU3LTAwNy4wMQ==">&#128279; View on LandPortal</a>]]></description><Point><coordinates>-86.36036363833149,36.03513650214944,0</coordinates></Point></Placemark>
    <Placemark><name>Hudson Todd, Hudson Wendy</name><styleUrl>#tier1</styleUrl><description><![CDATA[<b>Tier 1</b> | Score: 77<br>Owner: Hudson Todd, Hudson Wendy<br>Address: 2451 Clever Creek Rd, Watertown, TN<br>Acreage: 118.0<br>APN: 153-008.28<br><a href="https://landportal.com/?property=Zmlwcz00NzE4OSZsbF91dWlkPTEyNTE1MjE4MCZhcG49MTUzLTAwOC4yOA==">&#128279; View on LandPortal</a>]]></description><Point><coordinates>-86.16572491233794,36.034667315418346,0</coordinates></Point></Placemark>
    <Placemark><name>Foster John W, Foster Casey D</name><styleUrl>#tier1</styleUrl><description><![CDATA[<b>Tier 1</b> | Score: 77<br>Owner: Foster John W, Foster Casey D<br>Address: 10846 Stewarts Ferry Pike, Lebanon, TN<br>Acreage: 5.01<br>APN: 116-085.01<br><a href="https://landportal.com/?property=Zmlwcz00NzE4OSZsbF91dWlkPTEyNTE0ODgyMiZhcG49MTE2LTA4NS4wMQ==">&#128279; View on LandPortal</a>]]></description><Point><coordinates>-86.38430043855807,36.10811897911425,0</coordinates></Point></Placemark>
    <Placemark><name>Barrentine Moody Louis, Barrentine Lisa Rene</name><styleUrl>#tier1</styleUrl><description><![CDATA[<b>Tier 1</b> | Score: 77<br>Owner: Barrentine Moody Louis, Barrentine Lisa Rene<br>Address: 1415 Walnut Hill Rd, Lebanon, TN<br>Acreage: 5.39<br>APN: 112-086.10<br><a href="https://landportal.com/?property=Zmlwcz00NzE4OSZsbF91dWlkPTE1OTYxNTUyNyZhcG49MTEyLTA4Ni4xMA==">&#128279; View on LandPortal</a>]]></description><Point><coordinates>-86.21831100393383,36.11123435879975,0</coordinates></Point></Placemark>
    <Placemark><name>452 Properties Llc</name><styleUrl>#tier1</styleUrl><description><![CDATA[<b>Tier 1</b> | Score: 77<br>Owner: 452 Properties Llc<br>Address: Fall Creek Rd, Lebanon, TN<br>Acreage: 153.0<br>APN: 158-003.00<br><a href="https://landportal.com/?property=Zmlwcz00NzE4OSZsbF91dWlkPTEyNTE0NTk5NyZhcG49MTU4LTAwMy4wMA==">&#128279; View on LandPortal</a>]]></description><Point><coordinates>-86.3789272301639,36.02002059190347,0</coordinates></Point></Placemark>
    <Placemark><name>Harris Raymond</name><styleUrl>#tier1</styleUrl><description><![CDATA[<b>Tier 1</b> | Score: 77<br>Owner: Harris Raymond<br>Address: 1060 Cainsville Rd, Lebanon, TN<br>Acreage: 5.68<br>APN: 082-001.03<br><a href="https://landportal.com/?property=Zmlwcz00NzE4OSZsbF91dWlkPTEyNTE0MzcyOSZhcG49MDgyLTAwMS4wMw==">&#128279; View on LandPortal</a>]]></description><Point><coordinates>-86.28164642957637,36.187334152091566,0</coordinates></Point></Placemark>
    <Placemark><name>Sutton Brandon Ladon, Sutton Jessie Jennifer</name><styleUrl>#tier1</styleUrl><description><![CDATA[<b>Tier 1</b> | Score: 77<br>Owner: Sutton Brandon Ladon, Sutton Jessie Jennifer<br>Address: 147 Ben Green Rd, Lebanon, TN<br>Acreage: 5.01<br>APN: 042-027.10<br><a href="https://landportal.com/?property=Zmlwcz00NzE4OSZsbF91dWlkPTEyNTEwMzYyOCZhcG49MDQyLTAyNy4xMA==">&#128279; View on LandPortal</a>]]></description><Point><coordinates>-86.14934170459064,36.24090027311001,0</coordinates></Point></Placemark>
    <Placemark><name>Cedar City Company Llc</name><styleUrl>#tier1</styleUrl><description><![CDATA[<b>Tier 1</b> | Score: 77<br>Owner: Cedar City Company Llc<br>Address: Cherry Blossom Way, Lebanon, TN<br>Acreage: 55.21<br>APN: 047-027.04<br><a href="https://landportal.com/?property=Zmlwcz00NzE4OSZsbF91dWlkPTE2Nzk1OTE1MyZhcG49MDQ3LTAyNy4wNA==">&#128279; View on LandPortal</a>]]></description><Point><coordinates>-86.38582479381097,36.24667083827211,0</coordinates></Point></Placemark>
    <Placemark><name>Ortiz Anadelia Ayala, Ayala Marcelina</name><styleUrl>#tier1</styleUrl><description><![CDATA[<b>Tier 1</b> | Score: 77<br>Owner: Ortiz Anadelia Ayala, Ayala Marcelina<br>Address: Africa Rd, Lebanon, TN<br>Acreage: 5.16<br>APN: 044-013.01<br><a href="https://landportal.com/?property=Zmlwcz00NzE4OSZsbF91dWlkPTEyNTExNjY0OSZhcG49MDQ0LTAxMy4wMQ==">&#128279; View on LandPortal</a>]]></description><Point><coordinates>-86.26200622346659,36.24805047417479,0</coordinates></Point></Placemark>
    <Placemark><name>Mdh F1 Nashville Cedar Creek Llc</name><styleUrl>#tier1</styleUrl><description><![CDATA[<b>Tier 1</b> | Score: 77<br>Owner: Mdh F1 Nashville Cedar Creek Llc<br>Address: E Division St, Lebanon, TN<br>Acreage: 5.64<br>APN: 079-074.03<br><a href="https://landportal.com/?property=Zmlwcz00NzE4OSZsbF91dWlkPTEyNTE1NDIwOCZhcG49MDc5LTA3NC4wMw==">&#128279; View on LandPortal</a>]]></description><Point><coordinates>-86.4242311137652,36.18848796733823,0</coordinates></Point></Placemark>
    <Placemark><name>Carnes Shad, Carnes Becky</name><styleUrl>#tier1</styleUrl><description><![CDATA[<b>Tier 1</b> | Score: 77<br>Owner: Carnes Shad, Carnes Becky<br>Address: Gwynn Rd, Smyrna, TN<br>Acreage: 8.74<br>APN: 141-004.05<br><a href="https://landportal.com/?property=Zmlwcz00NzE4OSZsbF91dWlkPTE2Mzc1NTUxMyZhcG49MTQxLTAwNC4wNQ==">&#128279; View on LandPortal</a>]]></description><Point><coordinates>-86.41697819189721,36.0547569619748,0</coordinates></Point></Placemark>
    <Placemark><name>Robert C Bone Md 2023 Trust, Bone</name><styleUrl>#tier1</styleUrl><description><![CDATA[<b>Tier 1</b> | Score: 77<br>Owner: Robert C Bone Md 2023 Trust, Bone<br>Address: Carver Ln, Lebanon, TN<br>Acreage: 8.85<br>APN: 057-070.00<br><a href="https://landportal.com/?property=Zmlwcz00NzE4OSZsbF91dWlkPTEyNTExNzA5MSZhcG49MDU3LTA3MC4wMA==">&#128279; View on LandPortal</a>]]></description><Point><coordinates>-86.33319523807234,36.22176988547477,0</coordinates></Point></Placemark>
    <Placemark><name>Lehi Development Corp</name><styleUrl>#tier1</styleUrl><description><![CDATA[<b>Tier 1</b> | Score: 77<br>Owner: Lehi Development Corp<br>Address: 714 Chicken Rd, Lebanon, TN<br>Acreage: 56.0<br>APN: 124-024.00<br><a href="https://landportal.com/?property=Zmlwcz00NzE4OSZsbF91dWlkPTEyNTE1MTkzMiZhcG49MTI0LTAyNC4wMA==">&#128279; View on LandPortal</a>]]></description><Point><coordinates>-86.31900236728916,36.091650777810216,0</coordinates></Point></Placemark>
    <Placemark><name>Stag Industrial Holdings Llc, Co Stag Lebanon 3</name><styleUrl>#tier1</styleUrl><description><![CDATA[<b>Tier 1</b> | Score: 77<br>Owner: Stag Industrial Holdings Llc, Co Stag Lebanon 3<br>Address: Maddox-simpson Pkwy, Lebanon, TN<br>Acreage: 25.69<br>APN: 082-157.25<br><a href="https://landportal.com/?property=Zmlwcz00NzE4OSZsbF91dWlkPTEyNTE0NTMyMSZhcG49MDgyLTE1Ny4yNQ==">&#128279; View on LandPortal</a>]]></description><Point><coordinates>-86.28571205790695,36.17947873536808,0</coordinates></Point></Placemark>
    <Placemark><name>Foutch Lisa G</name><styleUrl>#tier1</styleUrl><description><![CDATA[<b>Tier 1</b> | Score: 77<br>Owner: Foutch Lisa G<br>Address: Highway 96, Liberty, TN<br>Acreage: 112.77<br>APN: 168-001.04<br><a href="https://landportal.com/?property=Zmlwcz00NzE4OSZsbF91dWlkPTEyNTEzNTY1OCZhcG49MTY4LTAwMS4wNA==">&#128279; View on LandPortal</a>]]></description><Point><coordinates>-86.04090539588844,35.99288320780775,0</coordinates></Point></Placemark>
    <Placemark><name>Gold Michael T, Gold Kimberlee E</name><styleUrl>#tier1</styleUrl><description><![CDATA[<b>Tier 1</b> | Score: 77<br>Owner: Gold Michael T, Gold Kimberlee E<br>Address: 1099 Trammel Ln, Lebanon, TN<br>Acreage: 5.89<br>APN: 112-086.17<br><a href="https://landportal.com/?property=Zmlwcz00NzE4OSZsbF91dWlkPTE1OTYxNTUzMyZhcG49MTEyLTA4Ni4xNw==">&#128279; View on LandPortal</a>]]></description><Point><coordinates>-86.21675109455607,36.10884446685293,0</coordinates></Point></Placemark>
    <Placemark><name>Saddler Eric M, Saddler Jared T</name><styleUrl>#tier1</styleUrl><description><![CDATA[<b>Tier 1</b> | Score: 77<br>Owner: Saddler Eric M, Saddler Jared T<br>Address: Fites Ln, Auburntown, TN<br>Acreage: 123.21<br>APN: 181-012.01<br><a href="https://landportal.com/?property=Zmlwcz00NzE4OSZsbF91dWlkPTEyNTE1ODEzMiZhcG49MTgxLTAxMi4wMQ==">&#128279; View on LandPortal</a>]]></description><Point><coordinates>-86.0458466121322,35.971577988836955,0</coordinates></Point></Placemark>
    <Placemark><name>Boldt Thomas, Boldt Ana Maria</name><styleUrl>#tier1</styleUrl><description><![CDATA[<b>Tier 1</b> | Score: 77<br>Owner: Boldt Thomas, Boldt Ana Maria<br>Address: 2661 Holmes Gap Rd, Watertown, TN<br>Acreage: 9.95<br>APN: 110-015.05<br><a href="https://landportal.com/?property=Zmlwcz00NzE4OSZsbF91dWlkPTEyNTE1NjQ1MSZhcG49MTEwLTAxNS4wNQ==">&#128279; View on LandPortal</a>]]></description><Point><coordinates>-86.09585347838902,36.117150172865536,0</coordinates></Point></Placemark>
    <Placemark><name>Mdh F1 Nashville Cedar Creek Llc</name><styleUrl>#tier1</styleUrl><description><![CDATA[<b>Tier 1</b> | Score: 77<br>Owner: Mdh F1 Nashville Cedar Creek Llc<br>Address: E Division St, Lebanon, TN<br>Acreage: 5.47<br>APN: 079-074.04<br><a href="https://landportal.com/?property=Zmlwcz00NzE4OSZsbF91dWlkPTEyNTE1NDIwOSZhcG49MDc5LTA3NC4wNA==">&#128279; View on LandPortal</a>]]></description><Point><coordinates>-86.42352131763818,36.188471564244026,0</coordinates></Point></Placemark>
    <Placemark><name>Bean James W, Bean Nancy S</name><styleUrl>#tier1</styleUrl><description><![CDATA[<b>Tier 1</b> | Score: 77<br>Owner: Bean James W, Bean Nancy S<br>Address: 2636 Leeville Rd, Mount Juliet, TN<br>Acreage: 5.63<br>APN: 094-041.02<br><a href="https://landportal.com/?property=Zmlwcz00NzE4OSZsbF91dWlkPTE2MTQzNzY5NSZhcG49MDk0LTA0MS4wMg==">&#128279; View on LandPortal</a>]]></description><Point><coordinates>-86.42571405677911,36.1577079575983,0</coordinates></Point></Placemark>
    <Placemark><name>Michael Rayburn Bostic Trust, Bostic</name><styleUrl>#tier1</styleUrl><description><![CDATA[<b>Tier 1</b> | Score: 77<br>Owner: Michael Rayburn Bostic Trust, Bostic<br>Address: 1180 Flat Woods Rd, Lebanon, TN<br>Acreage: 5.93<br>APN: 136-038.12<br><a href="https://landportal.com/?property=Zmlwcz00NzE4OSZsbF91dWlkPTEyNTE1MzAyMiZhcG49MTM2LTAzOC4xMg==">&#128279; View on LandPortal</a>]]></description><Point><coordinates>-86.3619470023884,36.07299336083243,0</coordinates></Point></Placemark>
    <Placemark><name>Zsigmond Attila, Dimiceli-zsigmond Mary</name><styleUrl>#tier1</styleUrl><description><![CDATA[<b>Tier 1</b> | Score: 77<br>Owner: Zsigmond Attila, Dimiceli-zsigmond Mary<br>Address: Beckwith Rd, Mount Juliet, TN<br>Acreage: 7.36<br>APN: 095-038.14<br><a href="https://landportal.com/?property=Zmlwcz00NzE4OSZsbF91dWlkPTEyNTEzNjI5MiZhcG49MDk1LTAzOC4xNA==">&#128279; View on LandPortal</a>]]></description><Point><coordinates>-86.45647072347862,36.15904183415646,0</coordinates></Point></Placemark>
    <Placemark><name>Beasley Derrick E</name><styleUrl>#tier1</styleUrl><description><![CDATA[<b>Tier 1</b> | Score: 77<br>Owner: Beasley Derrick E<br>Address: 3360 Murfreesboro Rd, Lebanon, TN<br>Acreage: 6.03<br>APN: 114-023.02<br><a href="https://landportal.com/?property=Zmlwcz00NzE4OSZsbF91dWlkPTEyNTEzMDE2OCZhcG49MTE0LTAyMy4wMg==">&#128279; View on LandPortal</a>]]></description><Point><coordinates>-86.32781158577893,36.11746768132579,0</coordinates></Point></Placemark>
    <Placemark><name>Stonebridge Master Assoc Inc</name><styleUrl>#tier1</styleUrl><description><![CDATA[<b>Tier 1</b> | Score: 75<br>Owner: Stonebridge Master Assoc Inc<br>Address: Meandering Dr, Lebanon, TN<br>Acreage: 13.72<br>APN: 079D-A-046.00<br><a href="https://landportal.com/?property=Zmlwcz00NzE4OSZsbF91dWlkPTEyNTE0MjQyMSZhcG49MDc5RC1BLTA0Ni4wMA==">&#128279; View on LandPortal</a>]]></description><Point><coordinates>-86.37976977130768,36.18731892013185,0</coordinates></Point></Placemark>
    <Placemark><name>State Of Tennessee</name><styleUrl>#tier1</styleUrl><description><![CDATA[<b>Tier 1</b> | Score: 75<br>Owner: State Of Tennessee<br>Address: Cedar Forest Rd, Lebanon, TN<br>Acreage: 41.84<br>APN: 123-002.00<br><a href="https://landportal.com/?property=Zmlwcz00NzE4OSZsbF91dWlkPTEyNTE1NzA5NCZhcG49MTIzLTAwMi4wMA==">&#128279; View on LandPortal</a>]]></description><Point><coordinates>-86.3552680370352,36.09861964301889,0</coordinates></Point></Placemark>
    <Placemark><name>Eastland Construction Inc, Suite 200</name><styleUrl>#tier1</styleUrl><description><![CDATA[<b>Tier 1</b> | Score: 75<br>Owner: Eastland Construction Inc, Suite 200<br>Address: Brown Rd, Lebanon, TN<br>Acreage: 5.78<br>APN: 024-053.04<br><a href="https://landportal.com/?property=Zmlwcz00NzE4OSZsbF91dWlkPTEyNTEwNzA2MiZhcG49MDI0LTA1My4wNA==">&#128279; View on LandPortal</a>]]></description><Point><coordinates>-86.31446958204396,36.28787197262572,0</coordinates></Point></Placemark>
    <Placemark><name>Lax Properties Llc</name><styleUrl>#tier1</styleUrl><description><![CDATA[<b>Tier 1</b> | Score: 75<br>Owner: Lax Properties Llc<br>Address: Mann Rd, Lebanon, TN<br>Acreage: 5.82<br>APN: 025-059.02<br><a href="https://landportal.com/?property=Zmlwcz00NzE4OSZsbF91dWlkPTEyNTEwNzU2MSZhcG49MDI1LTA1OS4wMg==">&#128279; View on LandPortal</a>]]></description><Point><coordinates>-86.33750605694726,36.30404759273793,0</coordinates></Point></Placemark>
    <Placemark><name>Tulip Alliance Llc</name><styleUrl>#tier1</styleUrl><description><![CDATA[<b>Tier 1</b> | Score: 75<br>Owner: Tulip Alliance Llc<br>Address: 14001 Lebanon Rd, Old Hickory, TN<br>Acreage: 6.61<br>APN: 053-130.03<br><a href="https://landportal.com/?property=Zmlwcz00NzE4OSZsbF91dWlkPTE1OTYxNDk4OCZhcG49MDUzLTEzMC4wMw==">&#128279; View on LandPortal</a>]]></description><Point><coordinates>-86.56074703061674,36.22313039572744,0</coordinates></Point></Placemark>
    <Placemark><name>Papa Ganoush Angus Farm Llc</name><styleUrl>#tier1</styleUrl><description><![CDATA[<b>Tier 1</b> | Score: 75<br>Owner: Papa Ganoush Angus Farm Llc<br>Address: Greenvale Rd, Watertown, TN<br>Acreage: 5.01<br>APN: 163-028.04<br><a href="https://landportal.com/?property=Zmlwcz00NzE4OSZsbF91dWlkPTEyNTE1MzU4NSZhcG49MTYzLTAyOC4wNA==">&#128279; View on LandPortal</a>]]></description><Point><coordinates>-86.19137554201075,36.00884751814237,0</coordinates></Point></Placemark>
    <Placemark><name>Cor-foundation Group Llc</name><styleUrl>#tier1</styleUrl><description><![CDATA[<b>Tier 1</b> | Score: 75<br>Owner: Cor-foundation Group Llc<br>Address: Se Tater Peeler Rd, Lebanon, TN<br>Acreage: 5.27<br>APN: 081-077.15<br><a href="https://landportal.com/?property=Zmlwcz00NzE4OSZsbF91dWlkPTEyNTE0MjYzNyZhcG49MDgxLTA3Ny4xNQ==">&#128279; View on LandPortal</a>]]></description><Point><coordinates>-86.2955151258997,36.17208085407303,0</coordinates></Point></Placemark>
    <Placemark><name>Papa Ganoush Angus Farm Llc</name><styleUrl>#tier1</styleUrl><description><![CDATA[<b>Tier 1</b> | Score: 75<br>Owner: Papa Ganoush Angus Farm Llc<br>Address: Greenvale Rd, Watertown, TN<br>Acreage: 5.05<br>APN: 163-028.03<br><a href="https://landportal.com/?property=Zmlwcz00NzE4OSZsbF91dWlkPTEyNTE1MzU4NCZhcG49MTYzLTAyOC4wMw==">&#128279; View on LandPortal</a>]]></description><Point><coordinates>-86.1920680978408,36.008747904636785,0</coordinates></Point></Placemark>
    <Placemark><name>State Of Tennessee</name><styleUrl>#tier1</styleUrl><description><![CDATA[<b>Tier 1</b> | Score: 75<br>Owner: State Of Tennessee<br>Address: Fall Creek Rd, Lebanon, TN<br>Acreage: 45.61<br>APN: 157-048.01<br><a href="https://landportal.com/?property=Zmlwcz00NzE4OSZsbF91dWlkPTEyNTE0NTYyNyZhcG49MTU3LTA0OC4wMQ==">&#128279; View on LandPortal</a>]]></description><Point><coordinates>-86.37033938147425,36.03009919882203,0</coordinates></Point></Placemark>
    <Placemark><name>Pinzgauer Properties</name><styleUrl>#tier1</styleUrl><description><![CDATA[<b>Tier 1</b> | Score: 75<br>Owner: Pinzgauer Properties<br>Address: Linwood Rd, Watertown, TN<br>Acreage: 5.0<br>APN: 106-026.08<br><a href="https://landportal.com/?property=Zmlwcz00NzE4OSZsbF91dWlkPTEyNTE1NjIwOSZhcG49MTA2LTAyNi4wOA==">&#128279; View on LandPortal</a>]]></description><Point><coordinates>-86.17038056849697,36.137056786296014,0</coordinates></Point></Placemark>
    <Placemark><name>Harris Real Estate Group Llc</name><styleUrl>#tier1</styleUrl><description><![CDATA[<b>Tier 1</b> | Score: 75<br>Owner: Harris Real Estate Group Llc<br>Address: E Division St, Mount Juliet, TN<br>Acreage: 5.2<br>APN: 078-042.04<br><a href="https://landportal.com/?property=Zmlwcz00NzE4OSZsbF91dWlkPTEyNTE0MjQ2NiZhcG49MDc4LTA0Mi4wNA==">&#128279; View on LandPortal</a>]]></description><Point><coordinates>-86.42774411675279,36.188333302006015,0</coordinates></Point></Placemark>
    <Placemark><name>Pinnacle Old Pleasant Road Llc</name><styleUrl>#tier1</styleUrl><description><![CDATA[<b>Tier 1</b> | Score: 75<br>Owner: Pinnacle Old Pleasant Road Llc<br>Address: 75 Old Pleasant Grove Rd, Mount Juliet, TN<br>Acreage: 8.09<br>APN: 077-082.00<br><a href="https://landportal.com/?property=Zmlwcz00NzE4OSZsbF91dWlkPTEyNTEzMTk3MCZhcG49MDc3LTA4Mi4wMA==">&#128279; View on LandPortal</a>]]></description><Point><coordinates>-86.5149356832712,36.172475676814216,0</coordinates></Point></Placemark>
    <Placemark><name>Wright Farms Llc</name><styleUrl>#tier1</styleUrl><description><![CDATA[<b>Tier 1</b> | Score: 75<br>Owner: Wright Farms Llc<br>Address: 2504 Callis Rd, Lebanon, TN<br>Acreage: 9.27<br>APN: 094-015.09<br><a href="https://landportal.com/?property=Zmlwcz00NzE4OSZsbF91dWlkPTE3MDMwMDQzNiZhcG49MDk0LTAxNS4wOQ==">&#128279; View on LandPortal</a>]]></description><Point><coordinates>-86.39171828566383,36.16353170374568,0</coordinates></Point></Placemark>
    <Placemark><name>Lock Five Hunting Club</name><styleUrl>#tier1</styleUrl><description><![CDATA[<b>Tier 1</b> | Score: 75<br>Owner: Lock Five Hunting Club<br>Address: Tomlinson Rd, Lebanon, TN<br>Acreage: 5.02<br>APN: 005-005.08<br><a href="https://landportal.com/?property=Zmlwcz00NzE4OSZsbF91dWlkPTEyNTEwNDA4NyZhcG49MDA1LTAwNS4wOA==">&#128279; View on LandPortal</a>]]></description><Point><coordinates>-86.23763604763857,36.33662378964301,0</coordinates></Point></Placemark>
    <Placemark><name>Fence Row Properties Llc</name><styleUrl>#tier1</styleUrl><description><![CDATA[<b>Tier 1</b> | Score: 75<br>Owner: Fence Row Properties Llc<br>Address: 1030 N Castle Heights Ave, Lebanon, TN<br>Acreage: 6.198<br>APN: 058-057.00-001<br><a href="https://landportal.com/?property=Zmlwcz00NzE4OSZsbF91dWlkPTE1OTYxNDk2MyZhcG49MDU4LTA1Ny4wMC0wMDE=">&#128279; View on LandPortal</a>]]></description><Point><coordinates>-86.29421113806367,36.22493478227287,0</coordinates></Point></Placemark>
    <Placemark><name>Vault Development Llc</name><styleUrl>#tier1</styleUrl><description><![CDATA[<b>Tier 1</b> | Score: 75<br>Owner: Vault Development Llc<br>Address: 1151 Hamilton Chambers Rd, Lebanon, TN<br>Acreage: 5.0<br>APN: 037-009.19<br><a href="https://landportal.com/?property=Zmlwcz00NzE4OSZsbF91dWlkPTE3NTQzNzg4MCZhcG49MDM3LTAwOS4xOQ==">&#128279; View on LandPortal</a>]]></description><Point><coordinates>-86.25167522939047,36.27638494665909,0</coordinates></Point></Placemark>
    <Placemark><name>State Of Tennessee</name><styleUrl>#tier1</styleUrl><description><![CDATA[<b>Tier 1</b> | Score: 75<br>Owner: State Of Tennessee<br>Address: Steeplechase Dr, Lebanon, TN<br>Acreage: 12.67<br>APN: 124-024.17<br><a href="https://landportal.com/?property=Zmlwcz00NzE4OSZsbF91dWlkPTEyNTE1MTk0NyZhcG49MTI0LTAyNC4xNw==">&#128279; View on LandPortal</a>]]></description><Point><coordinates>-86.32171775116115,36.09209910189392,0</coordinates></Point></Placemark>
    <Placemark><name>The Villages Of Cedar Creek Homeowners</name><styleUrl>#tier1</styleUrl><description><![CDATA[<b>Tier 1</b> | Score: 75<br>Owner: The Villages Of Cedar Creek Homeowners<br>Address: Saundersville Rd, Mount Juliet, TN<br>Acreage: 24.5<br>APN: 031-093.00<br><a href="https://landportal.com/?property=Zmlwcz00NzE4OSZsbF91dWlkPTEyNTExMDk3NCZhcG49MDMxLTA5My4wMA==">&#128279; View on LandPortal</a>]]></description><Point><coordinates>-86.53400532660899,36.25824582723645,0</coordinates></Point></Placemark>
    <Placemark><name>Wilson County</name><styleUrl>#tier1</styleUrl><description><![CDATA[<b>Tier 1</b> | Score: 72<br>Owner: Wilson County<br>Address: Cedar Grove Rd, Lebanon, TN<br>Acreage: 38.0<br>APN: 036-030.00<br><a href="https://landportal.com/?property=Zmlwcz00NzE4OSZsbF91dWlkPTEyNTExNTM4MiZhcG49MDM2LTAzMC4wMA==">&#128279; View on LandPortal</a>]]></description><Point><coordinates>-86.30903326902121,36.26902928843168,0</coordinates></Point></Placemark>
    <Placemark><name>Rrh Properties Llc</name><styleUrl>#tier1</styleUrl><description><![CDATA[<b>Tier 1</b> | Score: 72<br>Owner: Rrh Properties Llc<br>Address: 2351 Mann Rd, Lebanon, TN<br>Acreage: 5.11<br>APN: 025-064.04<br><a href="https://landportal.com/?property=Zmlwcz00NzE4OSZsbF91dWlkPTEyNTEwNzU3MCZhcG49MDI1LTA2NC4wNA==">&#128279; View on LandPortal</a>]]></description><Point><coordinates>-86.33314312322378,36.29803404293914,0</coordinates></Point></Placemark>
    <Placemark><name>Bell Eagle Real Estate Llc</name><styleUrl>#tier1</styleUrl><description><![CDATA[<b>Tier 1</b> | Score: 72<br>Owner: Bell Eagle Real Estate Llc<br>Address: W Main St, Mount Juliet, TN<br>Acreage: 7.0<br>APN: 057-100.01<br><a href="https://landportal.com/?property=Zmlwcz00NzE4OSZsbF91dWlkPTE3NTQzNTczNyZhcG49MDU3LTEwMC4wMQ==">&#128279; View on LandPortal</a>]]></description><Point><coordinates>-86.34866227903785,36.221926688794866,0</coordinates></Point></Placemark>
    <Placemark><name>Lester Fannie D</name><styleUrl>#tier1</styleUrl><description><![CDATA[<b>Tier 1</b> | Score: 72<br>Owner: Lester Fannie D<br>Address: Mccrary Rd, Lebanon, TN<br>Acreage: 2.0<br>APN: 122-025.04<br><a href="https://landportal.com/?property=Zmlwcz00NzE4OSZsbF91dWlkPTEyNTE1NzA2MyZhcG49MTIyLTAyNS4wNA==">&#128279; View on LandPortal</a>]]></description><Point><coordinates>-86.41708945211157,36.08528517110892,0</coordinates></Point></Placemark>
    <Placemark><name>City Of Lebanon</name><styleUrl>#tier1</styleUrl><description><![CDATA[<b>Tier 1</b> | Score: 72<br>Owner: City Of Lebanon<br>Address: Hunters Point Park, Lebanon, TN<br>Acreage: 12.02<br>APN: 023-040.02<br><a href="https://landportal.com/?property=Zmlwcz00NzE4OSZsbF91dWlkPTEyNTEwNjkzMiZhcG49MDIzLTA0MC4wMg==">&#128279; View on LandPortal</a>]]></description><Point><coordinates>-86.26178917286975,36.296175434600926,0</coordinates></Point></Placemark>
    <Placemark><name>Jackson Hills Residential Association In</name><styleUrl>#tier1</styleUrl><description><![CDATA[<b>Tier 1</b> | Score: 72<br>Owner: Jackson Hills Residential Association In<br>Address: Golden Bear Gtwy, Nashville, TN<br>Acreage: 6.5<br>APN: 072-042.04<br><a href="https://landportal.com/?property=Zmlwcz00NzE4OSZsbF91dWlkPTE1Njg3MDEwOCZhcG49MDcyLTA0Mi4wNA==">&#128279; View on LandPortal</a>]]></description><Point><coordinates>-86.49730427334867,36.21188376233009,0</coordinates></Point></Placemark>
    <Placemark><name>City Of Mount Juliet</name><styleUrl>#tier1</styleUrl><description><![CDATA[<b>Tier 1</b> | Score: 72<br>Owner: City Of Mount Juliet<br>Address: Old Lebanon Dirt Rd, Mount Juliet, TN<br>Acreage: 22.39<br>APN: 073-081.00<br><a href="https://landportal.com/?property=Zmlwcz00NzE4OSZsbF91dWlkPTEyNTEzODQxNyZhcG49MDczLTA4MS4wMA==">&#128279; View on LandPortal</a>]]></description><Point><coordinates>-86.56573352943505,36.19682772793136,0</coordinates></Point></Placemark>
    <Placemark><name>Turner Lisa</name><styleUrl>#tier1</styleUrl><description><![CDATA[<b>Tier 1</b> | Score: 72<br>Owner: Turner Lisa<br>Address: Lebanon Rd, Mount Juliet, TN<br>Acreage: 4.4<br>APN: 055-085.00<br><a href="https://landportal.com/?property=Zmlwcz00NzE4OSZsbF91dWlkPTEyNTE0MTA2NSZhcG49MDU1LTA4NS4wMA==">&#128279; View on LandPortal</a>]]></description><Point><coordinates>-86.45798170715571,36.234772153262824,0</coordinates></Point></Placemark>
    <Placemark><name>Brawner Benny Carl, Brawner Tammy</name><styleUrl>#tier1</styleUrl><description><![CDATA[<b>Tier 1</b> | Score: 72<br>Owner: Brawner Benny Carl, Brawner Tammy<br>Address: Spain Hill Rd, Lascassas, TN<br>Acreage: 1.9<br>APN: 174-008.02<br><a href="https://landportal.com/?property=Zmlwcz00NzE4OSZsbF91dWlkPTEyNTE1NzkxMyZhcG49MTc0LTAwOC4wMg==">&#128279; View on LandPortal</a>]]></description><Point><coordinates>-86.28825724919673,35.9766270149317,0</coordinates></Point></Placemark>
    <Placemark><name>The Greymar Dynasty Trust</name><styleUrl>#tier1</styleUrl><description><![CDATA[<b>Tier 1</b> | Score: 72<br>Owner: The Greymar Dynasty Trust<br>Address: W Saulsbury Rd, Lebanon, TN<br>Acreage: 3.65<br>APN: 084-004.00<br><a href="https://landportal.com/?property=Zmlwcz00NzE4OSZsbF91dWlkPTEyNTEzNTUzMyZhcG49MDg0LTAwNC4wMA==">&#128279; View on LandPortal</a>]]></description><Point><coordinates>-86.15795920855446,36.18532016957077,0</coordinates></Point></Placemark>
    <Placemark><name>Sellars Commemorative, Solututions Llc</name><styleUrl>#tier1</styleUrl><description><![CDATA[<b>Tier 1</b> | Score: 72<br>Owner: Sellars Commemorative, Solututions Llc<br>Address: W Division St, Mount Juliet, TN<br>Acreage: 9.33<br>APN: 073-023.02<br><a href="https://landportal.com/?property=Zmlwcz00NzE4OSZsbF91dWlkPTEyNTE1MTYyMSZhcG49MDczLTAyMy4wMg==">&#128279; View on LandPortal</a>]]></description><Point><coordinates>-86.52857696835909,36.20736422319831,0</coordinates></Point></Placemark>
    <Placemark><name>Swain James Bert</name><styleUrl>#tier1</styleUrl><description><![CDATA[<b>Tier 1</b> | Score: 72<br>Owner: Swain James Bert<br>Address: Stewarts Ferry Park, Lebanon, TN<br>Acreage: 4.0<br>APN: 115-041.02<br><a href="https://landportal.com/?property=Zmlwcz00NzE4OSZsbF91dWlkPTEyNTE0MTE1MCZhcG49MTE1LTA0MS4wMg==">&#128279; View on LandPortal</a>]]></description><Point><coordinates>-86.36745605683276,36.10916469850277,0</coordinates></Point></Placemark>
    <Placemark><name>Blackberry Trace Homeowners Association Inc</name><styleUrl>#tier1</styleUrl><description><![CDATA[<b>Tier 1</b> | Score: 72<br>Owner: Blackberry Trace Homeowners Association Inc<br>Address: Brixton Rdg, Lebanon, TN<br>Acreage: 23.0<br>APN: 026F-A-013.00<br><a href="https://landportal.com/?property=Zmlwcz00NzE4OSZsbF91dWlkPTE1OTYxNTAyMiZhcG49MDI2Ri1BLTAxMy4wMA==">&#128279; View on LandPortal</a>]]></description><Point><coordinates>-86.39043846575747,36.29639231750269,0</coordinates></Point></Placemark>
    <Placemark><name>Hillcrest Baptist Church Of Lebanon Inc</name><styleUrl>#tier1</styleUrl><description><![CDATA[<b>Tier 1</b> | Score: 72<br>Owner: Hillcrest Baptist Church Of Lebanon Inc<br>Address: Rome Park, Lebanon, TN<br>Acreage: 5.4<br>APN: 067-002.04<br><a href="https://landportal.com/?property=Zmlwcz00NzE4OSZsbF91dWlkPTEyNTEzMjUzMSZhcG49MDY3LTAwMi4wNA==">&#128279; View on LandPortal</a>]]></description><Point><coordinates>-86.28098391803118,36.21442321505833,0</coordinates></Point></Placemark>
    <Placemark><name>Bob Jones Dev Co</name><styleUrl>#tier1</styleUrl><description><![CDATA[<b>Tier 1</b> | Score: 72<br>Owner: Bob Jones Dev Co<br>Address: N Mt Juliet Rd, Mount Juliet, TN<br>Acreage: 6.5<br>APN: 072P-A-007.00<br><a href="https://landportal.com/?property=Zmlwcz00NzE4OSZsbF91dWlkPTEyNTE1MTMzMCZhcG49MDcyUC1BLTAwNy4wMA==">&#128279; View on LandPortal</a>]]></description><Point><coordinates>-86.515646588174,36.193348778560654,0</coordinates></Point></Placemark>
    <Placemark><name>Jackson Hills Residential Association Inc</name><styleUrl>#tier1</styleUrl><description><![CDATA[<b>Tier 1</b> | Score: 72<br>Owner: Jackson Hills Residential Association Inc<br>Address: Plowson Rd, Nashville, TN<br>Acreage: 11.11<br>APN: 072F-A-053.00<br><a href="https://landportal.com/?property=Zmlwcz00NzE4OSZsbF91dWlkPTE1OTYxNTM5OCZhcG49MDcyRi1BLTA1My4wMA==">&#128279; View on LandPortal</a>]]></description><Point><coordinates>-86.4939867961249,36.20848495680508,0</coordinates></Point></Placemark>
    <Placemark><name>Eubank Nancy, Bell Elaine</name><styleUrl>#tier1</styleUrl><description><![CDATA[<b>Tier 1</b> | Score: 72<br>Owner: Eubank Nancy, Bell Elaine<br>Address: 219 Atkinson Rd, Lebanon, TN<br>Acreage: 5.46<br>APN: 114-002.00<br><a href="https://landportal.com/?property=Zmlwcz00NzE4OSZsbF91dWlkPTEyNTEyOTc3MSZhcG49MTE0LTAwMi4wMA==">&#128279; View on LandPortal</a>]]></description><Point><coordinates>-86.32400940255249,36.1260821010115,0</coordinates></Point></Placemark>
    <Placemark><name>Wilson Co Water &amp; Wastewater</name><styleUrl>#tier1</styleUrl><description><![CDATA[<b>Tier 1</b> | Score: 72<br>Owner: Wilson Co Water &amp; Wastewater<br>Address: Maddox-simpson Pkwy, Lebanon, TN<br>Acreage: 21.13<br>APN: 082-157.34<br><a href="https://landportal.com/?property=Zmlwcz00NzE4OSZsbF91dWlkPTEyNTE0NTQ1MyZhcG49MDgyLTE1Ny4zNA==">&#128279; View on LandPortal</a>]]></description><Point><coordinates>-86.28127564148481,36.17567078459798,0</coordinates></Point></Placemark>
    <Placemark><name>Young Fred, Young Mary Ann</name><styleUrl>#tier1</styleUrl><description><![CDATA[<b>Tier 1</b> | Score: 72<br>Owner: Young Fred, Young Mary Ann<br>Address: Commerce Church Rd, Watertown, TN<br>Acreage: 3.6<br>APN: 109-006.00<br><a href="https://landportal.com/?property=Zmlwcz00NzE4OSZsbF91dWlkPTEyNTE1NjM5OCZhcG49MTA5LTAwNi4wMA==">&#128279; View on LandPortal</a>]]></description><Point><coordinates>-86.08372977397828,36.127211056605574,0</coordinates></Point></Placemark>
    <Placemark><name>Pulley Ronald Wilson, Pulley Kathy S</name><styleUrl>#tier1</styleUrl><description><![CDATA[<b>Tier 1</b> | Score: 72<br>Owner: Pulley Ronald Wilson, Pulley Kathy S<br>Address: Old Goose Creek Rd, Watertown, TN<br>Acreage: 102.56<br>APN: 163-010.02<br><a href="https://landportal.com/?property=Zmlwcz00NzE4OSZsbF91dWlkPTEyNTE1MzQ5MSZhcG49MTYzLTAxMC4wMg==">&#128279; View on LandPortal</a>]]></description><Point><coordinates>-86.21183397598762,36.01702585688692,0</coordinates></Point></Placemark>
    <Placemark><name>Borcherding Sara L</name><styleUrl>#tier1</styleUrl><description><![CDATA[<b>Tier 1</b> | Score: 72<br>Owner: Borcherding Sara L<br>Address: W End Hts, Lebanon, TN<br>Acreage: 2.35<br>APN: 058O-C-045.02<br><a href="https://landportal.com/?property=Zmlwcz00NzE4OSZsbF91dWlkPTEyNTEyMDA0MCZhcG49MDU4Ty1DLTA0NS4wMg==">&#128279; View on LandPortal</a>]]></description><Point><coordinates>-86.31909577578395,36.214001760898995,0</coordinates></Point></Placemark>
    <Placemark><name>Fairview Baptist Church Of Lebanon</name><styleUrl>#tier1</styleUrl><description><![CDATA[<b>Tier 1</b> | Score: 72<br>Owner: Fairview Baptist Church Of Lebanon<br>Address: Westhill Dr Ext, Lebanon, TN<br>Acreage: 5.0<br>APN: 068-019.04<br><a href="https://landportal.com/?property=Zmlwcz00NzE4OSZsbF91dWlkPTEyNTExMTYzMCZhcG49MDY4LTAxOS4wNA==">&#128279; View on LandPortal</a>]]></description><Point><coordinates>-86.32776334565418,36.194115726204394,0</coordinates></Point></Placemark>
    <Placemark><name>Adamo Curtis Victor, Adamo Dolores M</name><styleUrl>#tier1</styleUrl><description><![CDATA[<b>Tier 1</b> | Score: 72<br>Owner: Adamo Curtis Victor, Adamo Dolores M<br>Address: Walnut Grove Rd, Lebanon, TN<br>Acreage: 3.0<br>APN: 103-031.00<br><a href="https://landportal.com/?property=Zmlwcz00NzE4OSZsbF91dWlkPTEyNTE0MDQyNyZhcG49MTAzLTAzMS4wMA==">&#128279; View on LandPortal</a>]]></description><Point><coordinates>-86.30467861654452,36.150567194361855,0</coordinates></Point></Placemark>
    <Placemark><name>City Of Mt Juliet</name><styleUrl>#tier1</styleUrl><description><![CDATA[<b>Tier 1</b> | Score: 72<br>Owner: City Of Mt Juliet<br>Address: Golden Bear Gtwy, Mount Juliet, TN<br>Acreage: 11.88<br>APN: 054-105.04<br><a href="https://landportal.com/?property=Zmlwcz00NzE4OSZsbF91dWlkPTEyNTExNTU0MSZhcG49MDU0LTEwNS4wNA==">&#128279; View on LandPortal</a>]]></description><Point><coordinates>-86.49632423734599,36.21831422563355,0</coordinates></Point></Placemark>
    <Placemark><name>Palmer Johnnie, Grant Georgetta</name><styleUrl>#tier1</styleUrl><description><![CDATA[<b>Tier 1</b> | Score: 72<br>Owner: Palmer Johnnie, Grant Georgetta<br>Address: Yelton Rd, Lebanon, TN<br>Acreage: 3.0<br>APN: 014-011.01<br><a href="https://landportal.com/?property=Zmlwcz00NzE4OSZsbF91dWlkPTEyNTExNDg2MyZhcG49MDE0LTAxMS4wMQ==">&#128279; View on LandPortal</a>]]></description><Point><coordinates>-86.4251721652925,36.306910225312386,0</coordinates></Point></Placemark>
    <Placemark><name>Stotser Don, Stotser Anita</name><styleUrl>#tier1</styleUrl><description><![CDATA[<b>Tier 1</b> | Score: 72<br>Owner: Stotser Don, Stotser Anita<br>Address: Lebanon Rd, Mount Juliet, TN<br>Acreage: 3.0<br>APN: 054-099.00<br><a href="https://landportal.com/?property=Zmlwcz00NzE4OSZsbF91dWlkPTEyNTExNTQ3OCZhcG49MDU0LTA5OS4wMA==">&#128279; View on LandPortal</a>]]></description><Point><coordinates>-86.49358211859888,36.23138967995627,0</coordinates></Point></Placemark>
    <Placemark><name>Live Oaks Developments Llc</name><styleUrl>#tier1</styleUrl><description><![CDATA[<b>Tier 1</b> | Score: 72<br>Owner: Live Oaks Developments Llc<br>Address: Hartmann Dr, Lebanon, TN<br>Acreage: 5.01<br>APN: 045-035.09<br><a href="https://landportal.com/?property=Zmlwcz00NzE4OSZsbF91dWlkPTE3MDI5Njk5MiZhcG49MDQ1LTAzNS4wOQ==">&#128279; View on LandPortal</a>]]></description><Point><coordinates>-86.29390316617504,36.23875102183435,0</coordinates></Point></Placemark>
    <Placemark><name>Glazer Melanie Morris, Cosby C</name><styleUrl>#tier1</styleUrl><description><![CDATA[<b>Tier 1</b> | Score: 72<br>Owner: Glazer Melanie Morris, Cosby C<br>Address: Murfreesboro Rd, Lebanon, TN<br>Acreage: 2.61<br>APN: 081-037.00<br><a href="https://landportal.com/?property=Zmlwcz00NzE4OSZsbF91dWlkPTEyNTEzMzYyNSZhcG49MDgxLTAzNy4wMA==">&#128279; View on LandPortal</a>]]></description><Point><coordinates>-86.29551150165744,36.18690246382605,0</coordinates></Point></Placemark>
    <Placemark><name>Saulsbury Baptist Church Inc</name><styleUrl>#tier1</styleUrl><description><![CDATA[<b>Tier 1</b> | Score: 72<br>Owner: Saulsbury Baptist Church Inc<br>Address: W Saulsbury Rd, Lebanon, TN<br>Acreage: 5.01<br>APN: 085-043.05<br><a href="https://landportal.com/?property=Zmlwcz00NzE4OSZsbF91dWlkPTEyNTEyMjIwOSZhcG49MDg1LTA0My4wNQ==">&#128279; View on LandPortal</a>]]></description><Point><coordinates>-86.12311829527178,36.17165395858055,0</coordinates></Point></Placemark>
    <Placemark><name>Compassionate Hands Inc</name><styleUrl>#tier1</styleUrl><description><![CDATA[<b>Tier 1</b> | Score: 72<br>Owner: Compassionate Hands Inc<br>Address: N College St, Lebanon, TN<br>Acreage: 56.0<br>APN: 068D-H-007.01<br><a href="https://landportal.com/?property=Zmlwcz00NzE4OSZsbF91dWlkPTEyNTE0ODYyMyZhcG49MDY4RC1ILTAwNy4wMQ==">&#128279; View on LandPortal</a>]]></description><Point><coordinates>-86.28965441389559,36.21018975673902,0</coordinates></Point></Placemark>
    <Placemark><name>Huggins James, Huggins Margaret</name><styleUrl>#tier1</styleUrl><description><![CDATA[<b>Tier 1</b> | Score: 72<br>Owner: Huggins James, Huggins Margaret<br>Address: Top Rd, Alexandria, TN<br>Acreage: 4.1<br>APN: 167-012.00<br><a href="https://landportal.com/?property=Zmlwcz00NzE4OSZsbF91dWlkPTEyNTEzNTYzNiZhcG49MTY3LTAxMi4wMA==">&#128279; View on LandPortal</a>]]></description><Point><coordinates>-86.04527188645383,36.003603666029534,0</coordinates></Point></Placemark>
    <Placemark><name>Adamo Curtis Victor, Adamo Dolores M</name><styleUrl>#tier1</styleUrl><description><![CDATA[<b>Tier 1</b> | Score: 72<br>Owner: Adamo Curtis Victor, Adamo Dolores M<br>Address: Walnut Grove Rd, Lebanon, TN<br>Acreage: 3.0<br>APN: 103-033.00<br><a href="https://landportal.com/?property=Zmlwcz00NzE4OSZsbF91dWlkPTEyNTE0MDQzNCZhcG49MTAzLTAzMy4wMA==">&#128279; View on LandPortal</a>]]></description><Point><coordinates>-86.30332716416618,36.150489188620114,0</coordinates></Point></Placemark>
    <Placemark><name>Horse Thief Hollow Ranches Ltd</name><styleUrl>#tier1</styleUrl><description><![CDATA[<b>Tier 1</b> | Score: 72<br>Owner: Horse Thief Hollow Ranches Ltd<br>Address: Rock Springs Rd, Watertown, TN<br>Acreage: 119.0<br>APN: 148-040.01<br><a href="https://landportal.com/?property=Zmlwcz00NzE4OSZsbF91dWlkPTEyNTE1MTY0MyZhcG49MTQ4LTA0MC4wMQ==">&#128279; View on LandPortal</a>]]></description><Point><coordinates>-86.08848942603561,36.053809193696466,0</coordinates></Point></Placemark>
    <Placemark><name>Gbp Strategic Realty Partners Llc</name><styleUrl>#tier1</styleUrl><description><![CDATA[<b>Tier 1</b> | Score: 72<br>Owner: Gbp Strategic Realty Partners Llc<br>Address: Golden Bear Gtwy, Lebanon, TN<br>Acreage: 9.89<br>APN: 078-010.14<br><a href="https://landportal.com/?property=Zmlwcz00NzE4OSZsbF91dWlkPTE3MDMwMDIwNSZhcG49MDc4LTAxMC4xNA==">&#128279; View on LandPortal</a>]]></description><Point><coordinates>-86.46705377677637,36.1865493082784,0</coordinates></Point></Placemark>
    <Placemark><name>Edmondson Paula J Rucker</name><styleUrl>#tier1</styleUrl><description><![CDATA[<b>Tier 1</b> | Score: 72<br>Owner: Edmondson Paula J Rucker<br>Address: 816 Pebble Cove Rd # 830, Lebanon, TN<br>Acreage: 2.69<br>APN: 024H-B-013.00<br><a href="https://landportal.com/?property=Zmlwcz00NzE4OSZsbF91dWlkPTEyNTEwNzI0MCZhcG49MDI0SC1CLTAxMy4wMA==">&#128279; View on LandPortal</a>]]></description><Point><coordinates>-86.32952489687719,36.29474834109797,0</coordinates></Point></Placemark>
    <Placemark><name>Stroud Joan</name><styleUrl>#tier1</styleUrl><description><![CDATA[<b>Tier 1</b> | Score: 72<br>Owner: Stroud Joan<br>Address: Greenvale Rd, Lebanon, TN<br>Acreage: 199.0<br>APN: 164-004.00<br><a href="https://landportal.com/?property=Zmlwcz00NzE4OSZsbF91dWlkPTE3Mzg0MDA2NiZhcG49MTY0LTAwNC4wMA==">&#128279; View on LandPortal</a>]]></description><Point><coordinates>-86.17729251168147,36.006409262942874,0</coordinates></Point></Placemark>
    <Placemark><name>1 Tist Holdings Llc</name><styleUrl>#tier1</styleUrl><description><![CDATA[<b>Tier 1</b> | Score: 72<br>Owner: 1 Tist Holdings Llc<br>Address: W Division St, Mount Juliet, TN<br>Acreage: 7.67<br>APN: 073-018.03<br><a href="https://landportal.com/?property=Zmlwcz00NzE4OSZsbF91dWlkPTEyNTE1MTU2MCZhcG49MDczLTAxOC4wMw==">&#128279; View on LandPortal</a>]]></description><Point><coordinates>-86.53391834433305,36.2045845588498,0</coordinates></Point></Placemark>
    <Placemark><name>Tennessee State Of Cedars Of Lebanon</name><styleUrl>#tier1</styleUrl><description><![CDATA[<b>Tier 1</b> | Score: 72<br>Owner: Tennessee State Of Cedars Of Lebanon<br>Address: Simmons Bluff Rd, Lebanon, TN<br>Acreage: 10.5<br>APN: 157-036.00<br><a href="https://landportal.com/?property=Zmlwcz00NzE4OSZsbF91dWlkPTEyNTE0NTU4OSZhcG49MTU3LTAzNi4wMA==">&#128279; View on LandPortal</a>]]></description><Point><coordinates>-86.3548794463007,36.02659218196545,0</coordinates></Point></Placemark>
    <Placemark><name>Bryant Wayne C</name><styleUrl>#tier1</styleUrl><description><![CDATA[<b>Tier 1</b> | Score: 72<br>Owner: Bryant Wayne C<br>Address: Logue Rd, Mount Juliet, TN<br>Acreage: 2.07<br>APN: 099-056.08<br><a href="https://landportal.com/?property=Zmlwcz00NzE4OSZsbF91dWlkPTEyNTE0Njk5OCZhcG49MDk5LTA1Ni4wOA==">&#128279; View on LandPortal</a>]]></description><Point><coordinates>-86.48052117249867,36.13945968972642,0</coordinates></Point></Placemark>
    <Placemark><name>Doug Myhand Construction Llc</name><styleUrl>#tier1</styleUrl><description><![CDATA[<b>Tier 1</b> | Score: 72<br>Owner: Doug Myhand Construction Llc<br>Address: 9606 Coles Ferry Park, Mount Juliet, TN<br>Acreage: 5.22<br>APN: 026-029.17<br><a href="https://landportal.com/?property=Zmlwcz00NzE4OSZsbF91dWlkPTE2MTQzODcxMCZhcG49MDI2LTAyOS4xNw==">&#128279; View on LandPortal</a>]]></description><Point><coordinates>-86.40028969301054,36.29703917964235,0</coordinates></Point></Placemark>
    <Placemark><name>Del Webb @ Lake Providence Community Association</name><styleUrl>#tier1</styleUrl><description><![CDATA[<b>Tier 1</b> | Score: 72<br>Owner: Del Webb @ Lake Providence Community Association<br>Address: 1100 Del Web Blvd, Mount Juliet, TN<br>Acreage: 11.41<br>APN: 095-001.15<br><a href="https://landportal.com/?property=Zmlwcz00NzE4OSZsbF91dWlkPTEyNTEzNTgyMiZhcG49MDk1LTAwMS4xNQ==">&#128279; View on LandPortal</a>]]></description><Point><coordinates>-86.47166973330371,36.162403604961966,0</coordinates></Point></Placemark>
    <Placemark><name>Tiger Michael, Tiger Judy</name><styleUrl>#tier1</styleUrl><description><![CDATA[<b>Tier 1</b> | Score: 72<br>Owner: Tiger Michael, Tiger Judy<br>Address: Posey Hill Rd, Mount Juliet, TN<br>Acreage: 3.47<br>APN: 100-023.02<br><a href="https://landportal.com/?property=Zmlwcz00NzE4OSZsbF91dWlkPTEyNTE1NTkyNyZhcG49MTAwLTAyMy4wMg==">&#128279; View on LandPortal</a>]]></description><Point><coordinates>-86.43261908201593,36.14634029117724,0</coordinates></Point></Placemark>
    <Placemark><name>Ehr Properties Llc</name><styleUrl>#tier1</styleUrl><description><![CDATA[<b>Tier 1</b> | Score: 72<br>Owner: Ehr Properties Llc<br>Address: C P Stewart Blvd, Mount Juliet, TN<br>Acreage: 18.56<br>APN: 027E-B-044.00<br><a href="https://landportal.com/?property=Zmlwcz00NzE4OSZsbF91dWlkPTE2Nzk1OTA1NSZhcG49MDI3RS1CLTA0NC4wMA==">&#128279; View on LandPortal</a>]]></description><Point><coordinates>-86.43077862266182,36.2954314883313,0</coordinates></Point></Placemark>
    <Placemark><name>Tiger Michael, Tiger Judy</name><styleUrl>#tier1</styleUrl><description><![CDATA[<b>Tier 1</b> | Score: 72<br>Owner: Tiger Michael, Tiger Judy<br>Address: Posey Hill Rd, Mount Juliet, TN<br>Acreage: 3.19<br>APN: 100-023.01<br><a href="https://landportal.com/?property=Zmlwcz00NzE4OSZsbF91dWlkPTEyNTE1NTkyNiZhcG49MTAwLTAyMy4wMQ==">&#128279; View on LandPortal</a>]]></description><Point><coordinates>-86.4329394872782,36.14579791267747,0</coordinates></Point></Placemark>
    <Placemark><name>Park 840 East Owners Association Inc</name><styleUrl>#tier1</styleUrl><description><![CDATA[<b>Tier 1</b> | Score: 72<br>Owner: Park 840 East Owners Association Inc<br>Address: Hixson Blvd, Denver, TN<br>Acreage: 9.13<br>APN: 116-011.10<br><a href="https://landportal.com/?property=Zmlwcz00NzE4OSZsbF91dWlkPTE2Mzc1NTUwOCZhcG49MTE2LTAxMS4xMA==">&#128279; View on LandPortal</a>]]></description><Point><coordinates>-86.40371051811843,36.12284363836247,0</coordinates></Point></Placemark>
    <Placemark><name>Callis Thomas W, Callis Robert L</name><styleUrl>#tier1</styleUrl><description><![CDATA[<b>Tier 1</b> | Score: 72<br>Owner: Callis Thomas W, Callis Robert L<br>Address: Rocky Valley Rd, Lebanon, TN<br>Acreage: 159.0<br>APN: 103-035.02<br><a href="https://landportal.com/?property=Zmlwcz00NzE4OSZsbF91dWlkPTEyNTE0MDQ0MiZhcG49MTAzLTAzNS4wMg==">&#128279; View on LandPortal</a>]]></description><Point><coordinates>-86.30447748428438,36.14381442594046,0</coordinates></Point></Placemark>
    <Placemark><name>Evans Farms Ltd</name><styleUrl>#tier1</styleUrl><description><![CDATA[<b>Tier 1</b> | Score: 72<br>Owner: Evans Farms Ltd<br>Address: Oak Grove Rd, Boca Raton, TN<br>Acreage: 7.03<br>APN: 102-002.03<br><a href="https://landportal.com/?property=Zmlwcz00NzE4OSZsbF91dWlkPTEyNTEyOTAwMiZhcG49MTAyLTAwMi4wMw==">&#128279; View on LandPortal</a>]]></description><Point><coordinates>-86.37261354939233,36.148933487164875,0</coordinates></Point></Placemark>
    <Placemark><name>Freedom Properties Llc</name><styleUrl>#tier1</styleUrl><description><![CDATA[<b>Tier 1</b> | Score: 72<br>Owner: Freedom Properties Llc<br>Address: 1919 N Mt Juliet Rd, Franklin, TN<br>Acreage: 7.41<br>APN: 072P-A-014.01<br><a href="https://landportal.com/?property=Zmlwcz00NzE4OSZsbF91dWlkPTE1Njg2OTQ1MCZhcG49MDcyUC1BLTAxNC4wMQ==">&#128279; View on LandPortal</a>]]></description><Point><coordinates>-86.51944997217944,36.19461246008335,0</coordinates></Point></Placemark>
    <Placemark><name>Wilson County Regional, Solid Waste</name><styleUrl>#tier1</styleUrl><description><![CDATA[<b>Tier 1</b> | Score: 72<br>Owner: Wilson County Regional, Solid Waste<br>Address: Cedar Grove Rd, Lebanon, TN<br>Acreage: 26.7<br>APN: 036-029.00<br><a href="https://landportal.com/?property=Zmlwcz00NzE4OSZsbF91dWlkPTEyNTExNTM4MCZhcG49MDM2LTAyOS4wMA==">&#128279; View on LandPortal</a>]]></description><Point><coordinates>-86.30952543825637,36.26590269770689,0</coordinates></Point></Placemark>
    <Placemark><name>Badru Inc</name><styleUrl>#tier1</styleUrl><description><![CDATA[<b>Tier 1</b> | Score: 72<br>Owner: Badru Inc<br>Address: 712 N Cumberland St, Lebanon, TN<br>Acreage: 100.0<br>APN: 058M-F-011.00<br><a href="https://landportal.com/?property=Zmlwcz00NzE4OSZsbF91dWlkPTEyNTEwOTg1NiZhcG49MDU4TS1GLTAxMS4wMA==">&#128279; View on LandPortal</a>]]></description><Point><coordinates>-86.290194629291,36.21736535126229,0</coordinates></Point></Placemark>
    <Placemark><name>Evans Farms Ltd</name><styleUrl>#tier1</styleUrl><description><![CDATA[<b>Tier 1</b> | Score: 72<br>Owner: Evans Farms Ltd<br>Address: Oak Grove Rd, Gallatin, TN<br>Acreage: 84.05<br>APN: 102-002.04<br><a href="https://landportal.com/?property=Zmlwcz00NzE4OSZsbF91dWlkPTE1NTQ5NTkyMiZhcG49MTAyLTAwMi4wNA==">&#128279; View on LandPortal</a>]]></description><Point><coordinates>-86.37398261443256,36.14929290196379,0</coordinates></Point></Placemark>
    <Placemark><name>Bublitz Joseph M</name><styleUrl>#tier1</styleUrl><description><![CDATA[<b>Tier 1</b> | Score: 72<br>Owner: Bublitz Joseph M<br>Address: Underwood Rd, Mount Juliet, TN<br>Acreage: 4.13<br>APN: 121-012.06<br><a href="https://landportal.com/?property=Zmlwcz00NzE4OSZsbF91dWlkPTEyNTE1MDU4MSZhcG49MTIxLTAxMi4wNg==">&#128279; View on LandPortal</a>]]></description><Point><coordinates>-86.44022879292982,36.08553498128302,0</coordinates></Point></Placemark>
    <Placemark><name>Wilson County Regional, Solid Waste</name><styleUrl>#tier1</styleUrl><description><![CDATA[<b>Tier 1</b> | Score: 72<br>Owner: Wilson County Regional, Solid Waste<br>Address: Old Hunters Point Park, Lebanon, TN<br>Acreage: 40.19<br>APN: 036-018.02<br><a href="https://landportal.com/?property=Zmlwcz00NzE4OSZsbF91dWlkPTEyNTExNTI1NyZhcG49MDM2LTAxOC4wMg==">&#128279; View on LandPortal</a>]]></description><Point><coordinates>-86.2899399157568,36.264330547437105,0</coordinates></Point></Placemark>
    <Placemark><name>Southwest Wilson Llc</name><styleUrl>#tier1</styleUrl><description><![CDATA[<b>Tier 1</b> | Score: 72<br>Owner: Southwest Wilson Llc<br>Address: Mires Rd, Mount Juliet, TN<br>Acreage: 169.0<br>APN: 120-023.02<br><a href="https://landportal.com/?property=Zmlwcz00NzE4OSZsbF91dWlkPTEyNTE1MDExOSZhcG49MTIwLTAyMy4wMg==">&#128279; View on LandPortal</a>]]></description><Point><coordinates>-86.48134085697757,36.09051024406152,0</coordinates></Point></Placemark>
    <Placemark><name>Shook Steve</name><styleUrl>#tier1</styleUrl><description><![CDATA[<b>Tier 1</b> | Score: 72<br>Owner: Shook Steve<br>Address: 8760 Old Murfreesboro Rd W, Lebanon, TN<br>Acreage: 5.11<br>APN: 142-029.10<br><a href="https://landportal.com/?property=Zmlwcz00NzE4OSZsbF91dWlkPTEyNTEzNDQ3OSZhcG49MTQyLTAyOS4xMA==">&#128279; View on LandPortal</a>]]></description><Point><coordinates>-86.3552799547943,36.043452038186416,0</coordinates></Point></Placemark>
    <Placemark><name>Wilson County Regional, Solid Waste</name><styleUrl>#tier1</styleUrl><description><![CDATA[<b>Tier 1</b> | Score: 72<br>Owner: Wilson County Regional, Solid Waste<br>Address: Old Hunters Point Park, Lebanon, TN<br>Acreage: 33.6<br>APN: 036-018.01<br><a href="https://landportal.com/?property=Zmlwcz00NzE4OSZsbF91dWlkPTEyNTExNTI1NSZhcG49MDM2LTAxOC4wMQ==">&#128279; View on LandPortal</a>]]></description><Point><coordinates>-86.29390322452849,36.26455193794453,0</coordinates></Point></Placemark>
    <Placemark><name>Triple Crown Investments Llc</name><styleUrl>#tier1</styleUrl><description><![CDATA[<b>Tier 1</b> | Score: 72<br>Owner: Triple Crown Investments Llc<br>Address: 464 Pleasant Grove Rd, Mount Juliet, TN<br>Acreage: 114.21<br>APN: 076-043.03<br><a href="https://landportal.com/?property=Zmlwcz00NzE4OSZsbF91dWlkPTEyNTExOTIwNCZhcG49MDc2LTA0My4wMw==">&#128279; View on LandPortal</a>]]></description><Point><coordinates>-86.53497595477887,36.18367079272344,0</coordinates></Point></Placemark>
    <Placemark><name>Radford Richard M, Radford Bonnie L</name><styleUrl>#tier1</styleUrl><description><![CDATA[<b>Tier 1</b> | Score: 70<br>Owner: Radford Richard M, Radford Bonnie L<br>Address: Lone Oak Rd, Mount Juliet, TN<br>Acreage: 3.55<br>APN: 121-016.00<br><a href="https://landportal.com/?property=Zmlwcz00NzE4OSZsbF91dWlkPTEyNTE1MDU4NSZhcG49MTIxLTAxNi4wMA==">&#128279; View on LandPortal</a>]]></description><Point><coordinates>-86.43430232544543,36.086858459089,0</coordinates></Point></Placemark>
    <Placemark><name>Mcfarland Robert H, Mcfarland Harper</name><styleUrl>#tier1</styleUrl><description><![CDATA[<b>Tier 1</b> | Score: 70<br>Owner: Mcfarland Robert H, Mcfarland Harper<br>Address: Tyrone Rd, Mount Juliet, TN<br>Acreage: 2.1<br>APN: 050-086.00<br><a href="https://landportal.com/?property=Zmlwcz00NzE4OSZsbF91dWlkPTEyNTEwNDI4NCZhcG49MDUwLTA4Ni4wMA==">&#128279; View on LandPortal</a>]]></description><Point><coordinates>-86.53140559743204,36.24870588856409,0</coordinates></Point></Placemark>
    <Placemark><name>Hale David N</name><styleUrl>#tier1</styleUrl><description><![CDATA[<b>Tier 1</b> | Score: 70<br>Owner: Hale David N<br>Address: Sparta Park, Watertown, TN<br>Acreage: 4.8<br>APN: 127-058.00<br><a href="https://landportal.com/?property=Zmlwcz00NzE4OSZsbF91dWlkPTEyNTE0MzUxMiZhcG49MTI3LTA1OC4wMA==">&#128279; View on LandPortal</a>]]></description><Point><coordinates>-86.14758125332449,36.09724211329169,0</coordinates></Point></Placemark>
    <Placemark><name>Nabors Brian C</name><styleUrl>#tier1</styleUrl><description><![CDATA[<b>Tier 1</b> | Score: 70<br>Owner: Nabors Brian C<br>Address: Lone Oak Rd, Mount Juliet, TN<br>Acreage: 2.0<br>APN: 121-014.00<br><a href="https://landportal.com/?property=Zmlwcz00NzE4OSZsbF91dWlkPTEyNTE1MDU4MyZhcG49MTIxLTAxNC4wMA==">&#128279; View on LandPortal</a>]]></description><Point><coordinates>-86.43403795181075,36.087667349678185,0</coordinates></Point></Placemark>
    <Placemark><name>Patel Maulik, Patel Kinnari</name><styleUrl>#tier1</styleUrl><description><![CDATA[<b>Tier 1</b> | Score: 70<br>Owner: Patel Maulik, Patel Kinnari<br>Address: Murfreesboro Rd, Lebanon, TN<br>Acreage: 4.39<br>APN: 123-044.03<br><a href="https://landportal.com/?property=Zmlwcz00NzE4OSZsbF91dWlkPTEyNTE1MTU1OCZhcG49MTIzLTA0NC4wMw==">&#128279; View on LandPortal</a>]]></description><Point><coordinates>-86.33562980197635,36.09005350805165,0</coordinates></Point></Placemark>
    <Placemark><name>Cobblestone Landing Hoa</name><styleUrl>#tier1</styleUrl><description><![CDATA[<b>Tier 1</b> | Score: 70<br>Owner: Cobblestone Landing Hoa<br>Address: Cobblestone Lndg, Mount Juliet, TN<br>Acreage: 14.4<br>APN: 075E-A-016.00<br><a href="https://landportal.com/?property=Zmlwcz00NzE4OSZsbF91dWlkPTEyNTExODI0OSZhcG49MDc1RS1BLTAxNi4wMA==">&#128279; View on LandPortal</a>]]></description><Point><coordinates>-86.568920058895,36.18719215380068,0</coordinates></Point></Placemark>
    <Placemark><name>Prewitt Russell, Prewitt Alison</name><styleUrl>#tier1</styleUrl><description><![CDATA[<b>Tier 1</b> | Score: 70<br>Owner: Prewitt Russell, Prewitt Alison<br>Address: Burris Rd, Mount Juliet, TN<br>Acreage: 2.291<br>APN: 011O-A-005.00<br><a href="https://landportal.com/?property=Zmlwcz00NzE4OSZsbF91dWlkPTEyNTEwNTMwMiZhcG49MDExTy1BLTAwNS4wMA==">&#128279; View on LandPortal</a>]]></description><Point><coordinates>-86.54958236689743,36.305533592669576,0</coordinates></Point></Placemark>
    <Placemark><name>Oliphant H Arold G H H, Oliphant Patricia</name><styleUrl>#tier1</styleUrl><description><![CDATA[<b>Tier 1</b> | Score: 70<br>Owner: Oliphant H Arold G H H, Oliphant Patricia<br>Address: 1114 Woodridge Pl, Mount Juliet, TN<br>Acreage: 4.4<br>APN: 072-002.01<br><a href="https://landportal.com/?property=Zmlwcz00NzE4OSZsbF91dWlkPTEyNTEyNjkxNiZhcG49MDcyLTAwMi4wMQ==">&#128279; View on LandPortal</a>]]></description><Point><coordinates>-86.50769013845549,36.214411407678455,0</coordinates></Point></Placemark>
    <Placemark><name>Margaret Rebecca Thomas Revocable Trust, Thomas</name><styleUrl>#tier1</styleUrl><description><![CDATA[<b>Tier 1</b> | Score: 70<br>Owner: Margaret Rebecca Thomas Revocable Trust, Thomas<br>Address: Franklin Rd, Lebanon, TN<br>Acreage: 4.8<br>APN: 093-009.04<br><a href="https://landportal.com/?property=Zmlwcz00NzE4OSZsbF91dWlkPTEyNTE0NTU3NSZhcG49MDkzLTAwOS4wNA==">&#128279; View on LandPortal</a>]]></description><Point><coordinates>-86.35490457345782,36.17116453850808,0</coordinates></Point></Placemark>
    <Placemark><name>Rogers Eugene J</name><styleUrl>#tier1</styleUrl><description><![CDATA[<b>Tier 1</b> | Score: 70<br>Owner: Rogers Eugene J<br>Address: Nonaville Rd, Mount Juliet, TN<br>Acreage: 1.9<br>APN: 050-075.00<br><a href="https://landportal.com/?property=Zmlwcz00NzE4OSZsbF91dWlkPTEyNTExOTAxMSZhcG49MDUwLTA3NS4wMA==">&#128279; View on LandPortal</a>]]></description><Point><coordinates>-86.52833919643271,36.24930108016155,0</coordinates></Point></Placemark>
    <Placemark><name>Vanderbilt University Medical Center</name><styleUrl>#tier1</styleUrl><description><![CDATA[<b>Tier 1</b> | Score: 70<br>Owner: Vanderbilt University Medical Center<br>Address: 407 E Spring St, Lebanon, TN<br>Acreage: 130.0<br>APN: 068E-E-024.00<br><a href="https://landportal.com/?property=Zmlwcz00NzE4OSZsbF91dWlkPTEyNTEzNDA4MyZhcG49MDY4RS1FLTAyNC4wMA==">&#128279; View on LandPortal</a>]]></description><Point><coordinates>-86.28392273375485,36.204439014787624,0</coordinates></Point></Placemark>
    <Placemark><name>Huggins Bryan David, Huggins Julia</name><styleUrl>#tier1</styleUrl><description><![CDATA[<b>Tier 1</b> | Score: 70<br>Owner: Huggins Bryan David, Huggins Julia<br>Address: 2 Gilley Rd, Mount Juliet, TN<br>Acreage: 3.2<br>APN: 032-014.00<br><a href="https://landportal.com/?property=Zmlwcz00NzE4OSZsbF91dWlkPTEyNTExMjkxMiZhcG49MDMyLTAxNC4wMA==">&#128279; View on LandPortal</a>]]></description><Point><coordinates>-86.49544652716182,36.274957529768294,0</coordinates></Point></Placemark>
    <Placemark><name>Harder Willim J, Harder Dorothy</name><styleUrl>#tier1</styleUrl><description><![CDATA[<b>Tier 1</b> | Score: 70<br>Owner: Harder Willim J, Harder Dorothy<br>Address: Gwynn Rd, Lebanon, TN<br>Acreage: 4.0<br>APN: 142-045.00<br><a href="https://landportal.com/?property=Zmlwcz00NzE4OSZsbF91dWlkPTEyNTEzNDY5MiZhcG49MTQyLTA0NS4wMA==">&#128279; View on LandPortal</a>]]></description><Point><coordinates>-86.3675364244485,36.043639659172776,0</coordinates></Point></Placemark>
    <Placemark><name>Harder William J, Harder Dorothy</name><styleUrl>#tier1</styleUrl><description><![CDATA[<b>Tier 1</b> | Score: 70<br>Owner: Harder William J, Harder Dorothy<br>Address: Gwynn Rd, Lebanon, TN<br>Acreage: 4.5<br>APN: 142-044.00<br><a href="https://landportal.com/?property=Zmlwcz00NzE4OSZsbF91dWlkPTEyNTEzNDY4MCZhcG49MTQyLTA0NC4wMA==">&#128279; View on LandPortal</a>]]></description><Point><coordinates>-86.36831430220079,36.0444074827713,0</coordinates></Point></Placemark>
    <Placemark><name>Word Kristina K</name><styleUrl>#tier1</styleUrl><description><![CDATA[<b>Tier 1</b> | Score: 70<br>Owner: Word Kristina K<br>Address: Bell Rd, Watertown, TN<br>Acreage: 3.0<br>APN: 107-030.00<br><a href="https://landportal.com/?property=Zmlwcz00NzE4OSZsbF91dWlkPTEyNTE1NjMxMiZhcG49MTA3LTAzMC4wMA==">&#128279; View on LandPortal</a>]]></description><Point><coordinates>-86.1264575780938,36.13544411658286,0</coordinates></Point></Placemark>
    <Placemark><name>Campbell Brent A, Campbell Gale E</name><styleUrl>#tier1</styleUrl><description><![CDATA[<b>Tier 1</b> | Score: 70<br>Owner: Campbell Brent A, Campbell Gale E<br>Address: Park Glen Dr, Mount Juliet, TN<br>Acreage: 2.2<br>APN: 054-103.00<br><a href="https://landportal.com/?property=Zmlwcz00NzE4OSZsbF91dWlkPTEyNTExNTUyOCZhcG49MDU0LTEwMy4wMA==">&#128279; View on LandPortal</a>]]></description><Point><coordinates>-86.50238569860542,36.22878315196705,0</coordinates></Point></Placemark>
    <Placemark><name>Bass Lavar K</name><styleUrl>#tier1</styleUrl><description><![CDATA[<b>Tier 1</b> | Score: 70<br>Owner: Bass Lavar K<br>Address: Linwood Rd, Watertown, TN<br>Acreage: 3.5<br>APN: 127-034.00<br><a href="https://landportal.com/?property=Zmlwcz00NzE4OSZsbF91dWlkPTEyNTE0MzI1OSZhcG49MTI3LTAzNC4wMA==">&#128279; View on LandPortal</a>]]></description><Point><coordinates>-86.16209390846264,36.10257755774718,0</coordinates></Point></Placemark>
    <Placemark><name>Woodland Place Homeowners Association</name><styleUrl>#tier1</styleUrl><description><![CDATA[<b>Tier 1</b> | Score: 70<br>Owner: Woodland Place Homeowners Association<br>Address: Trailridge Cir, Mount Juliet, TN<br>Acreage: 31.84<br>APN: 054O-B-047.00<br><a href="https://landportal.com/?property=Zmlwcz00NzE4OSZsbF91dWlkPTEyNTEyNTMxNiZhcG49MDU0Ty1CLTA0Ny4wMA==">&#128279; View on LandPortal</a>]]></description><Point><coordinates>-86.49749376418902,36.21687681197827,0</coordinates></Point></Placemark>
    <Placemark><name>Degrange Robert L</name><styleUrl>#tier1</styleUrl><description><![CDATA[<b>Tier 1</b> | Score: 70<br>Owner: Degrange Robert L<br>Address: Maddox Rd, Mount Juliet, TN<br>Acreage: 2.6<br>APN: 140-005.00<br><a href="https://landportal.com/?property=Zmlwcz00NzE4OSZsbF91dWlkPTEyNTEzMzYwMiZhcG49MTQwLTAwNS4wMA==">&#128279; View on LandPortal</a>]]></description><Point><coordinates>-86.44183689516822,36.05866232540383,0</coordinates></Point></Placemark>
    <Placemark><name>Murphy Robert</name><styleUrl>#tier1</styleUrl><description><![CDATA[<b>Tier 1</b> | Score: 70<br>Owner: Murphy Robert<br>Address: S Mt Juliet Rd, Hermitage, TN<br>Acreage: 2.0<br>APN: 119-031.00<br><a href="https://landportal.com/?property=Zmlwcz00NzE4OSZsbF91dWlkPTEyNTE0OTY0NiZhcG49MTE5LTAzMS4wMA==">&#128279; View on LandPortal</a>]]></description><Point><coordinates>-86.52275810463647,36.11624467090053,0</coordinates></Point></Placemark>
    <Placemark><name>Smith Christopher J</name><styleUrl>#tier1</styleUrl><description><![CDATA[<b>Tier 1</b> | Score: 70<br>Owner: Smith Christopher J<br>Address: 2291 Alsup Mill Rd, Lascassas, TN<br>Acreage: 4.86<br>APN: 161-006.00<br><a href="https://landportal.com/?property=Zmlwcz00NzE4OSZsbF91dWlkPTEyNTE0NjIwNCZhcG49MTYxLTAwNi4wMA==">&#128279; View on LandPortal</a>]]></description><Point><coordinates>-86.32742050382228,36.003425473683166,0</coordinates></Point></Placemark>
    <Placemark><name>Alsup Scott, Alsup Nanci</name><styleUrl>#tier1</styleUrl><description><![CDATA[<b>Tier 1</b> | Score: 70<br>Owner: Alsup Scott, Alsup Nanci<br>Address: Comer Rd, Lascassas, TN<br>Acreage: 2.94<br>APN: 161-025.02<br><a href="https://landportal.com/?property=Zmlwcz00NzE4OSZsbF91dWlkPTEyNTE1MzE5MyZhcG49MTYxLTAyNS4wMg==">&#128279; View on LandPortal</a>]]></description><Point><coordinates>-86.32203879399935,36.00190789907526,0</coordinates></Point></Placemark>
    <Placemark><name>Mcpeak Family Real Estate, Partnership</name><styleUrl>#tier1</styleUrl><description><![CDATA[<b>Tier 1</b> | Score: 70<br>Owner: Mcpeak Family Real Estate, Partnership<br>Address: Chumley Hollow Rd, Watertown, TN<br>Acreage: 2.0<br>APN: 152-014.00<br><a href="https://landportal.com/?property=Zmlwcz00NzE4OSZsbF91dWlkPTEyNTE1MTg1MyZhcG49MTUyLTAxNC4wMA==">&#128279; View on LandPortal</a>]]></description><Point><coordinates>-86.09871073030554,36.02647112294525,0</coordinates></Point></Placemark>
    <Placemark><name>Sanders Ernest, Sanders Ann</name><styleUrl>#tier1</styleUrl><description><![CDATA[<b>Tier 1</b> | Score: 70<br>Owner: Sanders Ernest, Sanders Ann<br>Address: Riceland Rd, Lebanon, TN<br>Acreage: 2.2<br>APN: 116-094.04<br><a href="https://landportal.com/?property=Zmlwcz00NzE4OSZsbF91dWlkPTEyNTE0ODkyMyZhcG49MTE2LTA5NC4wNA==">&#128279; View on LandPortal</a>]]></description><Point><coordinates>-86.4089552344532,36.1076635913379,0</coordinates></Point></Placemark>
    <Placemark><name>Seven Springs Estates Hoa</name><styleUrl>#tier1</styleUrl><description><![CDATA[<b>Tier 1</b> | Score: 70<br>Owner: Seven Springs Estates Hoa<br>Address: 7 Springs Dr, Mount Juliet, TN<br>Acreage: 15.3<br>APN: 099E-A-046.00<br><a href="https://landportal.com/?property=Zmlwcz00NzE4OSZsbF91dWlkPTEyNTEzODg0NSZhcG49MDk5RS1BLTA0Ni4wMA==">&#128279; View on LandPortal</a>]]></description><Point><coordinates>-86.47928652632483,36.1426179766774,0</coordinates></Point></Placemark>
    <Placemark><name>Wolfe Lawrence</name><styleUrl>#tier1</styleUrl><description><![CDATA[<b>Tier 1</b> | Score: 70<br>Owner: Wolfe Lawrence<br>Address: Couchville Park, Mount Juliet, TN<br>Acreage: 2.0<br>APN: 138-056.00<br><a href="https://landportal.com/?property=Zmlwcz00NzE4OSZsbF91dWlkPTEyNTE0NDkxOCZhcG49MTM4LTA1Ni4wMA==">&#128279; View on LandPortal</a>]]></description><Point><coordinates>-86.44911539982064,36.0706981059753,0</coordinates></Point></Placemark>
    <Placemark><name>Larry Powell Builders Inc</name><styleUrl>#tier1</styleUrl><description><![CDATA[<b>Tier 1</b> | Score: 70<br>Owner: Larry Powell Builders Inc<br>Address: 1525 Sugar Flat Rd, Lebanon, TN<br>Acreage: 6.73<br>APN: 060-035.20<br><a href="https://landportal.com/?property=Zmlwcz00NzE4OSZsbF91dWlkPTE3NTQzNzkzMiZhcG49MDYwLTAzNS4yMA==">&#128279; View on LandPortal</a>]]></description><Point><coordinates>-86.19286137998259,36.2170372084577,0</coordinates></Point></Placemark>
    <Placemark><name>Spicewood Services Inc</name><styleUrl>#tier1</styleUrl><description><![CDATA[<b>Tier 1</b> | Score: 70<br>Owner: Spicewood Services Inc<br>Address: Bethlehem Rd, Lebanon, TN<br>Acreage: 166.58<br>APN: 069-075.00<br><a href="https://landportal.com/?property=Zmlwcz00NzE4OSZsbF91dWlkPTEyNTEzNTUyNCZhcG49MDY5LTA3NS4wMA==">&#128279; View on LandPortal</a>]]></description><Point><coordinates>-86.3740194601763,36.210514645110806,0</coordinates></Point></Placemark>
    <Placemark><name>Tomlinson Danny Ed</name><styleUrl>#tier1</styleUrl><description><![CDATA[<b>Tier 1</b> | Score: 70<br>Owner: Tomlinson Danny Ed<br>Address: 3116 Lebanon Rd, Lebanon, TN<br>Acreage: 2.54<br>APN: 057-111.04<br><a href="https://landportal.com/?property=Zmlwcz00NzE4OSZsbF91dWlkPTEyNTExNzU0MSZhcG49MDU3LTExMS4wNA==">&#128279; View on LandPortal</a>]]></description><Point><coordinates>-86.37555245982948,36.228392848053645,0</coordinates></Point></Placemark>
    <Placemark><name>Shah Vimlesh, Advani Nihal</name><styleUrl>#tier1</styleUrl><description><![CDATA[<b>Tier 1</b> | Score: 70<br>Owner: Shah Vimlesh, Advani Nihal<br>Address: N Mt Juliet Rd, Mount Juliet, TN<br>Acreage: 2.85<br>APN: 077-076.00<br><a href="https://landportal.com/?property=Zmlwcz00NzE4OSZsbF91dWlkPTEyNTEzMTk1OSZhcG49MDc3LTA3Ni4wMA==">&#128279; View on LandPortal</a>]]></description><Point><coordinates>-86.51183199860652,36.17471035611648,0</coordinates></Point></Placemark>
    <Placemark><name>Pardue Chris</name><styleUrl>#tier1</styleUrl><description><![CDATA[<b>Tier 1</b> | Score: 70<br>Owner: Pardue Chris<br>Address: 5224 Central Pike, Mount Juliet, TN<br>Acreage: 4.03<br>APN: 097-002.00<br><a href="https://landportal.com/?property=Zmlwcz00NzE4OSZsbF91dWlkPTEyNTE1NTcxMSZhcG49MDk3LTAwMi4wMA==">&#128279; View on LandPortal</a>]]></description><Point><coordinates>-86.56017675077749,36.169504463669966,0</coordinates></Point></Placemark>
    <Placemark><name>Theiring Calvin, Theiring Frances</name><styleUrl>#tier1</styleUrl><description><![CDATA[<b>Tier 1</b> | Score: 70<br>Owner: Theiring Calvin, Theiring Frances<br>Address: 3310 Nonaville Rd, Mount Juliet, TN<br>Acreage: 4.05<br>APN: 031-025.00<br><a href="https://landportal.com/?property=Zmlwcz00NzE4OSZsbF91dWlkPTEyNTExMDQ0MSZhcG49MDMxLTAyNS4wMA==">&#128279; View on LandPortal</a>]]></description><Point><coordinates>-86.53146412687946,36.27324051474653,0</coordinates></Point></Placemark>
    <Placemark><name>Powell Jerry, Powell Charlotte</name><styleUrl>#tier1</styleUrl><description><![CDATA[<b>Tier 1</b> | Score: 70<br>Owner: Powell Jerry, Powell Charlotte<br>Address: Callis Rd, Lebanon, TN<br>Acreage: 3.14<br>APN: 094-014.04<br><a href="https://landportal.com/?property=Zmlwcz00NzE4OSZsbF91dWlkPTEyNTE0NjQ1MSZhcG49MDk0LTAxNC4wNA==">&#128279; View on LandPortal</a>]]></description><Point><coordinates>-86.40887740730813,36.17011225560067,0</coordinates></Point></Placemark>
    <Placemark><name>Olerud Gilbert, Olerud Mavis</name><styleUrl>#tier1</styleUrl><description><![CDATA[<b>Tier 1</b> | Score: 70<br>Owner: Olerud Gilbert, Olerud Mavis<br>Address: Couchville Park, Mount Juliet, TN<br>Acreage: 4.0<br>APN: 138-057.00<br><a href="https://landportal.com/?property=Zmlwcz00NzE4OSZsbF91dWlkPTEyNTE0NDkyMCZhcG49MTM4LTA1Ny4wMA==">&#128279; View on LandPortal</a>]]></description><Point><coordinates>-86.44959049897055,36.07058517259787,0</coordinates></Point></Placemark>
    <Placemark><name>Beckwith Farms Owners Associaton Inc</name><styleUrl>#tier1</styleUrl><description><![CDATA[<b>Tier 1</b> | Score: 70<br>Owner: Beckwith Farms Owners Associaton Inc<br>Address: Eastgate Blvd, Mount Juliet, TN<br>Acreage: 5.43<br>APN: 078-007.08<br><a href="https://landportal.com/?property=Zmlwcz00NzE4OSZsbF91dWlkPTEyNTE0MjAxNSZhcG49MDc4LTAwNy4wOA==">&#128279; View on LandPortal</a>]]></description><Point><coordinates>-86.46492882933578,36.18288818745761,0</coordinates></Point></Placemark>
    <Placemark><name>Thurman Roger L</name><styleUrl>#tier1</styleUrl><description><![CDATA[<b>Tier 1</b> | Score: 70<br>Owner: Thurman Roger L<br>Address: Quarry Rd, Mount Juliet, TN<br>Acreage: 2.37<br>APN: 071-074.03<br><a href="https://landportal.com/?property=Zmlwcz00NzE4OSZsbF91dWlkPTEyNTEyNjM0OSZhcG49MDcxLTA3NC4wMw==">&#128279; View on LandPortal</a>]]></description><Point><coordinates>-86.43949307853514,36.19745823838517,0</coordinates></Point></Placemark>
    <Placemark><name>Cynthia Louise Meyer Revocable Living Trust</name><styleUrl>#tier1</styleUrl><description><![CDATA[<b>Tier 1</b> | Score: 70<br>Owner: Cynthia Louise Meyer Revocable Living Trust<br>Address: Burton Pl, Mount Juliet, TN<br>Acreage: 2.91<br>APN: 076-045.03<br><a href="https://landportal.com/?property=Zmlwcz00NzE4OSZsbF91dWlkPTEyNTExOTIzMSZhcG49MDc2LTA0NS4wMw==">&#128279; View on LandPortal</a>]]></description><Point><coordinates>-86.5404624095452,36.17337154604789,0</coordinates></Point></Placemark>
    <Placemark><name>Kheshti Mehdy</name><styleUrl>#tier1</styleUrl><description><![CDATA[<b>Tier 1</b> | Score: 70<br>Owner: Kheshti Mehdy<br>Address: Quarry Rd, Mount Juliet, TN<br>Acreage: 4.78<br>APN: 071-074.08<br><a href="https://landportal.com/?property=Zmlwcz00NzE4OSZsbF91dWlkPTEyNTEyNjM3NyZhcG49MDcxLTA3NC4wOA==">&#128279; View on LandPortal</a>]]></description><Point><coordinates>-86.43915804956453,36.19944032280492,0</coordinates></Point></Placemark>
    <Placemark><name>Allsbrooks Monty Joe</name><styleUrl>#tier1</styleUrl><description><![CDATA[<b>Tier 1</b> | Score: 70<br>Owner: Allsbrooks Monty Joe<br>Address: 1099 Gladeville Rd, Mount Juliet, TN<br>Acreage: 2.62<br>APN: 116-027.03<br><a href="https://landportal.com/?property=Zmlwcz00NzE4OSZsbF91dWlkPTE1OTYxNTcyOSZhcG49MTE2LTAyNy4wMw==">&#128279; View on LandPortal</a>]]></description><Point><coordinates>-86.41446956307064,36.118421961942175,0</coordinates></Point></Placemark>
    <Placemark><name>Alley-cassetty Companies Inc</name><styleUrl>#tier1</styleUrl><description><![CDATA[<b>Tier 1</b> | Score: 70<br>Owner: Alley-cassetty Companies Inc<br>Address: 524 Hartmann Dr, Lebanon, TN<br>Acreage: 8.08<br>APN: 058-028.07<br><a href="https://landportal.com/?property=Zmlwcz00NzE4OSZsbF91dWlkPTE2Nzk1OTU3NiZhcG49MDU4LTAyOC4wNw==">&#128279; View on LandPortal</a>]]></description><Point><coordinates>-86.31832895996133,36.23527805963312,0</coordinates></Point></Placemark>
    <Placemark><name>Pham Tan V, Bui Dung</name><styleUrl>#tier1</styleUrl><description><![CDATA[<b>Tier 1</b> | Score: 70<br>Owner: Pham Tan V, Bui Dung<br>Address: Couchville Park, Mount Juliet, TN<br>Acreage: 2.0<br>APN: 138-047.00<br><a href="https://landportal.com/?property=Zmlwcz00NzE4OSZsbF91dWlkPTEyNTE0NDkwNCZhcG49MTM4LTA0Ny4wMA==">&#128279; View on LandPortal</a>]]></description><Point><coordinates>-86.44548750330262,36.07122382324274,0</coordinates></Point></Placemark>
    <Placemark><name>Cypress Batson Family Llc</name><styleUrl>#tier1</styleUrl><description><![CDATA[<b>Tier 1</b> | Score: 70<br>Owner: Cypress Batson Family Llc<br>Address: Lebanon Rd, Mount Juliet, TN<br>Acreage: 4.94<br>APN: 053-040.00<br><a href="https://landportal.com/?property=Zmlwcz00NzE4OSZsbF91dWlkPTEyNTEwNjQyMSZhcG49MDUzLTA0MC4wMA==">&#128279; View on LandPortal</a>]]></description><Point><coordinates>-86.54257605679392,36.226431566933904,0</coordinates></Point></Placemark>
    <Placemark><name>Knowles Thomas E, Murphy Faye</name><styleUrl>#tier1</styleUrl><description><![CDATA[<b>Tier 1</b> | Score: 70<br>Owner: Knowles Thomas E, Murphy Faye<br>Address: 9303 Stewarts Ferry Pike, Lebanon, TN<br>Acreage: 4.0<br>APN: 116-064.01<br><a href="https://landportal.com/?property=Zmlwcz00NzE4OSZsbF91dWlkPTEyNTE0ODcyMyZhcG49MTE2LTA2NC4wMQ==">&#128279; View on LandPortal</a>]]></description><Point><coordinates>-86.41070044242215,36.11339639170605,0</coordinates></Point></Placemark>
    <Placemark><name>Hardin Hal D</name><styleUrl>#tier1</styleUrl><description><![CDATA[<b>Tier 1</b> | Score: 70<br>Owner: Hardin Hal D<br>Address: Statesville Rd, Auburntown, TN<br>Acreage: 1.5<br>APN: 169-041.04<br><a href="https://landportal.com/?property=Zmlwcz00NzE4OSZsbF91dWlkPTEyNTEzNjE1MiZhcG49MTY5LTA0MS4wNA==">&#128279; View on LandPortal</a>]]></description><Point><coordinates>-86.07438929489291,35.984051026598905,0</coordinates></Point></Placemark>
    <Placemark><name>Pham Tan V, Bui Dung</name><styleUrl>#tier1</styleUrl><description><![CDATA[<b>Tier 1</b> | Score: 70<br>Owner: Pham Tan V, Bui Dung<br>Address: Couchville Park, Mount Juliet, TN<br>Acreage: 3.06<br>APN: 138-046.00<br><a href="https://landportal.com/?property=Zmlwcz00NzE4OSZsbF91dWlkPTEyNTE0NDkwMiZhcG49MTM4LTA0Ni4wMA==">&#128279; View on LandPortal</a>]]></description><Point><coordinates>-86.44509324871456,36.0711690901168,0</coordinates></Point></Placemark>
    <Placemark><name>Trusty Fred, Trusty Peggy</name><styleUrl>#tier1</styleUrl><description><![CDATA[<b>Tier 1</b> | Score: 70<br>Owner: Trusty Fred, Trusty Peggy<br>Address: 5832 Cainsville Rd, Lebanon, TN<br>Acreage: 2.99<br>APN: 104-070.01<br><a href="https://landportal.com/?property=Zmlwcz00NzE4OSZsbF91dWlkPTEyNTE0ODAzOCZhcG49MTA0LTA3MC4wMQ==">&#128279; View on LandPortal</a>]]></description><Point><coordinates>-86.24934618357526,36.12958856633033,0</coordinates></Point></Placemark>
    <Placemark><name>Pham Tan V, Bui Dung</name><styleUrl>#tier1</styleUrl><description><![CDATA[<b>Tier 1</b> | Score: 70<br>Owner: Pham Tan V, Bui Dung<br>Address: Couchville Park, Mount Juliet, TN<br>Acreage: 2.0<br>APN: 138-048.00<br><a href="https://landportal.com/?property=Zmlwcz00NzE4OSZsbF91dWlkPTEyNTE0NDkwNiZhcG49MTM4LTA0OC4wMA==">&#128279; View on LandPortal</a>]]></description><Point><coordinates>-86.44583397891962,36.07115307561425,0</coordinates></Point></Placemark>