<?xml version="1.0" encoding="UTF-8"?>
<kml xmlns="http://www.opengis.net/kml/2.2">
  <Document>
    <name>FLC - Wilson TN - Nate (Tier 2)</name>
    <Style id="tier1"><IconStyle><color>ff0000ff</color><Icon><href>http://maps.google.com/mapfiles/kml/paddle/wht-blank.png</href></Icon></IconStyle></Style>
    <Style id="tier2"><IconStyle><color>ff00ffff</color><Icon><href>http://maps.google.com/mapfiles/kml/paddle/wht-blank.png</href></Icon></IconStyle></Style>
    <Style id="tier3"><IconStyle><color>ff00ff00</color><Icon><href>http://maps.google.com/mapfiles/kml/paddle/wht-blank.png</href></Icon></IconStyle></Style>
    <Placemark><name>City Of Lebanon</name><styleUrl>#tier2</styleUrl><description><![CDATA[<b>Tier 2</b> | Score: 67<br>Owner: City Of Lebanon<br>Address: Murfreesboro Rd, Lebanon, TN<br>Acreage: 37.67<br>APN: 092-053.10<br><a href="https://landportal.com/?property=Zmlwcz00NzE4OSZsbF91dWlkPTE2Mzc1NjM2OSZhcG49MDkyLTA1My4xMA==">&#128279; View on LandPortal</a>]]></description><Point><coordinates>-86.3039868893766,36.16133229779996,0</coordinates></Point></Placemark>
    <Placemark><name>R &amp; C Construction Co Inc</name><styleUrl>#tier2</styleUrl><description><![CDATA[<b>Tier 2</b> | Score: 67<br>Owner: R &amp; C Construction Co Inc<br>Address: Cairo Bend Rd, Mount Juliet, TN<br>Acreage: 5.2<br>APN: 008-004.07<br><a href="https://landportal.com/?property=Zmlwcz00NzE4OSZsbF91dWlkPTE1OTYxNTM0MiZhcG49MDA4LTAwNC4wNw==">&#128279; View on LandPortal</a>]]></description><Point><coordinates>-86.36084814201149,36.34178686788531,0</coordinates></Point></Placemark>
    <Placemark><name>Banks Edwin Roger, Banks Betty Robinson</name><styleUrl>#tier2</styleUrl><description><![CDATA[<b>Tier 2</b> | Score: 67<br>Owner: Banks Edwin Roger, Banks Betty Robinson<br>Address: Coon Branch Rd, Madison, TN<br>Acreage: 138.0<br>APN: 148-024.01<br><a href="https://landportal.com/?property=Zmlwcz00NzE4OSZsbF91dWlkPTE1OTYxNTAxMCZhcG49MTQ4LTAyNC4wMQ==">&#128279; View on LandPortal</a>]]></description><Point><coordinates>-86.05666639302271,36.04734191436482,0</coordinates></Point></Placemark>
    <Placemark><name>Exit Properties Gp</name><styleUrl>#tier2</styleUrl><description><![CDATA[<b>Tier 2</b> | Score: 67<br>Owner: Exit Properties Gp<br>Address: Lebanon Rd, Mount Juliet, TN<br>Acreage: 8.5<br>APN: 055-084.00<br><a href="https://landportal.com/?property=Zmlwcz00NzE4OSZsbF91dWlkPTEyNTE0MTA2NCZhcG49MDU1LTA4NC4wMA==">&#128279; View on LandPortal</a>]]></description><Point><coordinates>-86.45676274248595,36.23416738784033,0</coordinates></Point></Placemark>
    <Placemark><name>Shirley Cannon Cole Revocable Trust, Cole</name><styleUrl>#tier2</styleUrl><description><![CDATA[<b>Tier 2</b> | Score: 67<br>Owner: Shirley Cannon Cole Revocable Trust, Cole<br>Address: 148 Bluegrass Pkwy, Lebanon, TN<br>Acreage: 3.6<br>APN: 070I-B-024.00<br><a href="https://landportal.com/?property=Zmlwcz00NzE4OSZsbF91dWlkPTEyNTEzNzY4NiZhcG49MDcwSS1CLTAyNC4wMA==">&#128279; View on LandPortal</a>]]></description><Point><coordinates>-86.43345133378746,36.20336814778099,0</coordinates></Point></Placemark>
    <Placemark><name>Bailey Edward, Bailey Ursula</name><styleUrl>#tier2</styleUrl><description><![CDATA[<b>Tier 2</b> | Score: 67<br>Owner: Bailey Edward, Bailey Ursula<br>Address: Hickory Ridge Rd, Lebanon, TN<br>Acreage: 2.1<br>APN: 079-028.00<br><a href="https://landportal.com/?property=Zmlwcz00NzE4OSZsbF91dWlkPTEyNTE1NDA3NSZhcG49MDc5LTAyOC4wMA==">&#128279; View on LandPortal</a>]]></description><Point><coordinates>-86.41245306014149,36.193881555955365,0</coordinates></Point></Placemark>
    <Placemark><name>R &amp; C Construction Co Inc</name><styleUrl>#tier2</styleUrl><description><![CDATA[<b>Tier 2</b> | Score: 67<br>Owner: R &amp; C Construction Co Inc<br>Address: Cairo Bend Rd, Mount Juliet, TN<br>Acreage: 5.1<br>APN: 008-004.08<br><a href="https://landportal.com/?property=Zmlwcz00NzE4OSZsbF91dWlkPTE1OTYxNTM0MyZhcG49MDA4LTAwNC4wOA==">&#128279; View on LandPortal</a>]]></description><Point><coordinates>-86.36066037509357,36.342213285328015,0</coordinates></Point></Placemark>
    <Placemark><name>Shipper Jonathan Clint</name><styleUrl>#tier2</styleUrl><description><![CDATA[<b>Tier 2</b> | Score: 67<br>Owner: Shipper Jonathan Clint<br>Address: Statesville Rd, Watertown, TN<br>Acreage: 8.53<br>APN: 165-014.00<br><a href="https://landportal.com/?property=Zmlwcz00NzE4OSZsbF91dWlkPTEyNTEzNTEyOSZhcG49MTY1LTAxNC4wMA==">&#128279; View on LandPortal</a>]]></description><Point><coordinates>-86.11730166124082,36.017508795366425,0</coordinates></Point></Placemark>
    <Placemark><name>Neuble Monument Funeral Home Llc</name><styleUrl>#tier2</styleUrl><description><![CDATA[<b>Tier 2</b> | Score: 67<br>Owner: Neuble Monument Funeral Home Llc<br>Address: W Old Murfreesboro Rd, Lebanon, TN<br>Acreage: 8.8<br>APN: 092-005.00<br><a href="https://landportal.com/?property=Zmlwcz00NzE4OSZsbF91dWlkPTEyNTE0Mzc0MiZhcG49MDkyLTAwNS4wMA==">&#128279; View on LandPortal</a>]]></description><Point><coordinates>-86.31292244148275,36.17060707692946,0</coordinates></Point></Placemark>
    <Placemark><name>Flatt Homer C, Flatt Judith</name><styleUrl>#tier2</styleUrl><description><![CDATA[<b>Tier 2</b> | Score: 67<br>Owner: Flatt Homer C, Flatt Judith<br>Address: 115 Bluegrass Pkwy, Lebanon, TN<br>Acreage: 1.5<br>APN: 070I-A-001.00<br><a href="https://landportal.com/?property=Zmlwcz00NzE4OSZsbF91dWlkPTEyNTEzNzUxOCZhcG49MDcwSS1BLTAwMS4wMA==">&#128279; View on LandPortal</a>]]></description><Point><coordinates>-86.42242140374259,36.20388315196186,0</coordinates></Point></Placemark>
    <Placemark><name>Bellvue &amp; Belcher Townhomes Llc</name><styleUrl>#tier2</styleUrl><description><![CDATA[<b>Tier 2</b> | Score: 67<br>Owner: Bellvue &amp; Belcher Townhomes Llc<br>Address: Belcher Dr, Lebanon, TN<br>Acreage: 5.32<br>APN: 081-115.00<br><a href="https://landportal.com/?property=Zmlwcz00NzE4OSZsbF91dWlkPTE2Mzc1NTYxNiZhcG49MDgxLTExNS4wMA==">&#128279; View on LandPortal</a>]]></description><Point><coordinates>-86.30936847635063,36.18038271684536,0</coordinates></Point></Placemark>
    <Placemark><name>Granstaff Janice</name><styleUrl>#tier2</styleUrl><description><![CDATA[<b>Tier 2</b> | Score: 67<br>Owner: Granstaff Janice<br>Address: 2575 Rocky Valley Rd, Lebanon, TN<br>Acreage: 2.3<br>APN: 114-013.00<br><a href="https://landportal.com/?property=Zmlwcz00NzE4OSZsbF91dWlkPTEyNTEyOTg2MiZhcG49MTE0LTAxMy4wMA==">&#128279; View on LandPortal</a>]]></description><Point><coordinates>-86.30509323039861,36.12463573233883,0</coordinates></Point></Placemark>
    <Placemark><name>Guffey Daryl E, Guffey Alisa H</name><styleUrl>#tier2</styleUrl><description><![CDATA[<b>Tier 2</b> | Score: 67<br>Owner: Guffey Daryl E, Guffey Alisa H<br>Address: 505 Noel Dr, Mount Juliet, TN<br>Acreage: 2.88<br>APN: 031-003.03<br><a href="https://landportal.com/?property=Zmlwcz00NzE4OSZsbF91dWlkPTEyNTExMDI2NCZhcG49MDMxLTAwMy4wMw==">&#128279; View on LandPortal</a>]]></description><Point><coordinates>-86.54876507738696,36.2792633821158,0</coordinates></Point></Placemark>
    <Placemark><name>Exit Properties, General Properties</name><styleUrl>#tier2</styleUrl><description><![CDATA[<b>Tier 2</b> | Score: 67<br>Owner: Exit Properties, General Properties<br>Address: Rutland Dr, Mount Juliet, TN<br>Acreage: 7.88<br>APN: 078-010.05<br><a href="https://landportal.com/?property=Zmlwcz00NzE4OSZsbF91dWlkPTEyNTE0MjA4MSZhcG49MDc4LTAxMC4wNQ==">&#128279; View on LandPortal</a>]]></description><Point><coordinates>-86.46634970230355,36.18996976861957,0</coordinates></Point></Placemark>
    <Placemark><name>Oakvale Homeowners Association Inc</name><styleUrl>#tier2</styleUrl><description><![CDATA[<b>Tier 2</b> | Score: 67<br>Owner: Oakvale Homeowners Association Inc<br>Address: Suggs Pass, Nashville, TN<br>Acreage: 36.6<br>APN: 117P-B-020.00<br><a href="https://landportal.com/?property=Zmlwcz00NzE4OSZsbF91dWlkPTE2Nzk2MDkzMCZhcG49MTE3UC1CLTAyMC4wMA==">&#128279; View on LandPortal</a>]]></description><Point><coordinates>-86.46735265559346,36.10386318653755,0</coordinates></Point></Placemark>
    <Placemark><name>The Long Rifle Partnership</name><styleUrl>#tier2</styleUrl><description><![CDATA[<b>Tier 2</b> | Score: 67<br>Owner: The Long Rifle Partnership<br>Address: 903 S Hartmann Dr, Lebanon, TN<br>Acreage: 5.27<br>APN: 081-002.12<br><a href="https://landportal.com/?property=Zmlwcz00NzE4OSZsbF91dWlkPTE2MTQzODYxMyZhcG49MDgxLTAwMi4xMg==">&#128279; View on LandPortal</a>]]></description><Point><coordinates>-86.32570949716623,36.190709416150554,0</coordinates></Point></Placemark>
    <Placemark><name>City Of Mt Juliet</name><styleUrl>#tier2</styleUrl><description><![CDATA[<b>Tier 2</b> | Score: 67<br>Owner: City Of Mt Juliet<br>Address: N Mt Juliet Rd, Mount Juliet, TN<br>Acreage: 12.76<br>APN: 077-028.04<br><a href="https://landportal.com/?property=Zmlwcz00NzE4OSZsbF91dWlkPTEyNTExOTY2MyZhcG49MDc3LTAyOC4wNA==">&#128279; View on LandPortal</a>]]></description><Point><coordinates>-86.51393818067812,36.18949507224429,0</coordinates></Point></Placemark>
    <Placemark><name>Ward James W</name><styleUrl>#tier2</styleUrl><description><![CDATA[<b>Tier 2</b> | Score: 67<br>Owner: Ward James W<br>Address: 7000 Vanderbilt Rd, Old Hickory, TN<br>Acreage: 2.4<br>APN: 031P-A-012.00<br><a href="https://landportal.com/?property=Zmlwcz00NzE4OSZsbF91dWlkPTEyNTExMjA1MiZhcG49MDMxUC1BLTAxMi4wMA==">&#128279; View on LandPortal</a>]]></description><Point><coordinates>-86.5664625911644,36.261592588432194,0</coordinates></Point></Placemark>
    <Placemark><name>Jackson Hills Residential Association Inc</name><styleUrl>#tier2</styleUrl><description><![CDATA[<b>Tier 2</b> | Score: 67<br>Owner: Jackson Hills Residential Association Inc<br>Address: Ranch Rd, Nashville, TN<br>Acreage: 18.56<br>APN: 072K-A-001.00<br><a href="https://landportal.com/?property=Zmlwcz00NzE4OSZsbF91dWlkPTE2Nzk2MDE3NCZhcG49MDcySy1BLTAwMS4wMA==">&#128279; View on LandPortal</a>]]></description><Point><coordinates>-86.48930196219897,36.20399758782093,0</coordinates></Point></Placemark>
    <Placemark><name>Pfeiffer Tennessee Community Property Trust, Pfeiffer</name><styleUrl>#tier2</styleUrl><description><![CDATA[<b>Tier 2</b> | Score: 67<br>Owner: Pfeiffer Tennessee Community Property Trust, Pfeiffer<br>Address: 2755 Oregon Rd, Lascassas, TN<br>Acreage: 2.0<br>APN: 178-008.00<br><a href="https://landportal.com/?property=Zmlwcz00NzE4OSZsbF91dWlkPTEyNTE1Nzk5NSZhcG49MTc4LTAwOC4wMA==">&#128279; View on LandPortal</a>]]></description><Point><coordinates>-86.20868608790104,35.96741762482564,0</coordinates></Point></Placemark>
    <Placemark><name>Clemmons Gayle, Mcclain Gayle</name><styleUrl>#tier2</styleUrl><description><![CDATA[<b>Tier 2</b> | Score: 67<br>Owner: Clemmons Gayle, Mcclain Gayle<br>Address: 1555 E Division St, Mount Juliet, TN<br>Acreage: 2.25<br>APN: 077-007.02<br><a href="https://landportal.com/?property=Zmlwcz00NzE4OSZsbF91dWlkPTEyNTExOTUwMSZhcG49MDc3LTAwNy4wMg==">&#128279; View on LandPortal</a>]]></description><Point><coordinates>-86.49360038407863,36.191737647957794,0</coordinates></Point></Placemark>
    <Placemark><name>Edwards Marshall, Edwards Mildred A</name><styleUrl>#tier2</styleUrl><description><![CDATA[<b>Tier 2</b> | Score: 67<br>Owner: Edwards Marshall, Edwards Mildred A<br>Address: 12020 Cainsville Rd, Watertown, TN<br>Acreage: 2.0<br>APN: 144-033.00<br><a href="https://landportal.com/?property=Zmlwcz00NzE4OSZsbF91dWlkPTEyNTE1NzUwNiZhcG49MTQ0LTAzMy4wMA==">&#128279; View on LandPortal</a>]]></description><Point><coordinates>-86.24020662586634,36.045496493430576,0</coordinates></Point></Placemark>
    <Placemark><name>Drhorton Inc</name><styleUrl>#tier2</styleUrl><description><![CDATA[<b>Tier 2</b> | Score: 67<br>Owner: Drhorton Inc<br>Address: Hunters Village Dr, Nolensville, TN<br>Acreage: 14.35<br>APN: 059A-A-001.00<br><a href="https://landportal.com/?property=Zmlwcz00NzE4OSZsbF91dWlkPTE2Nzk1OTcyMSZhcG49MDU5QS1BLTAwMS4wMA==">&#128279; View on LandPortal</a>]]></description><Point><coordinates>-86.28313159195108,36.23032297171028,0</coordinates></Point></Placemark>
    <Placemark><name>City Of Lebanon Tennessee</name><styleUrl>#tier2</styleUrl><description><![CDATA[<b>Tier 2</b> | Score: 67<br>Owner: City Of Lebanon Tennessee<br>Address: Cairo Bend Rd, Lebanon, TN<br>Acreage: 16.39<br>APN: 047-010.01<br><a href="https://landportal.com/?property=Zmlwcz00NzE4OSZsbF91dWlkPTE2Nzk1OTE1MSZhcG49MDQ3LTAxMC4wMQ==">&#128279; View on LandPortal</a>]]></description><Point><coordinates>-86.40486434269391,36.24062244940965,0</coordinates></Point></Placemark>
    <Placemark><name>Johnson Marshall</name><styleUrl>#tier2</styleUrl><description><![CDATA[<b>Tier 2</b> | Score: 67<br>Owner: Johnson Marshall<br>Address: Old Rome Park, Lebanon, TN<br>Acreage: 4.5<br>APN: 041-002.00<br><a href="https://landportal.com/?property=Zmlwcz00NzE4OSZsbF91dWlkPTEyNTEyOTQ1OSZhcG49MDQxLTAwMi4wMA==">&#128279; View on LandPortal</a>]]></description><Point><coordinates>-86.14198237939357,36.25427569897235,0</coordinates></Point></Placemark>
    <Placemark><name>State Of Tennessee</name><styleUrl>#tier2</styleUrl><description><![CDATA[<b>Tier 2</b> | Score: 67<br>Owner: State Of Tennessee<br>Address: Poplar Hill Rd, Lebanon, TN<br>Acreage: 69.02<br>APN: 091-009.00<br><a href="https://landportal.com/?property=Zmlwcz00NzE4OSZsbF91dWlkPTEyNTE1NDY4MCZhcG49MDkxLTAwOS4wMA==">&#128279; View on LandPortal</a>]]></description><Point><coordinates>-86.238446558092,36.167915279166145,0</coordinates></Point></Placemark>
    <Placemark><name>Smith Victor</name><styleUrl>#tier2</styleUrl><description><![CDATA[<b>Tier 2</b> | Score: 67<br>Owner: Smith Victor<br>Address: Central Park, Mount Juliet, TN<br>Acreage: 2.0<br>APN: 100-027.05<br><a href="https://landportal.com/?property=Zmlwcz00NzE4OSZsbF91dWlkPTEyNTE1NTkzNyZhcG49MTAwLTAyNy4wNQ==">&#128279; View on LandPortal</a>]]></description><Point><coordinates>-86.43000702586207,36.140911578226024,0</coordinates></Point></Placemark>
    <Placemark><name>Cumberland University</name><styleUrl>#tier2</styleUrl><description><![CDATA[<b>Tier 2</b> | Score: 67<br>Owner: Cumberland University<br>Address: Carver Ln, Lebanon, TN<br>Acreage: 6.1<br>APN: 057-070.04<br><a href="https://landportal.com/?property=Zmlwcz00NzE4OSZsbF91dWlkPTE3MzAwOTMyMyZhcG49MDU3LTA3MC4wNA==">&#128279; View on LandPortal</a>]]></description><Point><coordinates>-86.33515407518644,36.222116599483655,0</coordinates></Point></Placemark>
    <Placemark><name>Lane Lois, Lane Ernestine H</name><styleUrl>#tier2</styleUrl><description><![CDATA[<b>Tier 2</b> | Score: 67<br>Owner: Lane Lois, Lane Ernestine H<br>Address: 10165 Stewarts Ferry Pike, Lebanon, TN<br>Acreage: 4.77<br>APN: 115-062.00<br><a href="https://landportal.com/?property=Zmlwcz00NzE4OSZsbF91dWlkPTEyNTE0MTIyMiZhcG49MTE1LTA2Mi4wMA==">&#128279; View on LandPortal</a>]]></description><Point><coordinates>-86.36597061458343,36.10780011259487,0</coordinates></Point></Placemark>
    <Placemark><name>Gray Eugene, Gray Claudette</name><styleUrl>#tier2</styleUrl><description><![CDATA[<b>Tier 2</b> | Score: 67<br>Owner: Gray Eugene, Gray Claudette<br>Address: 2145 Berea Church Rd, Lebanon, TN<br>Acreage: 2.4<br>APN: 025-032.02<br><a href="https://landportal.com/?property=Zmlwcz00NzE4OSZsbF91dWlkPTEyNTEwNzQ2MiZhcG49MDI1LTAzMi4wMg==">&#128279; View on LandPortal</a>]]></description><Point><coordinates>-86.3619072601843,36.29175608409552,0</coordinates></Point></Placemark>
    <Placemark><name>Mohlere Michael H</name><styleUrl>#tier2</styleUrl><description><![CDATA[<b>Tier 2</b> | Score: 67<br>Owner: Mohlere Michael H<br>Address: 108 Countrywood Dr, Lebanon, TN<br>Acreage: 3.03<br>APN: 056D-A-018.00<br><a href="https://landportal.com/?property=Zmlwcz00NzE4OSZsbF91dWlkPTEyNTEyNzAyMCZhcG49MDU2RC1BLTAxOC4wMA==">&#128279; View on LandPortal</a>]]></description><Point><coordinates>-86.38384970002349,36.23358960688029,0</coordinates></Point></Placemark>
    <Placemark><name>First Baptist Church</name><styleUrl>#tier2</styleUrl><description><![CDATA[<b>Tier 2</b> | Score: 67<br>Owner: First Baptist Church<br>Address: E Market St, Lebanon, TN<br>Acreage: 66.0<br>APN: 068E-C-004.01<br><a href="https://landportal.com/?property=Zmlwcz00NzE4OSZsbF91dWlkPTEyNTEzMzg2MiZhcG49MDY4RS1DLTAwNC4wMQ==">&#128279; View on LandPortal</a>]]></description><Point><coordinates>-86.2886705835683,36.2085276842826,0</coordinates></Point></Placemark>
    <Placemark><name>Powell Thomas E, Powell Onia J</name><styleUrl>#tier2</styleUrl><description><![CDATA[<b>Tier 2</b> | Score: 67<br>Owner: Powell Thomas E, Powell Onia J<br>Address: Interstate Dr, Lebanon, TN<br>Acreage: 2.6<br>APN: 081-116.00<br><a href="https://landportal.com/?property=Zmlwcz00NzE4OSZsbF91dWlkPTEyNTE0MjgzNSZhcG49MDgxLTExNi4wMA==">&#128279; View on LandPortal</a>]]></description><Point><coordinates>-86.32285601773765,36.18173635212269,0</coordinates></Point></Placemark>
    <Placemark><name>Salts Lawrence Earl, Salts Debra Dean</name><styleUrl>#tier2</styleUrl><description><![CDATA[<b>Tier 2</b> | Score: 67<br>Owner: Salts Lawrence Earl, Salts Debra Dean<br>Address: 615 Bettis Rd, Lebanon, TN<br>Acreage: 2.45<br>APN: 094-031.02<br><a href="https://landportal.com/?property=Zmlwcz00NzE4OSZsbF91dWlkPTEyNTE0NjU5NiZhcG49MDk0LTAzMS4wMg==">&#128279; View on LandPortal</a>]]></description><Point><coordinates>-86.40241522930579,36.15113490621344,0</coordinates></Point></Placemark>
    <Placemark><name>Mengelberg John Eston</name><styleUrl>#tier2</styleUrl><description><![CDATA[<b>Tier 2</b> | Score: 67<br>Owner: Mengelberg John Eston<br>Address: Lebanon Rd, Lebanon, TN<br>Acreage: 2.5<br>APN: 056-028.00<br><a href="https://landportal.com/?property=Zmlwcz00NzE4OSZsbF91dWlkPTEyNTEwNzg0NyZhcG49MDU2LTAyOC4wMA==">&#128279; View on LandPortal</a>]]></description><Point><coordinates>-86.38098052266515,36.23169606939359,0</coordinates></Point></Placemark>
    <Placemark><name>Holmes Gordon, Holmes Rebecca</name><styleUrl>#tier2</styleUrl><description><![CDATA[<b>Tier 2</b> | Score: 67<br>Owner: Holmes Gordon, Holmes Rebecca<br>Address: 2439 Leeville Rd Apt A, Mount Juliet, TN<br>Acreage: 3.33<br>APN: 094-004.03<br><a href="https://landportal.com/?property=Zmlwcz00NzE4OSZsbF91dWlkPTEyNTE0NjM2NyZhcG49MDk0LTAwNC4wMw==">&#128279; View on LandPortal</a>]]></description><Point><coordinates>-86.42085088103767,36.16087570301494,0</coordinates></Point></Placemark>
    <Placemark><name>Hardy Ronald G, Hardy Misty G</name><styleUrl>#tier2</styleUrl><description><![CDATA[<b>Tier 2</b> | Score: 67<br>Owner: Hardy Ronald G, Hardy Misty G<br>Address: Oak St, Watertown, TN<br>Acreage: 2.23<br>APN: 128-005.01<br><a href="https://landportal.com/?property=Zmlwcz00NzE4OSZsbF91dWlkPTEyNTEzMjA4NiZhcG49MTI4LTAwNS4wMQ==">&#128279; View on LandPortal</a>]]></description><Point><coordinates>-86.13957152313863,36.10588712949388,0</coordinates></Point></Placemark>
    <Placemark><name>Phillips Randy S</name><styleUrl>#tier2</styleUrl><description><![CDATA[<b>Tier 2</b> | Score: 67<br>Owner: Phillips Randy S<br>Address: 2593 Beasleys Bend Rd, Lebanon, TN<br>Acreage: 4.81<br>APN: 018-033.04<br><a href="https://landportal.com/?property=Zmlwcz00NzE4OSZsbF91dWlkPTEyNTExNzIyMCZhcG49MDE4LTAzMy4wNA==">&#128279; View on LandPortal</a>]]></description><Point><coordinates>-86.21163994178066,36.310513440743875,0</coordinates></Point></Placemark>
    <Placemark><name>Elam Robert O</name><styleUrl>#tier2</styleUrl><description><![CDATA[<b>Tier 2</b> | Score: 67<br>Owner: Elam Robert O<br>Address: 537 Lakeshore Dr, Old Hickory, TN<br>Acreage: 3.065<br>APN: 053A-A-013.00<br><a href="https://landportal.com/?property=Zmlwcz00NzE4OSZsbF91dWlkPTEyNTEzNzIxMyZhcG49MDUzQS1BLTAxMy4wMA==">&#128279; View on LandPortal</a>]]></description><Point><coordinates>-86.56628122714221,36.23535525488373,0</coordinates></Point></Placemark>
    <Placemark><name>Partridge Kenneth L, Partridge Samuel A</name><styleUrl>#tier2</styleUrl><description><![CDATA[<b>Tier 2</b> | Score: 67<br>Owner: Partridge Kenneth L, Partridge Samuel A<br>Address: 960 Fellowship Rd, Mount Juliet, TN<br>Acreage: 3.9<br>APN: 121-050.01<br><a href="https://landportal.com/?property=Zmlwcz00NzE4OSZsbF91dWlkPTEyNTE1Njg3OSZhcG49MTIxLTA1MC4wMQ==">&#128279; View on LandPortal</a>]]></description><Point><coordinates>-86.46445408520307,36.09134807763901,0</coordinates></Point></Placemark>
    <Placemark><name>Tomlinson Edward R, Tomlinson Lois Jean</name><styleUrl>#tier2</styleUrl><description><![CDATA[<b>Tier 2</b> | Score: 67<br>Owner: Tomlinson Edward R, Tomlinson Lois Jean<br>Address: Beckwith Rd, Mount Juliet, TN<br>Acreage: 2.48<br>APN: 071-004.07<br><a href="https://landportal.com/?property=Zmlwcz00NzE4OSZsbF91dWlkPTEyNTEzODA3NyZhcG49MDcxLTAwNC4wNw==">&#128279; View on LandPortal</a>]]></description><Point><coordinates>-86.46414076385037,36.20859035139323,0</coordinates></Point></Placemark>
    <Placemark><name>Petty Louis James, Petty Mildred</name><styleUrl>#tier2</styleUrl><description><![CDATA[<b>Tier 2</b> | Score: 67<br>Owner: Petty Louis James, Petty Mildred<br>Address: 2075 N Commerce Rd, Lebanon, TN<br>Acreage: 3.3<br>APN: 064-019.00<br><a href="https://landportal.com/?property=Zmlwcz00NzE4OSZsbF91dWlkPTEyNTEyMTEyNyZhcG49MDY0LTAxOS4wMA==">&#128279; View on LandPortal</a>]]></description><Point><coordinates>-86.11537361001703,36.19345307820112,0</coordinates></Point></Placemark>
    <Placemark><name>Duffie Kelvis C, Duffie Yoruba</name><styleUrl>#tier2</styleUrl><description><![CDATA[<b>Tier 2</b> | Score: 67<br>Owner: Duffie Kelvis C, Duffie Yoruba<br>Address: 1026 Benton Harbor Blvd, Mount Juliet, TN<br>Acreage: 0.96<br>APN: 028K-A-029.00<br><a href="https://landportal.com/?property=Zmlwcz00NzE4OSZsbF91dWlkPTEyNTEyMzE5NiZhcG49MDI4Sy1BLTAyOS4wMA==">&#128279; View on LandPortal</a>]]></description><Point><coordinates>-86.49269900201449,36.28984744951737,0</coordinates></Point></Placemark>
    <Placemark><name>Gerulis Corey, Felmlee Sara</name><styleUrl>#tier2</styleUrl><description><![CDATA[<b>Tier 2</b> | Score: 67<br>Owner: Gerulis Corey, Felmlee Sara<br>Address: 446 Quarry Rd, Mount Juliet, TN<br>Acreage: 2.01<br>APN: 055-054.09<br><a href="https://landportal.com/?property=Zmlwcz00NzE4OSZsbF91dWlkPTEyNTE0MDY4MyZhcG49MDU1LTA1NC4wOQ==">&#128279; View on LandPortal</a>]]></description><Point><coordinates>-86.43340687041201,36.22660653597616,0</coordinates></Point></Placemark>
    <Placemark><name>Morris Charles J, Morris Teresa A</name><styleUrl>#tier2</styleUrl><description><![CDATA[<b>Tier 2</b> | Score: 67<br>Owner: Morris Charles J, Morris Teresa A<br>Address: 720 Kelly Dr, Lebanon, TN<br>Acreage: 3.0<br>APN: 010M-A-047.00<br><a href="https://landportal.com/?property=Zmlwcz00NzE4OSZsbF91dWlkPTEyNTEwNTAxNyZhcG49MDEwTS1BLTA0Ny4wMA==">&#128279; View on LandPortal</a>]]></description><Point><coordinates>-86.44170471806723,36.33181877614605,0</coordinates></Point></Placemark>
    <Placemark><name>Wilson County Board Of Education</name><styleUrl>#tier2</styleUrl><description><![CDATA[<b>Tier 2</b> | Score: 67<br>Owner: Wilson County Board Of Education<br>Address: 14045 Central Park, Lebanon, TN<br>Acreage: 20.04<br>APN: 101-045.02<br><a href="https://landportal.com/?property=Zmlwcz00NzE4OSZsbF91dWlkPTE3NTQzNjA0NSZhcG49MTAxLTA0NS4wMg==">&#128279; View on LandPortal</a>]]></description><Point><coordinates>-86.42379082317751,36.137973251798584,0</coordinates></Point></Placemark>
    <Placemark><name>Brown Eltis N, Brown Steven</name><styleUrl>#tier2</styleUrl><description><![CDATA[<b>Tier 2</b> | Score: 67<br>Owner: Brown Eltis N, Brown Steven<br>Address: 8143 Hickory Ridge Rd, Mount Juliet, TN<br>Acreage: 4.4<br>APN: 078-033.00<br><a href="https://landportal.com/?property=Zmlwcz00NzE4OSZsbF91dWlkPTEyNTE0MjM2MCZhcG49MDc4LTAzMy4wMA==">&#128279; View on LandPortal</a>]]></description><Point><coordinates>-86.43615391973846,36.191626094777305,0</coordinates></Point></Placemark>
    <Placemark><name>Presley Kurt L, Presley Shanda L</name><styleUrl>#tier2</styleUrl><description><![CDATA[<b>Tier 2</b> | Score: 67<br>Owner: Presley Kurt L, Presley Shanda L<br>Address: 70 Dunaway Rd, Lebanon, TN<br>Acreage: 4.79<br>APN: 102-035.37<br><a href="https://landportal.com/?property=Zmlwcz00NzE4OSZsbF91dWlkPTEyNTE0MDE2NiZhcG49MTAyLTAzNS4zNw==">&#128279; View on LandPortal</a>]]></description><Point><coordinates>-86.35887865204396,36.128843921233646,0</coordinates></Point></Placemark>
    <Placemark><name>Cain Bruce N, Cain Sharon K</name><styleUrl>#tier2</styleUrl><description><![CDATA[<b>Tier 2</b> | Score: 67<br>Owner: Cain Bruce N, Cain Sharon K<br>Address: 312 Oak Point Ter, Mount Juliet, TN<br>Acreage: 2.21<br>APN: 099M-B-001.00<br><a href="https://landportal.com/?property=Zmlwcz00NzE4OSZsbF91dWlkPTEyNTE0OTAzMiZhcG49MDk5TS1CLTAwMS4wMA==">&#128279; View on LandPortal</a>]]></description><Point><coordinates>-86.47621655167407,36.13093545919063,0</coordinates></Point></Placemark>
    <Placemark><name>Everett Charles Shannon</name><styleUrl>#tier2</styleUrl><description><![CDATA[<b>Tier 2</b> | Score: 67<br>Owner: Everett Charles Shannon<br>Address: 79 Nonaville Rd, Mount Juliet, TN<br>Acreage: 2.2<br>APN: 053-050.03<br><a href="https://landportal.com/?property=Zmlwcz00NzE4OSZsbF91dWlkPTEyNTExMzM5OSZhcG49MDUzLTA1MC4wMw==">&#128279; View on LandPortal</a>]]></description><Point><coordinates>-86.53102543202036,36.23368395078437,0</coordinates></Point></Placemark>
    <Placemark><name>Vantrease Willie Lee</name><styleUrl>#tier2</styleUrl><description><![CDATA[<b>Tier 2</b> | Score: 67<br>Owner: Vantrease Willie Lee<br>Address: Eastland Ln, Lebanon, TN<br>Acreage: 2.92<br>APN: 082-140.01<br><a href="https://landportal.com/?property=Zmlwcz00NzE4OSZsbF91dWlkPTEyNTE0NTExNiZhcG49MDgyLTE0MC4wMQ==">&#128279; View on LandPortal</a>]]></description><Point><coordinates>-86.26913577314193,36.181446048753266,0</coordinates></Point></Placemark>
    <Placemark><name>Spence Bill G, Spence Elaine H</name><styleUrl>#tier2</styleUrl><description><![CDATA[<b>Tier 2</b> | Score: 67<br>Owner: Spence Bill G, Spence Elaine H<br>Address: 558 Glen Echo Dr, Old Hickory, TN<br>Acreage: 1.98<br>APN: 053B-B-032.00<br><a href="https://landportal.com/?property=Zmlwcz00NzE4OSZsbF91dWlkPTEyNTEzNzkyMiZhcG49MDUzQi1CLTAzMi4wMA==">&#128279; View on LandPortal</a>]]></description><Point><coordinates>-86.55391253178037,36.23304556546696,0</coordinates></Point></Placemark>
    <Placemark><name>Dohotariu Jon, Dohotariu Angelica</name><styleUrl>#tier2</styleUrl><description><![CDATA[<b>Tier 2</b> | Score: 67<br>Owner: Dohotariu Jon, Dohotariu Angelica<br>Address: Searcy Rd, Mount Juliet, TN<br>Acreage: 3.0<br>APN: 053-060.01<br><a href="https://landportal.com/?property=Zmlwcz00NzE4OSZsbF91dWlkPTEyNTExMzQ2MyZhcG49MDUzLTA2MC4wMQ==">&#128279; View on LandPortal</a>]]></description><Point><coordinates>-86.52754862073425,36.236265437559936,0</coordinates></Point></Placemark>
    <Placemark><name>Businda Kenneth, Businda Diane L</name><styleUrl>#tier2</styleUrl><description><![CDATA[<b>Tier 2</b> | Score: 67<br>Owner: Businda Kenneth, Businda Diane L<br>Address: 1244 Corinth Rd, Mount Juliet, TN<br>Acreage: 3.23<br>APN: 120-004.01<br><a href="https://landportal.com/?property=Zmlwcz00NzE4OSZsbF91dWlkPTEyNTE0OTk3MSZhcG49MTIwLTAwNC4wMQ==">&#128279; View on LandPortal</a>]]></description><Point><coordinates>-86.49803547108098,36.10243836472507,0</coordinates></Point></Placemark>
    <Placemark><name>Dickens Community Property Trust, Dickens</name><styleUrl>#tier2</styleUrl><description><![CDATA[<b>Tier 2</b> | Score: 67<br>Owner: Dickens Community Property Trust, Dickens<br>Address: 3840 Cainsville Rd, Lebanon, TN<br>Acreage: 4.63<br>APN: 091-076.05<br><a href="https://landportal.com/?property=Zmlwcz00NzE4OSZsbF91dWlkPTEyNTE1NDgzNiZhcG49MDkxLTA3Ni4wNQ==">&#128279; View on LandPortal</a>]]></description><Point><coordinates>-86.26822091619223,36.15102915976304,0</coordinates></Point></Placemark>
    <Placemark><name>Bush Sherry</name><styleUrl>#tier2</styleUrl><description><![CDATA[<b>Tier 2</b> | Score: 67<br>Owner: Bush Sherry<br>Address: 1441 Hartsville Pike, Lebanon, TN<br>Acreage: 3.7<br>APN: 059-111.30<br><a href="https://landportal.com/?property=Zmlwcz00NzE4OSZsbF91dWlkPTEyNTEzMTExNCZhcG49MDU5LTExMS4zMA==">&#128279; View on LandPortal</a>]]></description><Point><coordinates>-86.27862508793665,36.2179725238373,0</coordinates></Point></Placemark>
    <Placemark><name>White John H, White Jimmie Faye</name><styleUrl>#tier2</styleUrl><description><![CDATA[<b>Tier 2</b> | Score: 67<br>Owner: White John H, White Jimmie Faye<br>Address: Central Park, Lebanon, TN<br>Acreage: 4.81<br>APN: 115-025.01<br><a href="https://landportal.com/?property=Zmlwcz00NzE4OSZsbF91dWlkPTEyNTE0MDk5MSZhcG49MTE1LTAyNS4wMQ==">&#128279; View on LandPortal</a>]]></description><Point><coordinates>-86.34949667722066,36.11136586416916,0</coordinates></Point></Placemark>
    <Placemark><name>Engles Larry W, Engles Daphne C</name><styleUrl>#tier2</styleUrl><description><![CDATA[<b>Tier 2</b> | Score: 67<br>Owner: Engles Larry W, Engles Daphne C<br>Address: 2024 Old Laguardo Rd E, Lebanon, TN<br>Acreage: 3.85<br>APN: 033-043.06<br><a href="https://landportal.com/?property=Zmlwcz00NzE4OSZsbF91dWlkPTEyNTEwMzI0OCZhcG49MDMzLTA0My4wNg==">&#128279; View on LandPortal</a>]]></description><Point><coordinates>-86.43670449272165,36.25995174203667,0</coordinates></Point></Placemark>
    <Placemark><name>Rhett Buddy E, Rhett Susan D</name><styleUrl>#tier2</styleUrl><description><![CDATA[<b>Tier 2</b> | Score: 67<br>Owner: Rhett Buddy E, Rhett Susan D<br>Address: 452 Lakeview Cir, Mount Juliet, TN<br>Acreage: 2.1<br>APN: 011K-B-031.00<br><a href="https://landportal.com/?property=Zmlwcz00NzE4OSZsbF91dWlkPTEyNTEwNTIzNiZhcG49MDExSy1CLTAzMS4wMA==">&#128279; View on LandPortal</a>]]></description><Point><coordinates>-86.54466455040117,36.3108404484704,0</coordinates></Point></Placemark>
    <Placemark><name>Baer Gregory H</name><styleUrl>#tier2</styleUrl><description><![CDATA[<b>Tier 2</b> | Score: 67<br>Owner: Baer Gregory H<br>Address: 160 Karen Dr, Mount Juliet, TN<br>Acreage: 3.4<br>APN: 049-042.32<br><a href="https://landportal.com/?property=Zmlwcz00NzE4OSZsbF91dWlkPTEyNTExODg2NiZhcG49MDQ5LTA0Mi4zMg==">&#128279; View on LandPortal</a>]]></description><Point><coordinates>-86.48596570327945,36.2408712993096,0</coordinates></Point></Placemark>
    <Placemark><name>Tarter Larry, Tarter Tamela</name><styleUrl>#tier2</styleUrl><description><![CDATA[<b>Tier 2</b> | Score: 67<br>Owner: Tarter Larry, Tarter Tamela<br>Address: Nw Rutland Rd, Mount Juliet, TN<br>Acreage: 3.91<br>APN: 077-048.02<br><a href="https://landportal.com/?property=Zmlwcz00NzE4OSZsbF91dWlkPTEyNTExOTc2MiZhcG49MDc3LTA0OC4wMg==">&#128279; View on LandPortal</a>]]></description><Point><coordinates>-86.49265285778803,36.17774654096663,0</coordinates></Point></Placemark>
    <Placemark><name>Sanford William R, Sanford Velma J</name><styleUrl>#tier2</styleUrl><description><![CDATA[<b>Tier 2</b> | Score: 67<br>Owner: Sanford William R, Sanford Velma J<br>Address: Sparta Park, Watertown, TN<br>Acreage: 2.65<br>APN: 127-003.05<br><a href="https://landportal.com/?property=Zmlwcz00NzE4OSZsbF91dWlkPTEyNTE0MzExMCZhcG49MTI3LTAwMy4wNQ==">&#128279; View on LandPortal</a>]]></description><Point><coordinates>-86.18664164837128,36.10318968794024,0</coordinates></Point></Placemark>
    <Placemark><name>Holman William E, Holman Shelia A</name><styleUrl>#tier2</styleUrl><description><![CDATA[<b>Tier 2</b> | Score: 67<br>Owner: Holman William E, Holman Shelia A<br>Address: 404 Windham Ct, Lebanon, TN<br>Acreage: 0.58<br>APN: 124P-B-003.00<br><a href="https://landportal.com/?property=Zmlwcz00NzE4OSZsbF91dWlkPTEyNTE1MjE2NSZhcG49MTI0UC1CLTAwMy4wMA==">&#128279; View on LandPortal</a>]]></description><Point><coordinates>-86.32301999691849,36.08809217516114,0</coordinates></Point></Placemark>
    <Placemark><name>Stewart Billie A</name><styleUrl>#tier2</styleUrl><description><![CDATA[<b>Tier 2</b> | Score: 67<br>Owner: Stewart Billie A<br>Address: 79 Ramsey Ln, Lebanon, TN<br>Acreage: 4.6<br>APN: 060-029.00<br><a href="https://landportal.com/?property=Zmlwcz00NzE4OSZsbF91dWlkPTEyNTExMDA5OSZhcG49MDYwLTAyOS4wMA==">&#128279; View on LandPortal</a>]]></description><Point><coordinates>-86.19280106761624,36.23200410387027,0</coordinates></Point></Placemark>
    <Placemark><name>Brown Steven N Of The, Steven N Brown Revocable Living Trust</name><styleUrl>#tier2</styleUrl><description><![CDATA[<b>Tier 2</b> | Score: 67<br>Owner: Brown Steven N Of The, Steven N Brown Revocable Living Trust<br>Address: 8143 Hickory Ridge Rd, Mount Juliet, TN<br>Acreage: 4.83<br>APN: 078-039.04<br><a href="https://landportal.com/?property=Zmlwcz00NzE4OSZsbF91dWlkPTEyNTE0MjQ0NSZhcG49MDc4LTAzOS4wNA==">&#128279; View on LandPortal</a>]]></description><Point><coordinates>-86.43407041303925,36.1913877105024,0</coordinates></Point></Placemark>
    <Placemark><name>Crk Real Estate Llc</name><styleUrl>#tier2</styleUrl><description><![CDATA[<b>Tier 2</b> | Score: 67<br>Owner: Crk Real Estate Llc<br>Address: S Posey Hill Rd, Mount Juliet, TN<br>Acreage: 4.93<br>APN: 078-055.09<br><a href="https://landportal.com/?property=Zmlwcz00NzE4OSZsbF91dWlkPTEyNTE0MjU1NCZhcG49MDc4LTA1NS4wOQ==">&#128279; View on LandPortal</a>]]></description><Point><coordinates>-86.44970082947356,36.17387313215225,0</coordinates></Point></Placemark>
    <Placemark><name>Goodman Daisy M</name><styleUrl>#tier2</styleUrl><description><![CDATA[<b>Tier 2</b> | Score: 67<br>Owner: Goodman Daisy M<br>Address: 215 Old Statesville Rd, Watertown, TN<br>Acreage: 2.0<br>APN: 128-064.01<br><a href="https://landportal.com/?property=Zmlwcz00NzE4OSZsbF91dWlkPTEyNTEzMjcxNyZhcG49MTI4LTA2NC4wMQ==">&#128279; View on LandPortal</a>]]></description><Point><coordinates>-86.14113426470786,36.094555951058055,0</coordinates></Point></Placemark>
    <Placemark><name>Morrison Terry K, Morrison Linda C</name><styleUrl>#tier2</styleUrl><description><![CDATA[<b>Tier 2</b> | Score: 67<br>Owner: Morrison Terry K, Morrison Linda C<br>Address: 1185 N Greenhill Rd, Mount Juliet, TN<br>Acreage: 2.7<br>APN: 050-124.00<br><a href="https://landportal.com/?property=Zmlwcz00NzE4OSZsbF91dWlkPTEyNTEwNDQ5MyZhcG49MDUwLTEyNC4wMA==">&#128279; View on LandPortal</a>]]></description><Point><coordinates>-86.54674059165623,36.238518132034194,0</coordinates></Point></Placemark>
    <Placemark><name>Donnell Philip A</name><styleUrl>#tier2</styleUrl><description><![CDATA[<b>Tier 2</b> | Score: 67<br>Owner: Donnell Philip A<br>Address: N Greenhill Rd, Mount Juliet, TN<br>Acreage: 2.93<br>APN: 050-122.01<br><a href="https://landportal.com/?property=Zmlwcz00NzE4OSZsbF91dWlkPTEyNTEwNDQ3NiZhcG49MDUwLTEyMi4wMQ==">&#128279; View on LandPortal</a>]]></description><Point><coordinates>-86.54561715557476,36.23783927816488,0</coordinates></Point></Placemark>
    <Placemark><name>Mcelroy Donald R</name><styleUrl>#tier2</styleUrl><description><![CDATA[<b>Tier 2</b> | Score: 67<br>Owner: Mcelroy Donald R<br>Address: 3593 Bluebird Rd, Lebanon, TN<br>Acreage: 2.07<br>APN: 066-034.12<br><a href="https://landportal.com/?property=Zmlwcz00NzE4OSZsbF91dWlkPTEyNTEzMjQ3NCZhcG49MDY2LTAzNC4xMg==">&#128279; View on LandPortal</a>]]></description><Point><coordinates>-86.22824730729758,36.19511176315575,0</coordinates></Point></Placemark>
    <Placemark><name>Hurd Raymond B</name><styleUrl>#tier2</styleUrl><description><![CDATA[<b>Tier 2</b> | Score: 67<br>Owner: Hurd Raymond B<br>Address: 3154 Lebanon Rd, Lebanon, TN<br>Acreage: 2.35<br>APN: 057-111.03<br><a href="https://landportal.com/?property=Zmlwcz00NzE4OSZsbF91dWlkPTEyNTExNzUzNyZhcG49MDU3LTExMS4wMw==">&#128279; View on LandPortal</a>]]></description><Point><coordinates>-86.37617340272911,36.228860380215856,0</coordinates></Point></Placemark>
    <Placemark><name>Rowland Donald G</name><styleUrl>#tier2</styleUrl><description><![CDATA[<b>Tier 2</b> | Score: 67<br>Owner: Rowland Donald G<br>Address: 221 Cainsville Rd, Lebanon, TN<br>Acreage: 2.56<br>APN: 068M-C-020.00<br><a href="https://landportal.com/?property=Zmlwcz00NzE4OSZsbF91dWlkPTEyNTE0OTgyOCZhcG49MDY4TS1DLTAyMC4wMA==">&#128279; View on LandPortal</a>]]></description><Point><coordinates>-86.2896034261635,36.19684915093259,0</coordinates></Point></Placemark>
    <Placemark><name>Griffin Johnny W</name><styleUrl>#tier2</styleUrl><description><![CDATA[<b>Tier 2</b> | Score: 67<br>Owner: Griffin Johnny W<br>Address: 725 Kelly Dr, Lebanon, TN<br>Acreage: 3.0<br>APN: 010M-A-050.00<br><a href="https://landportal.com/?property=Zmlwcz00NzE4OSZsbF91dWlkPTEyNTEwNTAyNiZhcG49MDEwTS1BLTA1MC4wMA==">&#128279; View on LandPortal</a>]]></description><Point><coordinates>-86.4411619092476,36.33287903660844,0</coordinates></Point></Placemark>
    <Placemark><name>Dillard James R, Dillard Amanda L</name><styleUrl>#tier2</styleUrl><description><![CDATA[<b>Tier 2</b> | Score: 67<br>Owner: Dillard James R, Dillard Amanda L<br>Address: 224 Lake Forest Dr, Mount Juliet, TN<br>Acreage: 3.02<br>APN: 029-015.02<br><a href="https://landportal.com/?property=Zmlwcz00NzE4OSZsbF91dWlkPTEyNTEyMzY1OSZhcG49MDI5LTAxNS4wMg==">&#128279; View on LandPortal</a>]]></description><Point><coordinates>-86.54783793688308,36.28815752505261,0</coordinates></Point></Placemark>
    <Placemark><name>Moore Lynotte P, Living Trust</name><styleUrl>#tier2</styleUrl><description><![CDATA[<b>Tier 2</b> | Score: 67<br>Owner: Moore Lynotte P, Living Trust<br>Address: W Old Murfreesboro Rd, Lebanon, TN<br>Acreage: 4.2<br>APN: 081-109.00<br><a href="https://landportal.com/?property=Zmlwcz00NzE4OSZsbF91dWlkPTEyNTE0MjgyNyZhcG49MDgxLTEwOS4wMA==">&#128279; View on LandPortal</a>]]></description><Point><coordinates>-86.30729976997152,36.18152048479659,0</coordinates></Point></Placemark>
    <Placemark><name>Neely Richard, Neely Kelli</name><styleUrl>#tier2</styleUrl><description><![CDATA[<b>Tier 2</b> | Score: 67<br>Owner: Neely Richard, Neely Kelli<br>Address: 574 Glen Echo Dr, Old Hickory, TN<br>Acreage: 3.03<br>APN: 053-001.12<br><a href="https://landportal.com/?property=Zmlwcz00NzE4OSZsbF91dWlkPTE2Mzc1NjMyNSZhcG49MDUzLTAwMS4xMg==">&#128279; View on LandPortal</a>]]></description><Point><coordinates>-86.55695251807747,36.23491218520927,0</coordinates></Point></Placemark>
    <Placemark><name>City Of Mount Juliet</name><styleUrl>#tier2</styleUrl><description><![CDATA[<b>Tier 2</b> | Score: 67<br>Owner: City Of Mount Juliet<br>Address: 620 Clemmons Rd, Mount Juliet, TN<br>Acreage: 10.0<br>APN: 072-071.06<br><a href="https://landportal.com/?property=Zmlwcz00NzE4OSZsbF91dWlkPTE3NTQzNzM4OSZhcG49MDcyLTA3MS4wNg==">&#128279; View on LandPortal</a>]]></description><Point><coordinates>-86.50432346340355,36.19961058955048,0</coordinates></Point></Placemark>
    <Placemark><name>Stetler John Stephen</name><styleUrl>#tier2</styleUrl><description><![CDATA[<b>Tier 2</b> | Score: 67<br>Owner: Stetler John Stephen<br>Address: 3061 Vesta Rd, Lebanon, TN<br>Acreage: 2.12<br>APN: 137-011.01<br><a href="https://landportal.com/?property=Zmlwcz00NzE4OSZsbF91dWlkPTEyNTE0NDMwNiZhcG49MTM3LTAxMS4wMQ==">&#128279; View on LandPortal</a>]]></description><Point><coordinates>-86.40261609556603,36.06523979819805,0</coordinates></Point></Placemark>
    <Placemark><name>Lowe Erica, Lowe John Robert</name><styleUrl>#tier2</styleUrl><description><![CDATA[<b>Tier 2</b> | Score: 67<br>Owner: Lowe Erica, Lowe John Robert<br>Address: 304 Flippen Rd, Lebanon, TN<br>Acreage: 2.7<br>APN: 016-038.00<br><a href="https://landportal.com/?property=Zmlwcz00NzE4OSZsbF91dWlkPTEyNTEwNjE4MyZhcG49MDE2LTAzOC4wMA==">&#128279; View on LandPortal</a>]]></description><Point><coordinates>-86.32785268007835,36.30382438810979,0</coordinates></Point></Placemark>
    <Placemark><name>Harvey Wayne</name><styleUrl>#tier2</styleUrl><description><![CDATA[<b>Tier 2</b> | Score: 67<br>Owner: Harvey Wayne<br>Address: 162 Karen Dr, Mount Juliet, TN<br>Acreage: 2.7<br>APN: 049-042.33<br><a href="https://landportal.com/?property=Zmlwcz00NzE4OSZsbF91dWlkPTEyNTExODg2OCZhcG49MDQ5LTA0Mi4zMw==">&#128279; View on LandPortal</a>]]></description><Point><coordinates>-86.4860447415862,36.24027506086088,0</coordinates></Point></Placemark>
    <Placemark><name>Businda Kenneth, Businda Diane L</name><styleUrl>#tier2</styleUrl><description><![CDATA[<b>Tier 2</b> | Score: 67<br>Owner: Businda Kenneth, Businda Diane L<br>Address: Eakes Thompson Rd, Mount Juliet, TN<br>Acreage: 2.02<br>APN: 120-004.10<br><a href="https://landportal.com/?property=Zmlwcz00NzE4OSZsbF91dWlkPTEyNTE1MDAxMyZhcG49MTIwLTAwNC4xMA==">&#128279; View on LandPortal</a>]]></description><Point><coordinates>-86.49806821076746,36.1019664304813,0</coordinates></Point></Placemark>
    <Placemark><name>Beasley Derrick E</name><styleUrl>#tier2</styleUrl><description><![CDATA[<b>Tier 2</b> | Score: 67<br>Owner: Beasley Derrick E<br>Address: Trousdale Ferry Park, Lebanon, TN<br>Acreage: 3.89<br>APN: 066-003.19<br><a href="https://landportal.com/?property=Zmlwcz00NzE4OSZsbF91dWlkPTEyNTEyMTk4OSZhcG49MDY2LTAwMy4xOQ==">&#128279; View on LandPortal</a>]]></description><Point><coordinates>-86.22002177853335,36.206303901067045,0</coordinates></Point></Placemark>
    <Placemark><name>Bellefant Charles, Bellefant Gloria A</name><styleUrl>#tier2</styleUrl><description><![CDATA[<b>Tier 2</b> | Score: 67<br>Owner: Bellefant Charles, Bellefant Gloria A<br>Address: 118 Farmstead Ln, Mount Juliet, TN<br>Acreage: 2.0<br>APN: 071-040.01<br><a href="https://landportal.com/?property=Zmlwcz00NzE4OSZsbF91dWlkPTEyNTEyNjE0OCZhcG49MDcxLTA0MC4wMQ==">&#128279; View on LandPortal</a>]]></description><Point><coordinates>-86.4558752066549,36.207118283415795,0</coordinates></Point></Placemark>
    <Placemark><name>Garrett Dallas</name><styleUrl>#tier2</styleUrl><description><![CDATA[<b>Tier 2</b> | Score: 67<br>Owner: Garrett Dallas<br>Address: 2851d Cainsville Rd, Lebanon, TN<br>Acreage: 3.9<br>APN: 091-035.01<br><a href="https://landportal.com/?property=Zmlwcz00NzE4OSZsbF91dWlkPTEyNTE1NDc1MSZhcG49MDkxLTAzNS4wMQ==">&#128279; View on LandPortal</a>]]></description><Point><coordinates>-86.26960459402116,36.16543091349944,0</coordinates></Point></Placemark>
    <Placemark><name>Evans Farms Ltd</name><styleUrl>#tier2</styleUrl><description><![CDATA[<b>Tier 2</b> | Score: 67<br>Owner: Evans Farms Ltd<br>Address: Central Park, Gallatin, TN<br>Acreage: 5.88<br>APN: 101-025.01<br><a href="https://landportal.com/?property=Zmlwcz00NzE4OSZsbF91dWlkPTE3MzAxMDAzNSZhcG49MTAxLTAyNS4wMQ==">&#128279; View on LandPortal</a>]]></description><Point><coordinates>-86.39379736357776,36.130665166274184,0</coordinates></Point></Placemark>
    <Placemark><name>Davenport John W, Davenport Patricia</name><styleUrl>#tier2</styleUrl><description><![CDATA[<b>Tier 2</b> | Score: 67<br>Owner: Davenport John W, Davenport Patricia<br>Address: 7620 Lebanon Rd, Mount Juliet, TN<br>Acreage: 3.14<br>APN: 055-075.00<br><a href="https://landportal.com/?property=Zmlwcz00NzE4OSZsbF91dWlkPTEyNTE0MDk5OSZhcG49MDU1LTA3NS4wMA==">&#128279; View on LandPortal</a>]]></description><Point><coordinates>-86.45088373766495,36.23433906365366,0</coordinates></Point></Placemark>
    <Placemark><name>Chorazghiazad Mohammad</name><styleUrl>#tier2</styleUrl><description><![CDATA[<b>Tier 2</b> | Score: 67<br>Owner: Chorazghiazad Mohammad<br>Address: 125 Winwood Dr, Lebanon, TN<br>Acreage: 2.65<br>APN: 069D-E-007.00<br><a href="https://landportal.com/?property=Zmlwcz00NzE4OSZsbF91dWlkPTEyNTEyNTI2MSZhcG49MDY5RC1FLTAwNy4wMA==">&#128279; View on LandPortal</a>]]></description><Point><coordinates>-86.33457730933202,36.21529590368107,0</coordinates></Point></Placemark>
    <Placemark><name>Kidd Cordell</name><styleUrl>#tier2</styleUrl><description><![CDATA[<b>Tier 2</b> | Score: 67<br>Owner: Kidd Cordell<br>Address: 12745 Central Pike, Mount Juliet, TN<br>Acreage: 1.6<br>APN: 100-012.03<br><a href="https://landportal.com/?property=Zmlwcz00NzE4OSZsbF91dWlkPTEyNTE1NTkwMCZhcG49MTAwLTAxMi4wMw==">&#128279; View on LandPortal</a>]]></description><Point><coordinates>-86.4376047752487,36.14202569249022,0</coordinates></Point></Placemark>
    <Placemark><name>Chambers Donald G, Chambers Nora S</name><styleUrl>#tier2</styleUrl><description><![CDATA[<b>Tier 2</b> | Score: 67<br>Owner: Chambers Donald G, Chambers Nora S<br>Address: 5747 Se Tater Peeler Rd, Lebanon, TN<br>Acreage: 2.94<br>APN: 113-011.01<br><a href="https://landportal.com/?property=Zmlwcz00NzE4OSZsbF91dWlkPTEyNTEyOTMzMCZhcG49MTEzLTAxMS4wMQ==">&#128279; View on LandPortal</a>]]></description><Point><coordinates>-86.27490248050796,36.12654915539617,0</coordinates></Point></Placemark>
    <Placemark><name>Gordon Randy E, Gordon Debra K</name><styleUrl>#tier2</styleUrl><description><![CDATA[<b>Tier 2</b> | Score: 67<br>Owner: Gordon Randy E, Gordon Debra K<br>Address: 65 W Lakeview Dr, Mount Juliet, TN<br>Acreage: 3.09<br>APN: 029J-A-010.00<br><a href="https://landportal.com/?property=Zmlwcz00NzE4OSZsbF91dWlkPTEyNTExMDk5OSZhcG49MDI5Si1BLTAxMC4wMA==">&#128279; View on LandPortal</a>]]></description><Point><coordinates>-86.55165529839073,36.29118082342942,0</coordinates></Point></Placemark>
    <Placemark><name>Hunley Marvin Roger, Hunley Rena</name><styleUrl>#tier2</styleUrl><description><![CDATA[<b>Tier 2</b> | Score: 67<br>Owner: Hunley Marvin Roger, Hunley Rena<br>Address: 137 N Posey Hill Rd, Mount Juliet, TN<br>Acreage: 4.35<br>APN: 078-027.00<br><a href="https://landportal.com/?property=Zmlwcz00NzE4OSZsbF91dWlkPTEyNTE0MjM0NiZhcG49MDc4LTAyNy4wMA==">&#128279; View on LandPortal</a>]]></description><Point><coordinates>-86.43999580947838,36.18901589063381,0</coordinates></Point></Placemark>
    <Placemark><name>Ricketts Barry D, Ricketts Sherry</name><styleUrl>#tier2</styleUrl><description><![CDATA[<b>Tier 2</b> | Score: 67<br>Owner: Ricketts Barry D, Ricketts Sherry<br>Address: 2425 Sherrilltown Rd, Watertown, TN<br>Acreage: 2.0<br>APN: 145-013.00<br><a href="https://landportal.com/?property=Zmlwcz00NzE4OSZsbF91dWlkPTEyNTE1NzYwOSZhcG49MTQ1LTAxMy4wMA==">&#128279; View on LandPortal</a>]]></description><Point><coordinates>-86.20847705596054,36.051023437947464,0</coordinates></Point></Placemark>
    <Placemark><name>Salts Lawrence Earl, Salts Debra Dean</name><styleUrl>#tier2</styleUrl><description><![CDATA[<b>Tier 2</b> | Score: 67<br>Owner: Salts Lawrence Earl, Salts Debra Dean<br>Address: 615 Bettis Rd, Lebanon, TN<br>Acreage: 2.45<br>APN: 094-031.05<br><a href="https://landportal.com/?property=Zmlwcz00NzE4OSZsbF91dWlkPTEyNTE0NjU5OSZhcG49MDk0LTAzMS4wNQ==">&#128279; View on LandPortal</a>]]></description><Point><coordinates>-86.40233886096235,36.15162216272436,0</coordinates></Point></Placemark>
    <Placemark><name>Launsby Bron</name><styleUrl>#tier2</styleUrl><description><![CDATA[<b>Tier 2</b> | Score: 67<br>Owner: Launsby Bron<br>Address: Beckwith Rd, Mount Juliet, TN<br>Acreage: 3.0<br>APN: 055H-A-018.00<br><a href="https://landportal.com/?property=Zmlwcz00NzE4OSZsbF91dWlkPTEyNTE0MjA2NyZhcG49MDU1SC1BLTAxOC4wMA==">&#128279; View on LandPortal</a>]]></description><Point><coordinates>-86.47316997411158,36.23110258459308,0</coordinates></Point></Placemark>
    <Placemark><name>Martin Jack, Martin Virginia</name><styleUrl>#tier2</styleUrl><description><![CDATA[<b>Tier 2</b> | Score: 67<br>Owner: Martin Jack, Martin Virginia<br>Address: 97 Lakeshore Rd, Mount Juliet, TN<br>Acreage: 2.0<br>APN: 098F-A-019.00<br><a href="https://landportal.com/?property=Zmlwcz00NzE4OSZsbF91dWlkPTEyNTEyNzM1MSZhcG49MDk4Ri1BLTAxOS4wMA==">&#128279; View on LandPortal</a>]]></description><Point><coordinates>-86.5374167064628,36.14152965031107,0</coordinates></Point></Placemark>
    <Placemark><name>Dewald Sheri A</name><styleUrl>#tier2</styleUrl><description><![CDATA[<b>Tier 2</b> | Score: 67<br>Owner: Dewald Sheri A<br>Address: 2044 Kimberly Dr, Mount Juliet, TN<br>Acreage: 3.28<br>APN: 121A-A-008.00<br><a href="https://landportal.com/?property=Zmlwcz00NzE4OSZsbF91dWlkPTEyNTE1NjkxNSZhcG49MTIxQS1BLTAwOC4wMA==">&#128279; View on LandPortal</a>]]></description><Point><coordinates>-86.46447621111318,36.10086314881836,0</coordinates></Point></Placemark>
    <Placemark><name>Phillips Shelly Puryear</name><styleUrl>#tier2</styleUrl><description><![CDATA[<b>Tier 2</b> | Score: 67<br>Owner: Phillips Shelly Puryear<br>Address: 174 Brown Rd, Lebanon, TN<br>Acreage: 2.43<br>APN: 024-051.04<br><a href="https://landportal.com/?property=Zmlwcz00NzE4OSZsbF91dWlkPTEyNTEwNzAzMiZhcG49MDI0LTA1MS4wNA==">&#128279; View on LandPortal</a>]]></description><Point><coordinates>-86.30702177233286,36.283577584695635,0</coordinates></Point></Placemark>
    <Placemark><name>Oliver Tommy E, Oliver Sonya M</name><styleUrl>#tier2</styleUrl><description><![CDATA[<b>Tier 2</b> | Score: 67<br>Owner: Oliver Tommy E, Oliver Sonya M<br>Address: S Maple St, Lebanon, TN<br>Acreage: 2.0<br>APN: 081C-A-029.02<br><a href="https://landportal.com/?property=Zmlwcz00NzE4OSZsbF91dWlkPTEyNTE0MzM0NiZhcG49MDgxQy1BLTAyOS4wMg==">&#128279; View on LandPortal</a>]]></description><Point><coordinates>-86.29977420729743,36.19222936119704,0</coordinates></Point></Placemark>
    <Placemark><name>Ferguson Robert A, Gibson Diana</name><styleUrl>#tier2</styleUrl><description><![CDATA[<b>Tier 2</b> | Score: 67<br>Owner: Ferguson Robert A, Gibson Diana<br>Address: 755 Canoe Branch Rd, Lebanon, TN<br>Acreage: 2.2<br>APN: 017-029.01<br><a href="https://landportal.com/?property=Zmlwcz00NzE4OSZsbF91dWlkPTEyNTExNjMwMyZhcG49MDE3LTAyOS4wMQ==">&#128279; View on LandPortal</a>]]></description><Point><coordinates>-86.273940421607,36.30406486714549,0</coordinates></Point></Placemark>
    <Placemark><name>Exeter 109 Lebanon Llc</name><styleUrl>#tier2</styleUrl><description><![CDATA[<b>Tier 2</b> | Score: 67<br>Owner: Exeter 109 Lebanon Llc<br>Address: Highway 109 N, Lebanon, TN<br>Acreage: 2.78<br>APN: 055-038.00<br><a href="https://landportal.com/?property=Zmlwcz00NzE4OSZsbF91dWlkPTEyNTE0MDUzNSZhcG49MDU1LTAzOC4wMA==">&#128279; View on LandPortal</a>]]></description><Point><coordinates>-86.42934495231574,36.23617076632311,0</coordinates></Point></Placemark>
    <Placemark><name>Mull Rebecca Leitte Lalon, Mull Jason Mark</name><styleUrl>#tier2</styleUrl><description><![CDATA[<b>Tier 2</b> | Score: 67<br>Owner: Mull Rebecca Leitte Lalon, Mull Jason Mark<br>Address: Cainsville Rd, Lebanon, TN<br>Acreage: 2.22<br>APN: 104-066.03<br><a href="https://landportal.com/?property=Zmlwcz00NzE4OSZsbF91dWlkPTEyNTE0ODAyNiZhcG49MTA0LTA2Ni4wMw==">&#128279; View on LandPortal</a>]]></description><Point><coordinates>-86.2472399650795,36.12968103538131,0</coordinates></Point></Placemark>
    <Placemark><name>City Of Lebanon Tennessee</name><styleUrl>#tier2</styleUrl><description><![CDATA[<b>Tier 2</b> | Score: 67<br>Owner: City Of Lebanon Tennessee<br>Address: S Cumberland St, Lebanon, TN<br>Acreage: 53.0<br>APN: 068E-J-003.00<br><a href="https://landportal.com/?property=Zmlwcz00NzE4OSZsbF91dWlkPTEyNTEzNDU3MiZhcG49MDY4RS1KLTAwMy4wMA==">&#128279; View on LandPortal</a>]]></description><Point><coordinates>-86.29176658383994,36.20661876403163,0</coordinates></Point></Placemark>
    <Placemark><name>First Presbyterian Church</name><styleUrl>#tier2</styleUrl><description><![CDATA[<b>Tier 2</b> | Score: 67<br>Owner: First Presbyterian Church<br>Address: Lewis Ct, Lebanon, TN<br>Acreage: 70.0<br>APN: 068F-E-007.00<br><a href="https://landportal.com/?property=Zmlwcz00NzE4OSZsbF91dWlkPTEyNTEzMzM3MSZhcG49MDY4Ri1FLTAwNy4wMA==">&#128279; View on LandPortal</a>]]></description><Point><coordinates>-86.2971887463525,36.2080653130358,0</coordinates></Point></Placemark>
    <Placemark><name>Wright Joel, Wright Robin</name><styleUrl>#tier2</styleUrl><description><![CDATA[<b>Tier 2</b> | Score: 67<br>Owner: Wright Joel, Wright Robin<br>Address: 3676 Horn Springs Rd, Lebanon, TN<br>Acreage: 2.54<br>APN: 035-042.02<br><a href="https://landportal.com/?property=Zmlwcz00NzE4OSZsbF91dWlkPTEyNTExNDEwNiZhcG49MDM1LTA0Mi4wMg==">&#128279; View on LandPortal</a>]]></description><Point><coordinates>-86.37956963011084,36.27051510466242,0</coordinates></Point></Placemark>
    <Placemark><name>Wilson John, Martin Dianne Wilson</name><styleUrl>#tier2</styleUrl><description><![CDATA[<b>Tier 2</b> | Score: 67<br>Owner: Wilson John, Martin Dianne Wilson<br>Address: 870 Misty Lake Dr, Lebanon, TN<br>Acreage: 2.0<br>APN: 016E-C-038.00<br><a href="https://landportal.com/?property=Zmlwcz00NzE4OSZsbF91dWlkPTEyNTEwNjM1MCZhcG49MDE2RS1DLTAzOC4wMA==">&#128279; View on LandPortal</a>]]></description><Point><coordinates>-86.29109542303915,36.31578138838713,0</coordinates></Point></Placemark>
    <Placemark><name>Beasley Derrick E</name><styleUrl>#tier2</styleUrl><description><![CDATA[<b>Tier 2</b> | Score: 67<br>Owner: Beasley Derrick E<br>Address: Trousdale Ferry Park, Lebanon, TN<br>Acreage: 1.68<br>APN: 066-003.14<br><a href="https://landportal.com/?property=Zmlwcz00NzE4OSZsbF91dWlkPTEyNTEyMTk3OSZhcG49MDY2LTAwMy4xNA==">&#128279; View on LandPortal</a>]]></description><Point><coordinates>-86.22134945606638,36.205994535725104,0</coordinates></Point></Placemark>
    <Placemark><name>Mcglothlin Michael W, Mcglothlin Wanda P</name><styleUrl>#tier2</styleUrl><description><![CDATA[<b>Tier 2</b> | Score: 67<br>Owner: Mcglothlin Michael W, Mcglothlin Wanda P<br>Address: 1800 Norene Rd, Lebanon, TN<br>Acreage: 4.4<br>APN: 144-003.01<br><a href="https://landportal.com/?property=Zmlwcz00NzE4OSZsbF91dWlkPTEyNTEzNTA1NiZhcG49MTQ0LTAwMy4wMQ==">&#128279; View on LandPortal</a>]]></description><Point><coordinates>-86.26937003945707,36.057094541818685,0</coordinates></Point></Placemark>
    <Placemark><name>Maynard Eddie R</name><styleUrl>#tier2</styleUrl><description><![CDATA[<b>Tier 2</b> | Score: 67<br>Owner: Maynard Eddie R<br>Address: 166 Gilmore Hill Rd, Lebanon, TN<br>Acreage: 1.5<br>APN: 023-040.01<br><a href="https://landportal.com/?property=Zmlwcz00NzE4OSZsbF91dWlkPTEyNTEwNjkzMSZhcG49MDIzLTA0MC4wMQ==">&#128279; View on LandPortal</a>]]></description><Point><coordinates>-86.26029952918307,36.29623354347467,0</coordinates></Point></Placemark>
    <Placemark><name>Rucker Joseph, Rucker Ashley</name><styleUrl>#tier2</styleUrl><description><![CDATA[<b>Tier 2</b> | Score: 67<br>Owner: Rucker Joseph, Rucker Ashley<br>Address: 81 Wright Rd, Watertown, TN<br>Acreage: 2.16<br>APN: 131-030.02<br><a href="https://landportal.com/?property=Zmlwcz00NzE4OSZsbF91dWlkPTE1NTQ5Njg1OCZhcG49MTMxLTAzMC4wMg==">&#128279; View on LandPortal</a>]]></description><Point><coordinates>-86.14231701190693,36.08065943818392,0</coordinates></Point></Placemark>
    <Placemark><name>Keogh Stephen G, Keogh Beverly D</name><styleUrl>#tier2</styleUrl><description><![CDATA[<b>Tier 2</b> | Score: 67<br>Owner: Keogh Stephen G, Keogh Beverly D<br>Address: 296 Burton Pl, Mount Juliet, TN<br>Acreage: 3.21<br>APN: 076-045.11<br><a href="https://landportal.com/?property=Zmlwcz00NzE4OSZsbF91dWlkPTEyNTExOTI0NiZhcG49MDc2LTA0NS4xMQ==">&#128279; View on LandPortal</a>]]></description><Point><coordinates>-86.53962031076782,36.175937658240535,0</coordinates></Point></Placemark>
    <Placemark><name>City Of Lebanon Tennessee</name><styleUrl>#tier2</styleUrl><description><![CDATA[<b>Tier 2</b> | Score: 67<br>Owner: City Of Lebanon Tennessee<br>Address: 120 S Cumberland St, Lebanon, TN<br>Acreage: 51.0<br>APN: 068E-J-002.00<br><a href="https://landportal.com/?property=Zmlwcz00NzE4OSZsbF91dWlkPTEyNTEzNDUyNiZhcG49MDY4RS1KLTAwMi4wMA==">&#128279; View on LandPortal</a>]]></description><Point><coordinates>-86.29176683298482,36.20675607184458,0</coordinates></Point></Placemark>
    <Placemark><name>Glowaski Leigh Ann, Baird Montre K</name><styleUrl>#tier2</styleUrl><description><![CDATA[<b>Tier 2</b> | Score: 67<br>Owner: Glowaski Leigh Ann, Baird Montre K<br>Address: 417 Lebanon Rd, Hermitage, TN<br>Acreage: 2.0<br>APN: 055-004.00<br><a href="https://landportal.com/?property=Zmlwcz00NzE4OSZsbF91dWlkPTEyNTEyNTg5MCZhcG49MDU1LTAwNC4wMA==">&#128279; View on LandPortal</a>]]></description><Point><coordinates>-86.46060073281554,36.23539944476968,0</coordinates></Point></Placemark>
    <Placemark><name>Griffiths Robin L</name><styleUrl>#tier2</styleUrl><description><![CDATA[<b>Tier 2</b> | Score: 67<br>Owner: Griffiths Robin L<br>Address: 4130 Big Springs Rd, Lebanon, TN<br>Acreage: 2.05<br>APN: 061-026.03<br><a href="https://landportal.com/?property=Zmlwcz00NzE4OSZsbF91dWlkPTEyNTExMDg2OSZhcG49MDYxLTAyNi4wMw==">&#128279; View on LandPortal</a>]]></description><Point><coordinates>-86.17541918195269,36.223463625519,0</coordinates></Point></Placemark>
    <Placemark><name>Nelson Kenneth, Nelson Joyce</name><styleUrl>#tier2</styleUrl><description><![CDATA[<b>Tier 2</b> | Score: 67<br>Owner: Nelson Kenneth, Nelson Joyce<br>Address: Cleveland St, Lebanon, TN<br>Acreage: 3.0<br>APN: 068N-B-007.01<br><a href="https://landportal.com/?property=Zmlwcz00NzE4OSZsbF91dWlkPTEyNTEzNjA4MSZhcG49MDY4Ti1CLTAwNy4wMQ==">&#128279; View on LandPortal</a>]]></description><Point><coordinates>-86.30464017675118,36.197316288030756,0</coordinates></Point></Placemark>
    <Placemark><name>Lowery Jack Daniel, Lojac Safety</name><styleUrl>#tier2</styleUrl><description><![CDATA[<b>Tier 2</b> | Score: 67<br>Owner: Lowery Jack Daniel, Lojac Safety<br>Address: Bethlehem Rd, Lebanon, TN<br>Acreage: 2.89<br>APN: 069-002.00<br><a href="https://landportal.com/?property=Zmlwcz00NzE4OSZsbF91dWlkPTEyNTEzNDY2NCZhcG49MDY5LTAwMi4wMA==">&#128279; View on LandPortal</a>]]></description><Point><coordinates>-86.36302785789448,36.21441394868836,0</coordinates></Point></Placemark>
    <Placemark><name>Ricketts Daniel B</name><styleUrl>#tier2</styleUrl><description><![CDATA[<b>Tier 2</b> | Score: 67<br>Owner: Ricketts Daniel B<br>Address: Needmore Rd, Hermitage, TN<br>Acreage: 2.72<br>APN: 053-021.02<br><a href="https://landportal.com/?property=Zmlwcz00NzE4OSZsbF91dWlkPTEyNTEwNjMzOSZhcG49MDUzLTAyMS4wMg==">&#128279; View on LandPortal</a>]]></description><Point><coordinates>-86.5457064853539,36.22882255152882,0</coordinates></Point></Placemark>
    <Placemark><name>Hancock Ronnie E, Hancock Cynthia L</name><styleUrl>#tier2</styleUrl><description><![CDATA[<b>Tier 2</b> | Score: 67<br>Owner: Hancock Ronnie E, Hancock Cynthia L<br>Address: 730 Mays Chapel Rd, Mount Juliet, TN<br>Acreage: 4.44<br>APN: 048-008.02<br><a href="https://landportal.com/?property=Zmlwcz00NzE4OSZsbF91dWlkPTEyNTExMTExNCZhcG49MDQ4LTAwOC4wMg==">&#128279; View on LandPortal</a>]]></description><Point><coordinates>-86.47092985032357,36.24639758779432,0</coordinates></Point></Placemark>
    <Placemark><name>Groom Dorothy D</name><styleUrl>#tier2</styleUrl><description><![CDATA[<b>Tier 2</b> | Score: 67<br>Owner: Groom Dorothy D<br>Address: Bluebird Rd, Goodlettsville, TN<br>Acreage: 1.42<br>APN: 084-015.01<br><a href="https://landportal.com/?property=Zmlwcz00NzE4OSZsbF91dWlkPTEyNTEyMTg0NSZhcG49MDg0LTAxNS4wMQ==">&#128279; View on LandPortal</a>]]></description><Point><coordinates>-86.16756744744688,36.18832939766531,0</coordinates></Point></Placemark>
    <Placemark><name>Hamblen Glenn O, Hamblen Donald H</name><styleUrl>#tier2</styleUrl><description><![CDATA[<b>Tier 2</b> | Score: 67<br>Owner: Hamblen Glenn O, Hamblen Donald H<br>Address: Lone Oak Rd, Mount Juliet, TN<br>Acreage: 2.0<br>APN: 121-020.00<br><a href="https://landportal.com/?property=Zmlwcz00NzE4OSZsbF91dWlkPTEyNTE1MDU4OCZhcG49MTIxLTAyMC4wMA==">&#128279; View on LandPortal</a>]]></description><Point><coordinates>-86.4344590081166,36.08576473433294,0</coordinates></Point></Placemark>
    <Placemark><name>Preston Gale M</name><styleUrl>#tier2</styleUrl><description><![CDATA[<b>Tier 2</b> | Score: 67<br>Owner: Preston Gale M<br>Address: 12380 Cainsville Rd, Watertown, TN<br>Acreage: 2.0<br>APN: 144-029.01<br><a href="https://landportal.com/?property=Zmlwcz00NzE4OSZsbF91dWlkPTEyNTE1NzUwMiZhcG49MTQ0LTAyOS4wMQ==">&#128279; View on LandPortal</a>]]></description><Point><coordinates>-86.24025799202047,36.041275705730186,0</coordinates></Point></Placemark>
    <Placemark><name>Peyton Allen E</name><styleUrl>#tier2</styleUrl><description><![CDATA[<b>Tier 2</b> | Score: 67<br>Owner: Peyton Allen E<br>Address: 2045 Charles Smith Rd, Lascassas, TN<br>Acreage: 3.18<br>APN: 178-002.08<br><a href="https://landportal.com/?property=Zmlwcz00NzE4OSZsbF91dWlkPTEyNTE1Nzk4MCZhcG49MTc4LTAwMi4wOA==">&#128279; View on LandPortal</a>]]></description><Point><coordinates>-86.22659888110789,35.96635335711359,0</coordinates></Point></Placemark>
    <Placemark><name>Fisher Consiglio, Fisher Norma</name><styleUrl>#tier2</styleUrl><description><![CDATA[<b>Tier 2</b> | Score: 67<br>Owner: Fisher Consiglio, Fisher Norma<br>Address: 5370 Lebanon Rd, Lebanon, TN<br>Acreage: 4.6<br>APN: 056-005.15<br><a href="https://landportal.com/?property=Zmlwcz00NzE4OSZsbF91dWlkPTEyNTEwNzM4OSZhcG49MDU2LTAwNS4xNQ==">&#128279; View on LandPortal</a>]]></description><Point><coordinates>-86.41077348736903,36.23638725736285,0</coordinates></Point></Placemark>
    <Placemark><name>Bailey Carl H, Bailey K</name><styleUrl>#tier2</styleUrl><description><![CDATA[<b>Tier 2</b> | Score: 67<br>Owner: Bailey Carl H, Bailey K<br>Address: 89 Bailey Rd, Watertown, TN<br>Acreage: 4.37<br>APN: 090-014.15<br><a href="https://landportal.com/?property=Zmlwcz00NzE4OSZsbF91dWlkPTEyNTEyMzIwOSZhcG49MDkwLTAxNC4xNQ==">&#128279; View on LandPortal</a>]]></description><Point><coordinates>-86.19783321909418,36.165467180295515,0</coordinates></Point></Placemark>
    <Placemark><name>Holt Erik S, Holt Gina J</name><styleUrl>#tier2</styleUrl><description><![CDATA[<b>Tier 2</b> | Score: 67<br>Owner: Holt Erik S, Holt Gina J<br>Address: Crosswinds Dr, Mount Juliet, TN<br>Acreage: 3.08<br>APN: 029J-A-013.01<br><a href="https://landportal.com/?property=Zmlwcz00NzE4OSZsbF91dWlkPTEyNTExMTAwOSZhcG49MDI5Si1BLTAxMy4wMQ==">&#128279; View on LandPortal</a>]]></description><Point><coordinates>-86.547984917435,36.29000160363066,0</coordinates></Point></Placemark>
    <Placemark><name>York Jimmy C, York Linda Wright</name><styleUrl>#tier2</styleUrl><description><![CDATA[<b>Tier 2</b> | Score: 67<br>Owner: York Jimmy C, York Linda Wright<br>Address: 2972 Saundersville Ferry Rd, Mount Juliet, TN<br>Acreage: 1.79<br>APN: 029-008.01<br><a href="https://landportal.com/?property=Zmlwcz00NzE4OSZsbF91dWlkPTEyNTEyMzYwOSZhcG49MDI5LTAwOC4wMQ==">&#128279; View on LandPortal</a>]]></description><Point><coordinates>-86.54229633260829,36.300704744074594,0</coordinates></Point></Placemark>
    <Placemark><name>York Kenneth R, York Mildred</name><styleUrl>#tier2</styleUrl><description><![CDATA[<b>Tier 2</b> | Score: 67<br>Owner: York Kenneth R, York Mildred<br>Address: 3887 Nonaville Rd, Mount Juliet, TN<br>Acreage: 4.2<br>APN: 031-046.01<br><a href="https://landportal.com/?property=Zmlwcz00NzE4OSZsbF91dWlkPTEyNTExMDY3MiZhcG49MDMxLTA0Ni4wMQ==">&#128279; View on LandPortal</a>]]></description><Point><coordinates>-86.540102066373,36.27153929446303,0</coordinates></Point></Placemark>
    <Placemark><name>Shuman Jennifer</name><styleUrl>#tier2</styleUrl><description><![CDATA[<b>Tier 2</b> | Score: 67<br>Owner: Shuman Jennifer<br>Address: Sparta Park, Watertown, TN<br>Acreage: 3.87<br>APN: 127-066.01<br><a href="https://landportal.com/?property=Zmlwcz00NzE4OSZsbF91dWlkPTEyNTE0MzU3NiZhcG49MTI3LTA2Ni4wMQ==">&#128279; View on LandPortal</a>]]></description><Point><coordinates>-86.16752814473732,36.097661577945715,0</coordinates></Point></Placemark>
    <Placemark><name>Middle Tennessee Electric, Membership Corp</name><styleUrl>#tier2</styleUrl><description><![CDATA[<b>Tier 2</b> | Score: 65<br>Owner: Middle Tennessee Electric, Membership Corp<br>Address: 14861 Central Park, Mount Juliet, TN<br>Acreage: 5.9<br>APN: 100-004.18<br><a href="https://landportal.com/?property=Zmlwcz00NzE4OSZsbF91dWlkPTEyNTE1NTg2NyZhcG49MTAwLTAwNC4xOA==">&#128279; View on LandPortal</a>]]></description><Point><coordinates>-86.46659618073392,36.147879259310606,0</coordinates></Point></Placemark>
    <Placemark><name>Thompson Equity Partners Llc</name><styleUrl>#tier2</styleUrl><description><![CDATA[<b>Tier 2</b> | Score: 65<br>Owner: Thompson Equity Partners Llc<br>Address: Maddox Rd, Mount Juliet, TN<br>Acreage: 2.0<br>APN: 140-002.00<br><a href="https://landportal.com/?property=Zmlwcz00NzE4OSZsbF91dWlkPTEyNTE0NTA5NiZhcG49MTQwLTAwMi4wMA==">&#128279; View on LandPortal</a>]]></description><Point><coordinates>-86.44144650182984,36.060374168313075,0</coordinates></Point></Placemark>
    <Placemark><name>Ebel Jeff, Ebel Sally</name><styleUrl>#tier2</styleUrl><description><![CDATA[<b>Tier 2</b> | Score: 65<br>Owner: Ebel Jeff, Ebel Sally<br>Address: 355 Business Park Dr, Lebanon, TN<br>Acreage: 3.8<br>APN: 056-058.15<br><a href="https://landportal.com/?property=Zmlwcz00NzE4OSZsbF91dWlkPTEyNTEwODA5MCZhcG49MDU2LTA1OC4xNQ==">&#128279; View on LandPortal</a>]]></description><Point><coordinates>-86.41917486930441,36.224626965088675,0</coordinates></Point></Placemark>
    <Placemark><name>Triple Crown Investments Llc</name><styleUrl>#tier2</styleUrl><description><![CDATA[<b>Tier 2</b> | Score: 65<br>Owner: Triple Crown Investments Llc<br>Address: 3541 Hobson Pike, Hermitage, TN<br>Acreage: 2.1<br>APN: 119-060.02<br><a href="https://landportal.com/?property=Zmlwcz00NzE4OSZsbF91dWlkPTEyNTE0OTc0OCZhcG49MTE5LTA2MC4wMg==">&#128279; View on LandPortal</a>]]></description><Point><coordinates>-86.5301567087908,36.10914437967384,0</coordinates></Point></Placemark>
    <Placemark><name>Regional Transportation, Authority</name><styleUrl>#tier2</styleUrl><description><![CDATA[<b>Tier 2</b> | Score: 65<br>Owner: Regional Transportation, Authority<br>Address: 334 W Baddour Pkwy, Lebanon, TN<br>Acreage: 5.22<br>APN: 068C-A-001.00<br><a href="https://landportal.com/?property=Zmlwcz00NzE4OSZsbF91dWlkPTEyNTEyMjYwNyZhcG49MDY4Qy1BLTAwMS4wMA==">&#128279; View on LandPortal</a>]]></description><Point><coordinates>-86.29652977640436,36.212329438529366,0</coordinates></Point></Placemark>
    <Placemark><name>Ozark Motor Lines Inc</name><styleUrl>#tier2</styleUrl><description><![CDATA[<b>Tier 2</b> | Score: 65<br>Owner: Ozark Motor Lines Inc<br>Address: Tennessee Blvd, Lebanon, TN<br>Acreage: 6.62<br>APN: 067-085.00<br><a href="https://landportal.com/?property=Zmlwcz00NzE4OSZsbF91dWlkPTEyNTEzMzU3NCZhcG49MDY3LTA4NS4wMA==">&#128279; View on LandPortal</a>]]></description><Point><coordinates>-86.26797521518425,36.20308666956596,0</coordinates></Point></Placemark>
    <Placemark><name>Chandler Pointe Hoa</name><styleUrl>#tier2</styleUrl><description><![CDATA[<b>Tier 2</b> | Score: 65<br>Owner: Chandler Pointe Hoa<br>Address: Eagle Trace Dr, Mount Juliet, TN<br>Acreage: 7.0<br>APN: 076-001.03<br><a href="https://landportal.com/?property=Zmlwcz00NzE4OSZsbF91dWlkPTEyNTExODcwNCZhcG49MDc2LTAwMS4wMw==">&#128279; View on LandPortal</a>]]></description><Point><coordinates>-86.56458813307455,36.18779080600383,0</coordinates></Point></Placemark>
    <Placemark><name>Long Jonathan Alan</name><styleUrl>#tier2</styleUrl><description><![CDATA[<b>Tier 2</b> | Score: 65<br>Owner: Long Jonathan Alan<br>Address: 1141 Maddox-simpson Pkwy, Lebanon, TN<br>Acreage: 4.44<br>APN: 081-086.11<br><a href="https://landportal.com/?property=Zmlwcz00NzE4OSZsbF91dWlkPTEyNTE0MjcyMSZhcG49MDgxLTA4Ni4xMQ==">&#128279; View on LandPortal</a>]]></description><Point><coordinates>-86.30246125747567,36.17267658304784,0</coordinates></Point></Placemark>
    <Placemark><name>Unique Development Llc</name><styleUrl>#tier2</styleUrl><description><![CDATA[<b>Tier 2</b> | Score: 65<br>Owner: Unique Development Llc<br>Address: 1233 S Hartmann Dr, Lebanon, TN<br>Acreage: 2.39<br>APN: 081-086.03<br><a href="https://landportal.com/?property=Zmlwcz00NzE4OSZsbF91dWlkPTEyNTE0MjcxMyZhcG49MDgxLTA4Ni4wMw==">&#128279; View on LandPortal</a>]]></description><Point><coordinates>-86.30364743217908,36.17453048361894,0</coordinates></Point></Placemark>
    <Placemark><name>Tlc Properties Llc</name><styleUrl>#tier2</styleUrl><description><![CDATA[<b>Tier 2</b> | Score: 65<br>Owner: Tlc Properties Llc<br>Address: Lebanon Rd, Lebanon, TN<br>Acreage: 2.01<br>APN: 047-037.02<br><a href="https://landportal.com/?property=Zmlwcz00NzE4OSZsbF91dWlkPTEyNTEwMzk3MiZhcG49MDQ3LTAzNy4wMg==">&#128279; View on LandPortal</a>]]></description><Point><coordinates>-86.40761969587723,36.23935802704435,0</coordinates></Point></Placemark>
    <Placemark><name>Middle Tennessee Electric, Membership Corp</name><styleUrl>#tier2</styleUrl><description><![CDATA[<b>Tier 2</b> | Score: 65<br>Owner: Middle Tennessee Electric, Membership Corp<br>Address: 8250 Eastgate Blvd, Mount Juliet, TN<br>Acreage: 6.93<br>APN: 078-032.05<br><a href="https://landportal.com/?property=Zmlwcz00NzE4OSZsbF91dWlkPTEyNTE0MjM1OCZhcG49MDc4LTAzMi4wNQ==">&#128279; View on LandPortal</a>]]></description><Point><coordinates>-86.4386604246999,36.1838871232099,0</coordinates></Point></Placemark>
    <Placemark><name>Sebastine Eraga Family Trust</name><styleUrl>#tier2</styleUrl><description><![CDATA[<b>Tier 2</b> | Score: 65<br>Owner: Sebastine Eraga Family Trust<br>Address: Maddox Rd, Mount Juliet, TN<br>Acreage: 4.07<br>APN: 140-006.00<br><a href="https://landportal.com/?property=Zmlwcz00NzE4OSZsbF91dWlkPTEyNTEzMzY1MSZhcG49MTQwLTAwNi4wMA==">&#128279; View on LandPortal</a>]]></description><Point><coordinates>-86.44179947693979,36.05787799366,0</coordinates></Point></Placemark>
    <Placemark><name>Timber Trail Hoa</name><styleUrl>#tier2</styleUrl><description><![CDATA[<b>Tier 2</b> | Score: 65<br>Owner: Timber Trail Hoa<br>Address: Timber Trail Dr, Mount Juliet, TN<br>Acreage: 6.29<br>APN: 072B-A-026.00<br><a href="https://landportal.com/?property=Zmlwcz00NzE4OSZsbF91dWlkPTEyNTEzNzY5NyZhcG49MDcyQi1BLTAyNi4wMA==">&#128279; View on LandPortal</a>]]></description><Point><coordinates>-86.50694335597308,36.21233402848544,0</coordinates></Point></Placemark>
    <Placemark><name>Willoughby Station Homeowners Association Inc</name><styleUrl>#tier2</styleUrl><description><![CDATA[<b>Tier 2</b> | Score: 65<br>Owner: Willoughby Station Homeowners Association Inc<br>Address: Sydney Ter, Mount Juliet, TN<br>Acreage: 9.98<br>APN: 073A-E-001.01<br><a href="https://landportal.com/?property=Zmlwcz00NzE4OSZsbF91dWlkPTEyNTEzODk1MyZhcG49MDczQS1FLTAwMS4wMQ==">&#128279; View on LandPortal</a>]]></description><Point><coordinates>-86.56170751180696,36.21402040532958,0</coordinates></Point></Placemark>
    <Placemark><name>Sarhane Abdellah</name><styleUrl>#tier2</styleUrl><description><![CDATA[<b>Tier 2</b> | Score: 65<br>Owner: Sarhane Abdellah<br>Address: Africa Rd, Lebanon, TN<br>Acreage: 2.0<br>APN: 044-015.02<br><a href="https://landportal.com/?property=Zmlwcz00NzE4OSZsbF91dWlkPTEyNTExNjcwNCZhcG49MDQ0LTAxNS4wMg==">&#128279; View on LandPortal</a>]]></description><Point><coordinates>-86.27195835897373,36.25509256668418,0</coordinates></Point></Placemark>
    <Placemark><name>Omos Lebanon Llc</name><styleUrl>#tier2</styleUrl><description><![CDATA[<b>Tier 2</b> | Score: 65<br>Owner: Omos Lebanon Llc<br>Address: 106 Carver Ln, Mount Juliet, TN<br>Acreage: 5.99<br>APN: 057-060.02<br><a href="https://landportal.com/?property=Zmlwcz00NzE4OSZsbF91dWlkPTE3NTQzODA4MCZhcG49MDU3LTA2MC4wMg==">&#128279; View on LandPortal</a>]]></description><Point><coordinates>-86.33797784013444,36.22055959465363,0</coordinates></Point></Placemark>
    <Placemark><name>Hester Brenda Stewart</name><styleUrl>#tier2</styleUrl><description><![CDATA[<b>Tier 2</b> | Score: 65<br>Owner: Hester Brenda Stewart<br>Address: 61 Nw Williams Rd, Lebanon, TN<br>Acreage: 2.5<br>APN: 027-036.00<br><a href="https://landportal.com/?property=Zmlwcz00NzE4OSZsbF91dWlkPTEyNTEyMTU2OCZhcG49MDI3LTAzNi4wMA==">&#128279; View on LandPortal</a>]]></description><Point><coordinates>-86.44103571795405,36.300008501255874,0</coordinates></Point></Placemark>
    <Placemark><name>Fisher Freed Judith, Judith Fisher Freed Living Trust</name><styleUrl>#tier2</styleUrl><description><![CDATA[<b>Tier 2</b> | Score: 65<br>Owner: Fisher Freed Judith, Judith Fisher Freed Living Trust<br>Address: 1067 Jennings Pond Rd, Lebanon, TN<br>Acreage: 4.15<br>APN: 142-018.00<br><a href="https://landportal.com/?property=Zmlwcz00NzE4OSZsbF91dWlkPTEyNTEzNDI2NSZhcG49MTQyLTAxOC4wMA==">&#128279; View on LandPortal</a>]]></description><Point><coordinates>-86.33479182053506,36.056472085395185,0</coordinates></Point></Placemark>
    <Placemark><name>Chestnut Glen Homeowners Association Inc</name><styleUrl>#tier2</styleUrl><description><![CDATA[<b>Tier 2</b> | Score: 65<br>Owner: Chestnut Glen Homeowners Association Inc<br>Address: 1037 Bending Chestnut Dr, Lebanon, TN<br>Acreage: 5.02<br>APN: 013L-B-001.00<br><a href="https://landportal.com/?property=Zmlwcz00NzE4OSZsbF91dWlkPTEyNTExMzk1MSZhcG49MDEzTC1CLTAwMS4wMA==">&#128279; View on LandPortal</a>]]></description><Point><coordinates>-86.43090362599943,36.30992851931421,0</coordinates></Point></Placemark>
    <Placemark><name>Water &amp; Wastewater Of Wilson County</name><styleUrl>#tier2</styleUrl><description><![CDATA[<b>Tier 2</b> | Score: 65<br>Owner: Water &amp; Wastewater Of Wilson County<br>Address: Hidden Harbour Dr, Old Hickory, TN<br>Acreage: 7.4<br>APN: 050-182.01<br><a href="https://landportal.com/?property=Zmlwcz00NzE4OSZsbF91dWlkPTEyNTEwNDY1MyZhcG49MDUwLTE4Mi4wMQ==">&#128279; View on LandPortal</a>]]></description><Point><coordinates>-86.55695264796256,36.24537551593943,0</coordinates></Point></Placemark>
    <Placemark><name>Gaskins Abe</name><styleUrl>#tier2</styleUrl><description><![CDATA[<b>Tier 2</b> | Score: 65<br>Owner: Gaskins Abe<br>Address: 700 Aviation Way, Lebanon, TN<br>Acreage: 0.0<br>APN: 081-004.01-013<br><a href="https://landportal.com/?property=Zmlwcz00NzE4OSZsbF91dWlkPTE2MTQzODY0OCZhcG49MDgxLTAwNC4wMS0wMTM=">&#128279; View on LandPortal</a>]]></description><Point><coordinates>-86.3149644643729,36.184624539664135,0</coordinates></Point></Placemark>
    <Placemark><name>Yates Fred, Yates Ruth</name><styleUrl>#tier2</styleUrl><description><![CDATA[<b>Tier 2</b> | Score: 65<br>Owner: Yates Fred, Yates Ruth<br>Address: Classic View Dr, Lebanon, TN<br>Acreage: 3.63<br>APN: 057-054.00<br><a href="https://landportal.com/?property=Zmlwcz00NzE4OSZsbF91dWlkPTEyNTExNjc4MiZhcG49MDU3LTA1NC4wMA==">&#128279; View on LandPortal</a>]]></description><Point><coordinates>-86.34211388787362,36.224615927663415,0</coordinates></Point></Placemark>
    <Placemark><name>Bryant Frank A</name><styleUrl>#tier2</styleUrl><description><![CDATA[<b>Tier 2</b> | Score: 65<br>Owner: Bryant Frank A<br>Address: E Baddour Pkwy, Lebanon, TN<br>Acreage: 3.0<br>APN: 067I-D-002.01<br><a href="https://landportal.com/?property=Zmlwcz00NzE4OSZsbF91dWlkPTEyNTEzMjEyOSZhcG49MDY3SS1ELTAwMi4wMQ==">&#128279; View on LandPortal</a>]]></description><Point><coordinates>-86.27500638085621,36.202430236912704,0</coordinates></Point></Placemark>
    <Placemark><name>Manning Properties Llc</name><styleUrl>#tier2</styleUrl><description><![CDATA[<b>Tier 2</b> | Score: 65<br>Owner: Manning Properties Llc<br>Address: 1673 Se Tater Peeler Rd, Lebanon, TN<br>Acreage: 4.75<br>APN: 081-071.00<br><a href="https://landportal.com/?property=Zmlwcz00NzE4OSZsbF91dWlkPTEyNTEzNDE4MCZhcG49MDgxLTA3MS4wMA==">&#128279; View on LandPortal</a>]]></description><Point><coordinates>-86.28994586551532,36.17872439582585,0</coordinates></Point></Placemark>
    <Placemark><name>Nugent Julie Nicole</name><styleUrl>#tier2</styleUrl><description><![CDATA[<b>Tier 2</b> | Score: 65<br>Owner: Nugent Julie Nicole<br>Address: 1590 Rocky Branch Rd, Watertown, TN<br>Acreage: 3.0<br>APN: 153-001.02<br><a href="https://landportal.com/?property=Zmlwcz00NzE4OSZsbF91dWlkPTE2Nzk2MTAyOSZhcG49MTUzLTAwMS4wMg==">&#128279; View on LandPortal</a>]]></description><Point><coordinates>-86.18481053570343,36.0427818841255,0</coordinates></Point></Placemark>
    <Placemark><name>Patel Rameshkumar L</name><styleUrl>#tier2</styleUrl><description><![CDATA[<b>Tier 2</b> | Score: 65<br>Owner: Patel Rameshkumar L<br>Address: 1124 Sparta Pike, Lebanon, TN<br>Acreage: 3.67<br>APN: 082-014.00<br><a href="https://landportal.com/?property=Zmlwcz00NzE4OSZsbF91dWlkPTEyNTE0Mzk3MyZhcG49MDgyLTAxNC4wMA==">&#128279; View on LandPortal</a>]]></description><Point><coordinates>-86.27324799729915,36.1913120811338,0</coordinates></Point></Placemark>
    <Placemark><name>1024 Mrc Trust, Mobley</name><styleUrl>#tier2</styleUrl><description><![CDATA[<b>Tier 2</b> | Score: 65<br>Owner: 1024 Mrc Trust, Mobley<br>Address: 1024 Murfreesboro Rd, Lebanon, TN<br>Acreage: 4.15<br>APN: 081-087.02<br><a href="https://landportal.com/?property=Zmlwcz00NzE4OSZsbF91dWlkPTEyNTE0Mjc2MyZhcG49MDgxLTA4Ny4wMg==">&#128279; View on LandPortal</a>]]></description><Point><coordinates>-86.30308587282207,36.17631525798713,0</coordinates></Point></Placemark>
    <Placemark><name>Chandler Pointe Hoa</name><styleUrl>#tier2</styleUrl><description><![CDATA[<b>Tier 2</b> | Score: 65<br>Owner: Chandler Pointe Hoa<br>Address: Eagle Trace Dr, Mount Juliet, TN<br>Acreage: 8.5<br>APN: 074M-A-051.00<br><a href="https://landportal.com/?property=Zmlwcz00NzE4OSZsbF91dWlkPTEyNTE1MzEzNCZhcG49MDc0TS1BLTA1MS4wMA==">&#128279; View on LandPortal</a>]]></description><Point><coordinates>-86.57200903563508,36.19501049118906,0</coordinates></Point></Placemark>
    <Placemark><name>Langford Farms Common, Facilities Assoc</name><styleUrl>#tier2</styleUrl><description><![CDATA[<b>Tier 2</b> | Score: 65<br>Owner: Langford Farms Common, Facilities Assoc<br>Address: Saundersville Fry, Old Hickory, TN<br>Acreage: 8.8<br>APN: 052D-F-025.00<br><a href="https://landportal.com/?property=Zmlwcz00NzE4OSZsbF91dWlkPTEyNTEyMTEzMSZhcG49MDUyRC1GLTAyNS4wMA==">&#128279; View on LandPortal</a>]]></description><Point><coordinates>-86.58201796093653,36.23060038898408,0</coordinates></Point></Placemark>
    <Placemark><name>Providence Master Owners</name><styleUrl>#tier2</styleUrl><description><![CDATA[<b>Tier 2</b> | Score: 65<br>Owner: Providence Master Owners<br>Address: Forest Bend Dr, Mount Juliet, TN<br>Acreage: 5.79<br>APN: 096F-B-033.00<br><a href="https://landportal.com/?property=Zmlwcz00NzE4OSZsbF91dWlkPTEyNTEzNzg5NSZhcG49MDk2Ri1CLTAzMy4wMA==">&#128279; View on LandPortal</a>]]></description><Point><coordinates>-86.49430538116084,36.1653529829658,0</coordinates></Point></Placemark>
    <Placemark><name>Middle Tennessee Electric</name><styleUrl>#tier2</styleUrl><description><![CDATA[<b>Tier 2</b> | Score: 65<br>Owner: Middle Tennessee Electric<br>Address: E Division St, Mount Juliet, TN<br>Acreage: 6.1<br>APN: 072-080.00<br><a href="https://landportal.com/?property=Zmlwcz00NzE4OSZsbF91dWlkPTEyNTEzNjMxMCZhcG49MDcyLTA4MC4wMA==">&#128279; View on LandPortal</a>]]></description><Point><coordinates>-86.50491889967557,36.19438240421231,0</coordinates></Point></Placemark>
    <Placemark><name>Mutz Kevin, Mutz Paula</name><styleUrl>#tier2</styleUrl><description><![CDATA[<b>Tier 2</b> | Score: 65<br>Owner: Mutz Kevin, Mutz Paula<br>Address: 502 Palmer Rd, Lebanon, TN<br>Acreage: 2.11<br>APN: 056-031.01<br><a href="https://landportal.com/?property=Zmlwcz00NzE4OSZsbF91dWlkPTEyNTEwNzg2MiZhcG49MDU2LTAzMS4wMQ==">&#128279; View on LandPortal</a>]]></description><Point><coordinates>-86.38410764047796,36.22473084637569,0</coordinates></Point></Placemark>
    <Placemark><name>Anderson Thomas E</name><styleUrl>#tier2</styleUrl><description><![CDATA[<b>Tier 2</b> | Score: 65<br>Owner: Anderson Thomas E<br>Address: Highway 109 N, Lebanon, TN<br>Acreage: 3.2<br>APN: 079-063.00<br><a href="https://landportal.com/?property=Zmlwcz00NzE4OSZsbF91dWlkPTEyNTE1NDE1NCZhcG49MDc5LTA2My4wMA==">&#128279; View on LandPortal</a>]]></description><Point><coordinates>-86.40771710666425,36.18274183917691,0</coordinates></Point></Placemark>
    <Placemark><name>Margaret Rebecca Thomas Revocable Trust, Thomas</name><styleUrl>#tier2</styleUrl><description><![CDATA[<b>Tier 2</b> | Score: 65<br>Owner: Margaret Rebecca Thomas Revocable Trust, Thomas<br>Address: Oak Grove Rd, Lebanon, TN<br>Acreage: 2.5<br>APN: 093-039.11<br><a href="https://landportal.com/?property=Zmlwcz00NzE4OSZsbF91dWlkPTEyNTE0NjIyMCZhcG49MDkzLTAzOS4xMQ==">&#128279; View on LandPortal</a>]]></description><Point><coordinates>-86.36587271674094,36.159482731184376,0</coordinates></Point></Placemark>
    <Placemark><name>Meraiya Nishant, Patel Jashiben Bharatbhai</name><styleUrl>#tier2</styleUrl><description><![CDATA[<b>Tier 2</b> | Score: 65<br>Owner: Meraiya Nishant, Patel Jashiben Bharatbhai<br>Address: Highway 109 N, Mount Juliet, TN<br>Acreage: 2.0<br>APN: 055-050.02<br><a href="https://landportal.com/?property=Zmlwcz00NzE4OSZsbF91dWlkPTEyNTE0MDYwNCZhcG49MDU1LTA1MC4wMg==">&#128279; View on LandPortal</a>]]></description><Point><coordinates>-86.42749268048661,36.231098680025056,0</coordinates></Point></Placemark>
    <Placemark><name>Cedar Farm Owner Llc S Merchants, Dover Valor Res New &amp; Vakir Res New Ii</name><styleUrl>#tier2</styleUrl><description><![CDATA[<b>Tier 2</b> | Score: 62<br>Owner: Cedar Farm Owner Llc S Merchants, Dover Valor Res New &amp; Vakir Res New Ii<br>Address: 409 Carver Ln, Lebanon, TN<br>Acreage: 1.12<br>APN: 045-057.00-001<br><a href="https://landportal.com/?property=Zmlwcz00NzE4OSZsbF91dWlkPTE1Njg3MDA3MSZhcG49MDQ1LTA1Ny4wMC0wMDE=">&#128279; View on LandPortal</a>]]></description><Point><coordinates>-86.32497552493682,36.238106270266414,0</coordinates></Point></Placemark>
    <Placemark><name>Patel Krishna M</name><styleUrl>#tier2</styleUrl><description><![CDATA[<b>Tier 2</b> | Score: 62<br>Owner: Patel Krishna M<br>Address: 10900 Murfreesboro Rd, Lebanon, TN<br>Acreage: 3.23<br>APN: 160-004.00<br><a href="https://landportal.com/?property=Zmlwcz00NzE4OSZsbF91dWlkPTEyNTE0NjAwNyZhcG49MTYwLTAwNC4wMA==">&#128279; View on LandPortal</a>]]></description><Point><coordinates>-86.36429530255532,36.012472255198375,0</coordinates></Point></Placemark>
    <Placemark><name>Baer Gregory H, Lynn Baer</name><styleUrl>#tier2</styleUrl><description><![CDATA[<b>Tier 2</b> | Score: 62<br>Owner: Baer Gregory H, Lynn Baer<br>Address: 158 Karen Dr, Mount Juliet, TN<br>Acreage: 3.15<br>APN: 049-042.30<br><a href="https://landportal.com/?property=Zmlwcz00NzE4OSZsbF91dWlkPTEyNTExODg2MiZhcG49MDQ5LTA0Mi4zMA==">&#128279; View on LandPortal</a>]]></description><Point><coordinates>-86.48543292518613,36.24269872178259,0</coordinates></Point></Placemark>
    <Placemark><name>Mcpeak Mark Daniel</name><styleUrl>#tier2</styleUrl><description><![CDATA[<b>Tier 2</b> | Score: 62<br>Owner: Mcpeak Mark Daniel<br>Address: 2654 Bluebird Rd, Lebanon, TN<br>Acreage: 3.14<br>APN: 067-055.03<br><a href="https://landportal.com/?property=Zmlwcz00NzE4OSZsbF91dWlkPTE1NTQ5NzA4OSZhcG49MDY3LTA1NS4wMw==">&#128279; View on LandPortal</a>]]></description><Point><coordinates>-86.24487563738049,36.19935232954101,0</coordinates></Point></Placemark>
    <Placemark><name>Harris Nathan, Harris Lyndsey</name><styleUrl>#tier2</styleUrl><description><![CDATA[<b>Tier 2</b> | Score: 62<br>Owner: Harris Nathan, Harris Lyndsey<br>Address: 316 Bethlehem Rd, Lebanon, TN<br>Acreage: 3.08<br>APN: 069-001.05<br><a href="https://landportal.com/?property=Zmlwcz00NzE4OSZsbF91dWlkPTE1NTQ5NjcxOCZhcG49MDY5LTAwMS4wNQ==">&#128279; View on LandPortal</a>]]></description><Point><coordinates>-86.3633237986636,36.21219271277071,0</coordinates></Point></Placemark>
    <Placemark><name>Owens Chelsea J</name><styleUrl>#tier2</styleUrl><description><![CDATA[<b>Tier 2</b> | Score: 62<br>Owner: Owens Chelsea J<br>Address: 1600 Hartsville Pike, Lebanon, TN<br>Acreage: 2.7<br>APN: 059-028.04<br><a href="https://landportal.com/?property=Zmlwcz00NzE4OSZsbF91dWlkPTEyNTEyMDU3MCZhcG49MDU5LTAyOC4wNA==">&#128279; View on LandPortal</a>]]></description><Point><coordinates>-86.27115320837851,36.22925917758023,0</coordinates></Point></Placemark>
    <Placemark><name>Wright Farms Llc</name><styleUrl>#tier2</styleUrl><description><![CDATA[<b>Tier 2</b> | Score: 62<br>Owner: Wright Farms Llc<br>Address: 1711 Amhurst Pt, Mount Juliet, TN<br>Acreage: 6.9<br>APN: 099C-F-030.00<br><a href="https://landportal.com/?property=Zmlwcz00NzE4OSZsbF91dWlkPTE1NTQ5NTg2MyZhcG49MDk5Qy1GLTAzMC4wMA==">&#128279; View on LandPortal</a>]]></description><Point><coordinates>-86.49022606365256,36.145577386918475,0</coordinates></Point></Placemark>
    <Placemark><name>Winton Bettie J</name><styleUrl>#tier2</styleUrl><description><![CDATA[<b>Tier 2</b> | Score: 62<br>Owner: Winton Bettie J<br>Address: 14868 Central Park, Nashville, TN<br>Acreage: 1.555<br>APN: 101-033.03-001<br><a href="https://landportal.com/?property=Zmlwcz00NzE4OSZsbF91dWlkPTE3MDMwMDU3NSZhcG49MTAxLTAzMy4wMy0wMDE=">&#128279; View on LandPortal</a>]]></description><Point><coordinates>-86.40457315149442,36.13532124914072,0</coordinates></Point></Placemark>
    <Placemark><name>Smith Jo, Baggett Margaret Coe</name><styleUrl>#tier2</styleUrl><description><![CDATA[<b>Tier 2</b> | Score: 62<br>Owner: Smith Jo, Baggett Margaret Coe<br>Address: Bluebird Rd, Lebanon, TN<br>Acreage: 3.31<br>APN: 083-032.03<br><a href="https://landportal.com/?property=Zmlwcz00NzE4OSZsbF91dWlkPTE3NTQzODQ4NSZhcG49MDgzLTAzMi4wMw==">&#128279; View on LandPortal</a>]]></description><Point><coordinates>-86.21964601786499,36.19306173741998,0</coordinates></Point></Placemark>
    <Placemark><name>Beadle Bobby, Beadle Marsha Lynn</name><styleUrl>#tier2</styleUrl><description><![CDATA[<b>Tier 2</b> | Score: 62<br>Owner: Beadle Bobby, Beadle Marsha Lynn<br>Address: 1755 Jug Creek Rd, Watertown, TN<br>Acreage: 3.18<br>APN: 155-027.01<br><a href="https://landportal.com/?property=Zmlwcz00NzE4OSZsbF91dWlkPTE1Njg3MDEzOSZhcG49MTU1LTAyNy4wMQ==">&#128279; View on LandPortal</a>]]></description><Point><coordinates>-86.24089427076399,36.029664247465575,0</coordinates></Point></Placemark>
    <Placemark><name>Gannon Jeffrey, Gannon Lisa J</name><styleUrl>#tier2</styleUrl><description><![CDATA[<b>Tier 2</b> | Score: 62<br>Owner: Gannon Jeffrey, Gannon Lisa J<br>Address: 9200 Murfreesboro Rd, Lebanon, TN<br>Acreage: 4.22<br>APN: 157-016.01<br><a href="https://landportal.com/?property=Zmlwcz00NzE4OSZsbF91dWlkPTE2Mzc1NjQ3NSZhcG49MTU3LTAxNi4wMQ==">&#128279; View on LandPortal</a>]]></description><Point><coordinates>-86.35605825751409,36.03928959157459,0</coordinates></Point></Placemark>
    <Placemark><name>Beretta Lillian Roman, Wharton Nicole Marie</name><styleUrl>#tier2</styleUrl><description><![CDATA[<b>Tier 2</b> | Score: 62<br>Owner: Beretta Lillian Roman, Wharton Nicole Marie<br>Address: 977 Pleasant Grove Rd, Mount Juliet, TN<br>Acreage: 2.22<br>APN: 076-040.05<br><a href="https://landportal.com/?property=Zmlwcz00NzE4OSZsbF91dWlkPTE3NTQzNjE2NiZhcG49MDc2LTA0MC4wNQ==">&#128279; View on LandPortal</a>]]></description><Point><coordinates>-86.5301036364161,36.17439671072742,0</coordinates></Point></Placemark>
    <Placemark><name>Premo Dino J, Premo Jennifer L</name><styleUrl>#tier2</styleUrl><description><![CDATA[<b>Tier 2</b> | Score: 62<br>Owner: Premo Dino J, Premo Jennifer L<br>Address: 1108a Northern Rd, Mount Juliet, TN<br>Acreage: 2.25<br>APN: 033-004.13<br><a href="https://landportal.com/?property=Zmlwcz00NzE4OSZsbF91dWlkPTE2Nzk1OTA3OCZhcG49MDMzLTAwNC4xMw==">&#128279; View on LandPortal</a>]]></description><Point><coordinates>-86.45885733475689,36.26807009279302,0</coordinates></Point></Placemark>
    <Placemark><name>Watkins Connie S Randy Dedman, Dedman Terry M</name><styleUrl>#tier2</styleUrl><description><![CDATA[<b>Tier 2</b> | Score: 62<br>Owner: Watkins Connie S Randy Dedman, Dedman Terry M<br>Address: Hartsville Park, Lebanon, TN<br>Acreage: 3.55<br>APN: 044-041.25<br><a href="https://landportal.com/?property=Zmlwcz00NzE4OSZsbF91dWlkPTE2Nzk1OTEyNSZhcG49MDQ0LTA0MS4yNQ==">&#128279; View on LandPortal</a>]]></description><Point><coordinates>-86.24407839001348,36.257199474561915,0</coordinates></Point></Placemark>
    <Placemark><name>Paddock Place Developers Llc</name><styleUrl>#tier2</styleUrl><description><![CDATA[<b>Tier 2</b> | Score: 62<br>Owner: Paddock Place Developers Llc<br>Address: Saddle Ridge Dr, Santa Rosa Beach, TN<br>Acreage: 6.91<br>APN: 053B-G-018.00<br><a href="https://landportal.com/?property=Zmlwcz00NzE4OSZsbF91dWlkPTE2Nzk1OTI4OCZhcG49MDUzQi1HLTAxOC4wMA==">&#128279; View on LandPortal</a>]]></description><Point><coordinates>-86.55267590852296,36.236022472103485,0</coordinates></Point></Placemark>
    <Placemark><name>Bone Harold G</name><styleUrl>#tier2</styleUrl><description><![CDATA[<b>Tier 2</b> | Score: 62<br>Owner: Bone Harold G<br>Address: Lebanon Rd, Lebanon, TN<br>Acreage: 4.22<br>APN: 056-024.04<br><a href="https://landportal.com/?property=Zmlwcz00NzE4OSZsbF91dWlkPTE3NTQzNTY5NSZhcG49MDU2LTAyNC4wNA==">&#128279; View on LandPortal</a>]]></description><Point><coordinates>-86.38531565864542,36.23435007836684,0</coordinates></Point></Placemark>
    <Placemark><name>Tarpley Hayley Sloan</name><styleUrl>#tier2</styleUrl><description><![CDATA[<b>Tier 2</b> | Score: 62<br>Owner: Tarpley Hayley Sloan<br>Address: 5270 Greenvale Rd, Watertown, TN<br>Acreage: 3.03<br>APN: 164-026.03<br><a href="https://landportal.com/?property=Zmlwcz00NzE4OSZsbF91dWlkPTE3NTQzNTUyNyZhcG49MTY0LTAyNi4wMw==">&#128279; View on LandPortal</a>]]></description><Point><coordinates>-86.15517132824455,36.004865014961084,0</coordinates></Point></Placemark>
    <Placemark><name>Cagle Derrell E, Cagle Gloria M</name><styleUrl>#tier2</styleUrl><description><![CDATA[<b>Tier 2</b> | Score: 62<br>Owner: Cagle Derrell E, Cagle Gloria M<br>Address: Mccrary Rd, Franklin, TN<br>Acreage: 2.83<br>APN: 137-036.14<br><a href="https://landportal.com/?property=Zmlwcz00NzE4OSZsbF91dWlkPTE3Mzg0MDA2NSZhcG49MTM3LTAzNi4xNA==">&#128279; View on LandPortal</a>]]></description><Point><coordinates>-86.42308086865937,36.06372988554959,0</coordinates></Point></Placemark>
    <Placemark><name>Hearn Herscel A, Hearn Desha L</name><styleUrl>#tier2</styleUrl><description><![CDATA[<b>Tier 2</b> | Score: 62<br>Owner: Hearn Herscel A, Hearn Desha L<br>Address: Lebanon Rd, Hermitage, TN<br>Acreage: 2.8<br>APN: 055-030.00<br><a href="https://landportal.com/?property=Zmlwcz00NzE4OSZsbF91dWlkPTE3Mzg0MDA2MyZhcG49MDU1LTAzMC4wMA==">&#128279; View on LandPortal</a>]]></description><Point><coordinates>-86.43412852490667,36.23411817449177,0</coordinates></Point></Placemark>
    <Placemark><name>Blackburn Kelsey, Blackburn Lorie</name><styleUrl>#tier2</styleUrl><description><![CDATA[<b>Tier 2</b> | Score: 62<br>Owner: Blackburn Kelsey, Blackburn Lorie<br>Address: 301 Spring Creek Rd, Lebanon, TN<br>Acreage: 2.21<br>APN: 044-041.43<br><a href="https://landportal.com/?property=Zmlwcz00NzE4OSZsbF91dWlkPTE3MDI5Njk5MSZhcG49MDQ0LTA0MS40Mw==">&#128279; View on LandPortal</a>]]></description><Point><coordinates>-86.2375041852336,36.254620075799735,0</coordinates></Point></Placemark>
    <Placemark><name>Mitchell Rodger, Montanez Anita</name><styleUrl>#tier2</styleUrl><description><![CDATA[<b>Tier 2</b> | Score: 62<br>Owner: Mitchell Rodger, Montanez Anita<br>Address: 5688 Lebanon Rd, Lebanon, TN<br>Acreage: 4.39<br>APN: 056-005.49<br><a href="https://landportal.com/?property=Zmlwcz00NzE4OSZsbF91dWlkPTE3MDI5NzcwMiZhcG49MDU2LTAwNS40OQ==">&#128279; View on LandPortal</a>]]></description><Point><coordinates>-86.41611498075679,36.23419744812351,0</coordinates></Point></Placemark>
    <Placemark><name>Cherry Bart</name><styleUrl>#tier2</styleUrl><description><![CDATA[<b>Tier 2</b> | Score: 62<br>Owner: Cherry Bart<br>Address: 3922 Trousdale Ferry Pike, Lebanon, TN<br>Acreage: 4.64<br>APN: 066-025.01<br><a href="https://landportal.com/?property=Zmlwcz00NzE4OSZsbF91dWlkPTE3MDI5ODIzMiZhcG49MDY2LTAyNS4wMQ==">&#128279; View on LandPortal</a>]]></description><Point><coordinates>-86.20917628346396,36.20316397255348,0</coordinates></Point></Placemark>
    <Placemark><name>Power David, Power Mitzi</name><styleUrl>#tier2</styleUrl><description><![CDATA[<b>Tier 2</b> | Score: 62<br>Owner: Power David, Power Mitzi<br>Address: 1481 Sparta Park, Mount Juliet, TN<br>Acreage: 2.64<br>APN: 129-052.05<br><a href="https://landportal.com/?property=Zmlwcz00NzE4OSZsbF91dWlkPTE3MDMwMDY5NyZhcG49MTI5LTA1Mi4wNQ==">&#128279; View on LandPortal</a>]]></description><Point><coordinates>-86.06245339525086,36.08496714145774,0</coordinates></Point></Placemark>
    <Placemark><name>Griffin Jonathan Lucas, Casey Elizabeth</name><styleUrl>#tier2</styleUrl><description><![CDATA[<b>Tier 2</b> | Score: 62<br>Owner: Griffin Jonathan Lucas, Casey Elizabeth<br>Address: 661 Coon Branch Rd, Alexandria, TN<br>Acreage: 2.1<br>APN: 148-010.01<br><a href="https://landportal.com/?property=Zmlwcz00NzE4OSZsbF91dWlkPTE3NTQzNjMxMCZhcG49MTQ4LTAxMC4wMQ==">&#128279; View on LandPortal</a>]]></description><Point><coordinates>-86.05754494335065,36.05550637440405,0</coordinates></Point></Placemark>
    <Placemark><name>Haynes Cody J</name><styleUrl>#tier2</styleUrl><description><![CDATA[<b>Tier 2</b> | Score: 62<br>Owner: Haynes Cody J<br>Address: Swindell Hollow Rd, Lebanon, TN<br>Acreage: 2.0<br>APN: 064-005.21<br><a href="https://landportal.com/?property=Zmlwcz00NzE4OSZsbF91dWlkPTE3NTQzNjM3NSZhcG49MDY0LTAwNS4yMQ==">&#128279; View on LandPortal</a>]]></description><Point><coordinates>-86.12652045260901,36.200412496977584,0</coordinates></Point></Placemark>
    <Placemark><name>Farmer Bryan A, Farmer Melissa A</name><styleUrl>#tier2</styleUrl><description><![CDATA[<b>Tier 2</b> | Score: 62<br>Owner: Farmer Bryan A, Farmer Melissa A<br>Address: 1190 Academy Rd, Lebanon, TN<br>Acreage: 2.0<br>APN: 026-064.02<br><a href="https://landportal.com/?property=Zmlwcz00NzE4OSZsbF91dWlkPTE2MTQzODE1OSZhcG49MDI2LTA2NC4wMg==">&#128279; View on LandPortal</a>]]></description><Point><coordinates>-86.41148225070073,36.28616955375732,0</coordinates></Point></Placemark>
    <Placemark><name>King Forrest Allen</name><styleUrl>#tier2</styleUrl><description><![CDATA[<b>Tier 2</b> | Score: 62<br>Owner: King Forrest Allen<br>Address: 1010 Maple Hill Rd, Lebanon, TN<br>Acreage: 2.73<br>APN: 046-009.12<br><a href="https://landportal.com/?property=Zmlwcz00NzE4OSZsbF91dWlkPTE3NTQzODI2OCZhcG49MDQ2LTAwOS4xMg==">&#128279; View on LandPortal</a>]]></description><Point><coordinates>-86.33216344508526,36.25305187744756,0</coordinates></Point></Placemark>
    <Placemark><name>Hoover Properties Llc</name><styleUrl>#tier2</styleUrl><description><![CDATA[<b>Tier 2</b> | Score: 62<br>Owner: Hoover Properties Llc<br>Address: 2072 W Old Murfreesboro Rd, Corbin, TN<br>Acreage: 2.69<br>APN: 081-111.03<br><a href="https://landportal.com/?property=Zmlwcz00NzE4OSZsbF91dWlkPTE3NTQzODA5OCZhcG49MDgxLTExMS4wMw==">&#128279; View on LandPortal</a>]]></description><Point><coordinates>-86.31403139461884,36.17660934102916,0</coordinates></Point></Placemark>
    <Placemark><name>Lamberson Randy, Lamberson Andrea</name><styleUrl>#tier2</styleUrl><description><![CDATA[<b>Tier 2</b> | Score: 62<br>Owner: Lamberson Randy, Lamberson Andrea<br>Address: 370 New Town Rd, Watertown, TN<br>Acreage: 3.0<br>APN: 127-052.01<br><a href="https://landportal.com/?property=Zmlwcz00NzE4OSZsbF91dWlkPTE2MTQzNzQxNiZhcG49MTI3LTA1Mi4wMQ==">&#128279; View on LandPortal</a>]]></description><Point><coordinates>-86.14935352586545,36.10299803906837,0</coordinates></Point></Placemark>
    <Placemark><name>Bragg Roy, Bragg Joyce</name><styleUrl>#tier2</styleUrl><description><![CDATA[<b>Tier 2</b> | Score: 62<br>Owner: Bragg Roy, Bragg Joyce<br>Address: Lohman Rd, Mount Juliet, TN<br>Acreage: 3.49<br>APN: 100-042.04<br><a href="https://landportal.com/?property=Zmlwcz00NzE4OSZsbF91dWlkPTE3NTQzNzQ1NiZhcG49MTAwLTA0Mi4wNA==">&#128279; View on LandPortal</a>]]></description><Point><coordinates>-86.46702418192719,36.14249110589763,0</coordinates></Point></Placemark>
    <Placemark><name>Patel Krishna, Patel Pinal</name><styleUrl>#tier2</styleUrl><description><![CDATA[<b>Tier 2</b> | Score: 62<br>Owner: Patel Krishna, Patel Pinal<br>Address: 705 Forrest Park Dr, Lebanon, TN<br>Acreage: 2.4<br>APN: 081F-B-017.00<br><a href="https://landportal.com/?property=Zmlwcz00NzE4OSZsbF91dWlkPTE2Mzc1NTUzMiZhcG49MDgxRi1CLTAxNy4wMA==">&#128279; View on LandPortal</a>]]></description><Point><coordinates>-86.3051657402386,36.1870066127592,0</coordinates></Point></Placemark>
    <Placemark><name>Crowe Wesley</name><styleUrl>#tier2</styleUrl><description><![CDATA[<b>Tier 2</b> | Score: 62<br>Owner: Crowe Wesley<br>Address: 2525 Linwood Rd, Watertown, TN<br>Acreage: 2.96<br>APN: 106-025.12<br><a href="https://landportal.com/?property=Zmlwcz00NzE4OSZsbF91dWlkPTE3NTQzNzQ1NCZhcG49MTA2LTAyNS4xMg==">&#128279; View on LandPortal</a>]]></description><Point><coordinates>-86.17017687241191,36.131015505612126,0</coordinates></Point></Placemark>
    <Placemark><name>Jones George Tommy, Jones Donna</name><styleUrl>#tier2</styleUrl><description><![CDATA[<b>Tier 2</b> | Score: 62<br>Owner: Jones George Tommy, Jones Donna<br>Address: Hamilton Chambers Rd, Mount Juliet, TN<br>Acreage: 3.26<br>APN: 037-016.35<br><a href="https://landportal.com/?property=Zmlwcz00NzE4OSZsbF91dWlkPTE3NTQzNjc2NCZhcG49MDM3LTAxNi4zNQ==">&#128279; View on LandPortal</a>]]></description><Point><coordinates>-86.24101823282346,36.2642606427212,0</coordinates></Point></Placemark>
    <Placemark><name>Vance Phillip, Vance Emily</name><styleUrl>#tier2</styleUrl><description><![CDATA[<b>Tier 2</b> | Score: 62<br>Owner: Vance Phillip, Vance Emily<br>Address: 348 Mann Rd, Lebanon, TN<br>Acreage: 2.02<br>APN: 035-020.01<br><a href="https://landportal.com/?property=Zmlwcz00NzE4OSZsbF91dWlkPTE3NTQzNjU1MiZhcG49MDM1LTAyMC4wMQ==">&#128279; View on LandPortal</a>]]></description><Point><coordinates>-86.33423281706754,36.27287807975833,0</coordinates></Point></Placemark>
    <Placemark><name>Patel Vikram G, Patel Jayshree V</name><styleUrl>#tier2</styleUrl><description><![CDATA[<b>Tier 2</b> | Score: 62<br>Owner: Patel Vikram G, Patel Jayshree V<br>Address: 3131 S Rutland Rd, Mount Juliet, TN<br>Acreage: 4.62<br>APN: 095-001.06<br><a href="https://landportal.com/?property=Zmlwcz00NzE4OSZsbF91dWlkPTEyNTEzNTc2NSZhcG49MDk1LTAwMS4wNg==">&#128279; View on LandPortal</a>]]></description><Point><coordinates>-86.4595938139868,36.16647923198758,0</coordinates></Point></Placemark>
    <Placemark><name>City Of Lebanon</name><styleUrl>#tier2</styleUrl><description><![CDATA[<b>Tier 2</b> | Score: 62<br>Owner: City Of Lebanon<br>Address: 725 Elkins Dr, Lebanon, TN<br>Acreage: 9.2<br>APN: 068N-G-001.02<br><a href="https://landportal.com/?property=Zmlwcz00NzE4OSZsbF91dWlkPTEyNTEzNjcyNSZhcG49MDY4Ti1HLTAwMS4wMg==">&#128279; View on LandPortal</a>]]></description><Point><coordinates>-86.30693353126128,36.19290008931587,0</coordinates></Point></Placemark>
    <Placemark><name>Paddock Place Hoa</name><styleUrl>#tier2</styleUrl><description><![CDATA[<b>Tier 2</b> | Score: 62<br>Owner: Paddock Place Hoa<br>Address: Paddock Place Dr, Mount Juliet, TN<br>Acreage: 5.88<br>APN: 053C-B-068.00<br><a href="https://landportal.com/?property=Zmlwcz00NzE4OSZsbF91dWlkPTEyNTEzODQ2NyZhcG49MDUzQy1CLTA2OC4wMA==">&#128279; View on LandPortal</a>]]></description><Point><coordinates>-86.5508196751469,36.233680922031155,0</coordinates></Point></Placemark>
    <Placemark><name>City Of Lebanon</name><styleUrl>#tier2</styleUrl><description><![CDATA[<b>Tier 2</b> | Score: 62<br>Owner: City Of Lebanon<br>Address: 713 Elkins Dr, Lebanon, TN<br>Acreage: 6.4<br>APN: 068N-G-001.00<br><a href="https://landportal.com/?property=Zmlwcz00NzE4OSZsbF91dWlkPTEyNTEzNjcyMyZhcG49MDY4Ti1HLTAwMS4wMA==">&#128279; View on LandPortal</a>]]></description><Point><coordinates>-86.30628032875465,36.196295348234656,0</coordinates></Point></Placemark>